{"type":"FeatureCollection","metadata":{"gemeente":"Aa en Hunze","slug":"aa-en-hunze","code":"GM1680","generated_at":"2026-06-02T13:19:22.438Z","total_passenger":108,"total_freight":1,"bounds":[6.561504898413823,52.86815951417961,6.935684966534081,53.09476203341391],"operators":["Allego","DAEN Mobility","E-Flux by Road","EQUANS","Fastned","Fleet Charge Services","Opcharge","Pluq","PowerGo","PureCharged","Shell Recharge"]},"features":[{"type":"Feature","geometry":{"type":"Point","coordinates":[6.616581,52.97013]},"properties":{"type":"charge","layer":"passenger","locationId":"0399540e-11aa-11ee-b76b-42010aa40fda","name":"Fastned Baarveld","address":"N33, Baarveld, Eldersloo","city":"Eldersloo","operatorName":"Fastned","maxPowerKw":300,"isMegawatt":false,"status":"AVAILABLE","source":"ndw"}},{"type":"Feature","geometry":{"type":"Point","coordinates":[6.668793,53.074175]},"properties":{"type":"charge","layer":"passenger","locationId":"91145325","name":"Equans Groningen Drenthe Borgweg 15 a","address":"Borgweg 15 a","city":"Schipborg","operatorName":"EQUANS","maxPowerKw":0,"isMegawatt":false,"status":"AVAILABLE","source":"ndw"}},{"type":"Feature","geometry":{"type":"Point","coordinates":[6.846772,52.98636]},"properties":{"type":"charge","layer":"passenger","locationId":"NLLOC025739","name":"NL, Vaart 3, 9514 AA Gasselternijveen","address":"Vaart 3","city":"Gasselternijveen","operatorName":"Allego","maxPowerKw":0,"isMegawatt":false,"status":"AVAILABLE","source":"ndw"}},{"type":"Feature","geometry":{"type":"Point","coordinates":[6.756642,52.999552]},"properties":{"type":"charge","layer":"passenger","locationId":"5296","name":"Shell Recharge NL5845 - Shell Okken","address":"Oelenboom 8","city":"Gieten","operatorName":"Shell Recharge","maxPowerKw":150,"isMegawatt":false,"status":"AVAILABLE","source":"ndw"}},{"type":"Feature","geometry":{"type":"Point","coordinates":[6.70298,52.901756]},"properties":{"type":"charge","layer":"passenger","locationId":"66ec1a93f42cc1001cc18f0f","name":"H.R.C. Knollegruun","address":"Hoofdstraat 33","city":"Schoonloo","operatorName":"Pluq","maxPowerKw":17,"isMegawatt":false,"status":"AVAILABLE","source":"ndw"}},{"type":"Feature","geometry":{"type":"Point","coordinates":[6.613462,52.971002]},"properties":{"type":"charge","layer":"passenger","locationId":"f887684e-1b1d-11ee-8066-42010aa40fc8","name":"Fastned Nijlanderveld","address":"N33, Noordzijde, Nijlanderveld","city":"Nijlande","operatorName":"Fastned","maxPowerKw":300,"isMegawatt":false,"status":"AVAILABLE","source":"ndw"}},{"type":"Feature","geometry":{"type":"Point","coordinates":[6.76409,53.001801]},"properties":{"type":"charge","layer":"passenger","locationId":"e86c8572-8a33-11ee-8b06-42010aa40fc0","name":"Jumbo 3524 Gieten Stationsstraat (PowerGo)","address":"Stationsstraat 37","city":"Gieten","operatorName":"PowerGo","maxPowerKw":0,"isMegawatt":false,"status":"AVAILABLE","source":"ndw"}},{"type":"Feature","geometry":{"type":"Point","coordinates":[6.6166,52.97006]},"properties":{"type":"charge","layer":"passenger","locationId":"50849","name":"Fastned Baarveld","address":"Rijksweg N33","city":"Rolde","operatorName":"Fastned","maxPowerKw":300,"isMegawatt":false,"status":"AVAILABLE","source":"ndw"}},{"type":"Feature","geometry":{"type":"Point","coordinates":[6.834116,53.025259]},"properties":{"type":"charge","layer":"passenger","locationId":"066e3d20-c2af-11ec-b29f-42010a840003","name":"NL, Broek 3a, 9511PR Gieterveen","address":"Broek 3A","city":"Gieterveen","operatorName":"Allego","maxPowerKw":0,"isMegawatt":false,"status":"AVAILABLE","source":"ndw"}},{"type":"Feature","geometry":{"type":"Point","coordinates":[6.70313,53.046948]},"properties":{"type":"charge","layer":"passenger","locationId":"91220499","name":"Equans Groningen Drenthe Bosweg 6","address":"Bosweg 6","city":"Anloo","operatorName":"EQUANS","maxPowerKw":0,"isMegawatt":false,"status":"AVAILABLE","source":"ndw"}},{"type":"Feature","geometry":{"type":"Point","coordinates":[6.7640896,53.0018005]},"properties":{"type":"charge","layer":"passenger","locationId":"19071","name":"Jumbo 3524 Gieten Stationsstraat (PowerGo)","address":"Stationsstraat 37","city":"Gieten","operatorName":"PowerGo","maxPowerKw":0,"isMegawatt":false,"status":"AVAILABLE","source":"ndw"}},{"type":"Feature","geometry":{"type":"Point","coordinates":[6.664458,53.0364]},"properties":{"type":"charge","layer":"passenger","locationId":"53e2b34a7103493288d4","name":"Restaurant Brinkzicht - Gasteren, Brink","address":"Brink 1","city":"Gasteren","operatorName":"Opcharge","maxPowerKw":22,"isMegawatt":false,"status":"AVAILABLE","source":"ndw"}},{"type":"Feature","geometry":{"type":"Point","coordinates":[6.664234,52.93816]},"properties":{"type":"charge","layer":"passenger","locationId":"6a16c2cc6843b276f469b4ca","name":"De Berenkuil","address":"De Pol 15","city":"Grolloo","operatorName":"E-Flux by Road","maxPowerKw":22,"isMegawatt":false,"status":"AVAILABLE","source":"ndw"}},{"type":"Feature","geometry":{"type":"Point","coordinates":[6.61372,52.97105]},"properties":{"type":"charge","layer":"passenger","locationId":"50852","name":"Fastned Nijlanderveld","address":"Nijlanderveld","city":"Nijlande","operatorName":"Fastned","maxPowerKw":300,"isMegawatt":false,"status":"AVAILABLE","source":"ndw"}},{"type":"Feature","geometry":{"type":"Point","coordinates":[6.645341,52.987281]},"properties":{"type":"charge","layer":"passenger","locationId":"91145468","name":"Equans Groningen Drenthe Schoolstraat 1","address":"Schoolstraat 1","city":"Rolde","operatorName":"EQUANS","maxPowerKw":0,"isMegawatt":false,"status":"UNAVAILABLE","source":"ndw"}},{"type":"Feature","geometry":{"type":"Point","coordinates":[6.759459,52.99876]},"properties":{"type":"charge","layer":"passenger","locationId":"923144","name":"DAE_NL_2001005","address":"Oelenboom 10","city":"Gieten","operatorName":"DAEN Mobility","maxPowerKw":11,"isMegawatt":false,"status":"UNAVAILABLE","source":"ndw"}},{"type":"Feature","geometry":{"type":"Point","coordinates":[6.76409,53.001801]},"properties":{"type":"charge","layer":"passenger","locationId":"e86c8572-8a33-11ee-8b06-42010aa40fc0","name":"Jumbo 3524 Gieten Stationsstraat (PowerGo)","address":"Stationsstraat 37","city":"Gieten","operatorName":"PowerGo","maxPowerKw":0,"isMegawatt":false,"status":"AVAILABLE","source":"ndw"}},{"type":"Feature","geometry":{"type":"Point","coordinates":[6.647353,52.986235]},"properties":{"type":"charge","layer":"passenger","locationId":"ae6774da-0d1d-11ec-acf6-42010a840003","name":"NL, Hoofdstraat 24, 9451BB, Rolde","address":"Hoofdstraat 24","city":"Rolde","operatorName":"Allego","maxPowerKw":0,"isMegawatt":false,"status":"AVAILABLE","source":"ndw"}},{"type":"Feature","geometry":{"type":"Point","coordinates":[6.76991,53.00306]},"properties":{"type":"charge","layer":"passenger","locationId":"91145161","name":"Equans Groningen Drenthe Sleedoorn 2","address":"Sleedoorn 2","city":"Gieten","operatorName":"EQUANS","maxPowerKw":0,"isMegawatt":false,"status":"AVAILABLE","source":"ndw"}},{"type":"Feature","geometry":{"type":"Point","coordinates":[6.710853,52.909194]},"properties":{"type":"charge","layer":"passenger","locationId":"c41ae0877654403ebf004bf49ec8c4f2","name":"Schoonloo De Tien Heugten ","address":"Westdorperstraat 29,","city":"Schoonloo","operatorName":"","maxPowerKw":22,"isMegawatt":false,"status":"AVAILABLE","source":"ndw"}},{"type":"Feature","geometry":{"type":"Point","coordinates":[6.721093,53.055481]},"properties":{"type":"charge","layer":"passenger","locationId":"91145413","name":"Equans Groningen Drenthe Vlouwakkers 26","address":"Vlouwakkers 26","city":"Annen","operatorName":"EQUANS","maxPowerKw":0,"isMegawatt":false,"status":"AVAILABLE","source":"ndw"}},{"type":"Feature","geometry":{"type":"Point","coordinates":[6.627871,52.993393]},"properties":{"type":"charge","layer":"passenger","locationId":"62e248889dbb2b66b7018eba","name":"Zorgboerderij de Balloohoeve","address":"Balloo 52","city":"Balloo","operatorName":"Fleet Charge Services","maxPowerKw":17,"isMegawatt":false,"status":"AVAILABLE","source":"ndw"}},{"type":"Feature","geometry":{"type":"Point","coordinates":[6.83433,52.983147]},"properties":{"type":"charge","layer":"passenger","locationId":"NLLOC018548","name":"NL, Hunzelaan 1A, 9514BM, Gasselternijveen (laadpaal 2)","address":"Hunzelaan 1A","city":"Gasselternijveen","operatorName":"Allego","maxPowerKw":0,"isMegawatt":false,"status":"AVAILABLE","source":"ndw"}},{"type":"Feature","geometry":{"type":"Point","coordinates":[6.756642,52.999552]},"properties":{"type":"charge","layer":"passenger","locationId":"cff0e452-cfd7-11f0-ad60-42010aa400b8","name":"Shell Recharge Oelenboom 8","address":"Oelenboom 8","city":"Gieten","operatorName":"Shell Recharge","maxPowerKw":150,"isMegawatt":false,"status":"AVAILABLE","source":"ndw"}},{"type":"Feature","geometry":{"type":"Point","coordinates":[6.653943,52.98566]},"properties":{"type":"charge","layer":"passenger","locationId":"91145463","name":"Equans Groningen Drenthe Straatkampen 22","address":"Straatkampen 22","city":"Rolde","operatorName":"EQUANS","maxPowerKw":0,"isMegawatt":false,"status":"AVAILABLE","source":"ndw"}},{"type":"Feature","geometry":{"type":"Point","coordinates":[6.653943,52.98566]},"properties":{"type":"charge","layer":"passenger","locationId":"d941dd8e-8529-11f0-99b1-42010aa400b8","name":"Equans Groningen Drenthe Straatkampen 22","address":"Straatkampen 22","city":"Rolde","operatorName":"EQUANS","maxPowerKw":0,"isMegawatt":false,"status":"AVAILABLE","source":"ndw"}},{"type":"Feature","geometry":{"type":"Point","coordinates":[6.756488,53.007915]},"properties":{"type":"charge","layer":"passenger","locationId":"7fe11476-0f4a-11f0-8567-42010aa400b8","name":"Equans Groningen Drenthe Stokleggingslaan 2 a","address":"Stokleggingslaan 2 a","city":"Gieten","operatorName":"EQUANS","maxPowerKw":0,"isMegawatt":false,"status":"AVAILABLE","source":"ndw"}},{"type":"Feature","geometry":{"type":"Point","coordinates":[6.700473,52.904059]},"properties":{"type":"charge","layer":"passenger","locationId":"6690e970eb0ffc001c3d4cb6","name":"Herberg de Loohoeve","address":"Hoofdstraat 20","city":"Schoonloo","operatorName":"Pluq","maxPowerKw":22,"isMegawatt":false,"status":"AVAILABLE","source":"ndw"}},{"type":"Feature","geometry":{"type":"Point","coordinates":[6.645341,52.987281]},"properties":{"type":"charge","layer":"passenger","locationId":"058e137c-0f4a-11f0-9d04-42010aa400b8","name":"Equans Groningen Drenthe Schoolstraat 1","address":"Schoolstraat 1","city":"Rolde","operatorName":"EQUANS","maxPowerKw":0,"isMegawatt":false,"status":"AVAILABLE","source":"ndw"}},{"type":"Feature","geometry":{"type":"Point","coordinates":[6.76604,53.00605]},"properties":{"type":"charge","layer":"passenger","locationId":"90a03db2-4ad5-11ef-bbd6-42010aa400b8","name":"Equans Groningen Drenthe Schoolstraat 17","address":"Schoolstraat 17","city":"Gieten","operatorName":"EQUANS","maxPowerKw":0,"isMegawatt":false,"status":"AVAILABLE","source":"ndw"}},{"type":"Feature","geometry":{"type":"Point","coordinates":[6.846772,52.98636]},"properties":{"type":"charge","layer":"passenger","locationId":"8480b5f4-da31-11ed-8036-42010aa40fc0","name":"NL, Vaart 3, 9514 AA Gasselternijveen","address":"Vaart 3","city":"Gasselternijveen","operatorName":"Allego","maxPowerKw":0,"isMegawatt":false,"status":"AVAILABLE","source":"ndw"}},{"type":"Feature","geometry":{"type":"Point","coordinates":[6.653111,52.979253]},"properties":{"type":"charge","layer":"passenger","locationId":"d0af40a0-c2a1-11ed-9f0d-42010aa40fc0","name":"NL, Markelaan 12, 9451 HR Rolde","address":"Markelaan 12","city":"Rolde","operatorName":"Allego","maxPowerKw":0,"isMegawatt":false,"status":"AVAILABLE","source":"ndw"}},{"type":"Feature","geometry":{"type":"Point","coordinates":[6.750069,53.009048]},"properties":{"type":"charge","layer":"passenger","locationId":"e75c50f6-cd27-11ec-b0f5-42010a840003","name":"NL, Eexterweg 68, 9461BG Gieten Deel auto 2","address":"Eexterweg 68","city":"Gieten","operatorName":"Allego","maxPowerKw":0,"isMegawatt":false,"status":"AVAILABLE","source":"ndw"}},{"type":"Feature","geometry":{"type":"Point","coordinates":[6.679233,52.989343]},"properties":{"type":"charge","layer":"passenger","locationId":"62768e83d8e5d7c91581d166","name":"Camping Tolhek 1","address":"nijend 28","city":"anderen","operatorName":"E-Flux by Road","maxPowerKw":22,"isMegawatt":false,"status":"AVAILABLE","source":"ndw"}},{"type":"Feature","geometry":{"type":"Point","coordinates":[6.83433,52.983147]},"properties":{"type":"charge","layer":"passenger","locationId":"2ef20316-c11b-11ec-a4d2-42010a840003","name":"NL, Hunzelaan 1A, 9514BM, Gasselternijveen (laadpaal 2)","address":"Hunzelaan 1A","city":"Gasselternijveen","operatorName":"Allego","maxPowerKw":0,"isMegawatt":false,"status":"AVAILABLE","source":"ndw"}},{"type":"Feature","geometry":{"type":"Point","coordinates":[6.659934,52.981134]},"properties":{"type":"charge","layer":"passenger","locationId":"5ec9e606-5e0d-11ec-af77-42010a840003","name":"NL, Schapendrift 17 9451ED, Rolde","address":"Schapendrift 17","city":"Rolde","operatorName":"Allego","maxPowerKw":0,"isMegawatt":false,"status":"AVAILABLE","source":"ndw"}},{"type":"Feature","geometry":{"type":"Point","coordinates":[6.767082,52.977338]},"properties":{"type":"charge","layer":"passenger","locationId":"65d8935a38bb5e001c2eae80","name":"Vakantiepark De Kremmer","address":"Kremmerlaan  2","city":"Gasselte","operatorName":"E-Flux by Road","maxPowerKw":22,"isMegawatt":false,"status":"AVAILABLE","source":"ndw"}},{"type":"Feature","geometry":{"type":"Point","coordinates":[6.724337,53.059189]},"properties":{"type":"charge","layer":"passenger","locationId":"48eaacaa-15c2-11ec-881d-42010a840003","name":"NL, Zuidlaarderweg 89, 9468 AD Annen (2)","address":"Zuidlaarderweg 89","city":"Annen","operatorName":"Allego","maxPowerKw":0,"isMegawatt":false,"status":"AVAILABLE","source":"ndw"}},{"type":"Feature","geometry":{"type":"Point","coordinates":[6.853185,52.98834]},"properties":{"type":"charge","layer":"passenger","locationId":"a84b1fb2-1041-11ec-8bf2-42010a840003","name":"NL, Ceresstraat 4, 9514CA, Gasselternijveen","address":"Ceresstraat 4","city":"Gasselternijveen","operatorName":"Allego","maxPowerKw":0,"isMegawatt":false,"status":"CHARGING","source":"ndw"}},{"type":"Feature","geometry":{"type":"Point","coordinates":[6.659934,52.981134]},"properties":{"type":"charge","layer":"passenger","locationId":"NLLOC018826","name":"NL, Schapendrift 17 9451ED, Rolde","address":"Schapendrift 17","city":"Rolde","operatorName":"Allego","maxPowerKw":0,"isMegawatt":false,"status":"AVAILABLE","source":"ndw"}},{"type":"Feature","geometry":{"type":"Point","coordinates":[6.7931,52.970567]},"properties":{"type":"charge","layer":"passenger","locationId":"a774f0ae-1041-11ec-b674-42010a840003","name":"NL, Achter de Brinken, 6, 9462RH, Aa en Hunze","address":"Achter de Brinken 6","city":"Aa en Hunze","operatorName":"Allego","maxPowerKw":0,"isMegawatt":false,"status":"AVAILABLE","source":"ndw"}},{"type":"Feature","geometry":{"type":"Point","coordinates":[6.75955,53.005209]},"properties":{"type":"charge","layer":"passenger","locationId":"240b182e-267b-11ec-a434-42010a840003","name":"NL, Spiekersteeg 1, 9461BH, Gieten (laadpaal 2)","address":"Spiekersteeg 1","city":"Gieten","operatorName":"Allego","maxPowerKw":0,"isMegawatt":false,"status":"CHARGING","source":"ndw"}},{"type":"Feature","geometry":{"type":"Point","coordinates":[6.647037,52.983541]},"properties":{"type":"charge","layer":"passenger","locationId":"24199c96-267b-11ec-be9d-42010a840003","name":"NL, Zuides 50, 9451 KP Rolde","address":"Zuides 50","city":"Rolde","operatorName":"Allego","maxPowerKw":0,"isMegawatt":false,"status":"CHARGING","source":"ndw"}},{"type":"Feature","geometry":{"type":"Point","coordinates":[6.76485,53.00767]},"properties":{"type":"charge","layer":"passenger","locationId":"0dec2586-c72d-11f0-b076-42010aa400b8","name":"Equans Groningen Drenthe Ambachtsstraat 25","address":"Ambachtsstraat 25","city":"Gieten","operatorName":"EQUANS","maxPowerKw":0,"isMegawatt":false,"status":"CHARGING","source":"ndw"}},{"type":"Feature","geometry":{"type":"Point","coordinates":[6.773576,53.000915]},"properties":{"type":"charge","layer":"passenger","locationId":"831912d0-0f48-11f0-ab79-42010aa400b8","name":"Equans Groningen Drenthe Dambeern 16 hoek Grote Kamp 40","address":"Dambeern 16","city":"Gieten","operatorName":"EQUANS","maxPowerKw":0,"isMegawatt":false,"status":"AVAILABLE","source":"ndw"}},{"type":"Feature","geometry":{"type":"Point","coordinates":[6.763451,53.001805]},"properties":{"type":"charge","layer":"passenger","locationId":"93c734be-129d-11ec-b937-42010a840003","name":"NL, Heetkamp 8, 9461 GN Gieten","address":"Heetkamp 8","city":"Gieten","operatorName":"Allego","maxPowerKw":0,"isMegawatt":false,"status":"AVAILABLE","source":"ndw"}},{"type":"Feature","geometry":{"type":"Point","coordinates":[6.83603,53.02314]},"properties":{"type":"charge","layer":"passenger","locationId":"0b1b633a-c72d-11f0-97d5-42010aa400b8","name":"Equans Groningen Drenthe Boerendijk 2e","address":"Boerendijk 2e","city":"Gieterveen","operatorName":"EQUANS","maxPowerKw":0,"isMegawatt":false,"status":"AVAILABLE","source":"ndw"}},{"type":"Feature","geometry":{"type":"Point","coordinates":[6.739938,53.020361]},"properties":{"type":"charge","layer":"passenger","locationId":"24430a9e-14cb-11f0-97ac-42010aa400b8","name":"Equans Groningen Drenthe Kromveen 14","address":"Kromveen 14","city":"Eext","operatorName":"EQUANS","maxPowerKw":0,"isMegawatt":false,"status":"AVAILABLE","source":"ndw"}},{"type":"Feature","geometry":{"type":"Point","coordinates":[6.645127,52.983998]},"properties":{"type":"charge","layer":"passenger","locationId":"d66c4820-0125-11f0-a507-42010aa400b8","name":"Equans Groningen Drenthe Zuides 8","address":"Zuides 8","city":"Rolde","operatorName":"EQUANS","maxPowerKw":0,"isMegawatt":false,"status":"AVAILABLE","source":"ndw"}},{"type":"Feature","geometry":{"type":"Point","coordinates":[6.660451,52.969352]},"properties":{"type":"charge","layer":"passenger","locationId":"e54d7e06-f944-11ef-8d2f-42010aa400b8","name":"Equans Groningen Drenthe Broeder Quirinuslaan 50","address":"Broeder Quirinuslaan 50","city":"Nooitgedacht","operatorName":"EQUANS","maxPowerKw":0,"isMegawatt":false,"status":"AVAILABLE","source":"ndw"}},{"type":"Feature","geometry":{"type":"Point","coordinates":[6.76537,53.0019]},"properties":{"type":"charge","layer":"passenger","locationId":"f041d00c-bc29-11f0-9630-42010aa400b8","name":"Equans Groningen Drenthe Eekschillersweg 2","address":"Eekschillersweg 2","city":"Gieten","operatorName":"EQUANS","maxPowerKw":0,"isMegawatt":false,"status":"AVAILABLE","source":"ndw"}},{"type":"Feature","geometry":{"type":"Point","coordinates":[6.714714,53.058107]},"properties":{"type":"charge","layer":"passenger","locationId":"eb076f88-4326-11f0-a2c0-42010aa400b8","name":"Equans Groningen Drenthe Ronkelskamp 49","address":"Ronkelskamp 49","city":"Annen","operatorName":"EQUANS","maxPowerKw":0,"isMegawatt":false,"status":"AVAILABLE","source":"ndw"}},{"type":"Feature","geometry":{"type":"Point","coordinates":[6.76842,52.9999]},"properties":{"type":"charge","layer":"passenger","locationId":"0abbbde0-c72d-11f0-9617-42010aa400b8","name":"Equans Groningen Drenthe Elzenwal 13","address":"Elzenwal 13","city":"Gieten","operatorName":"EQUANS","maxPowerKw":0,"isMegawatt":false,"status":"AVAILABLE","source":"ndw"}},{"type":"Feature","geometry":{"type":"Point","coordinates":[6.652078,52.981336]},"properties":{"type":"charge","layer":"passenger","locationId":"680e3f6a-53a9-11f0-9345-42010aa400b8","name":"Equans Groningen Drenthe Telgenkamp 21","address":"Telgenkamp 21","city":"Rolde","operatorName":"EQUANS","maxPowerKw":0,"isMegawatt":false,"status":"AVAILABLE","source":"ndw"}},{"type":"Feature","geometry":{"type":"Point","coordinates":[6.71436,53.06123]},"properties":{"type":"charge","layer":"passenger","locationId":"6a4a7c96-50ff-11f0-b15a-42010aa400b8","name":"Equans Groningen Drenthe Dobbe 2","address":"Dobbe 2","city":"Annen","operatorName":"EQUANS","maxPowerKw":0,"isMegawatt":false,"status":"AVAILABLE","source":"ndw"}},{"type":"Feature","geometry":{"type":"Point","coordinates":[6.721093,53.055481]},"properties":{"type":"charge","layer":"passenger","locationId":"010c86fa-3b49-11f0-ade3-42010aa400b8","name":"Equans Groningen Drenthe Vlouwakkers 26","address":"Vlouwakkers 26","city":"Annen","operatorName":"EQUANS","maxPowerKw":0,"isMegawatt":false,"status":"AVAILABLE","source":"ndw"}},{"type":"Feature","geometry":{"type":"Point","coordinates":[6.668793,53.074175]},"properties":{"type":"charge","layer":"passenger","locationId":"0bdb49aa-674e-11f0-a05c-42010aa400b8","name":"Equans Groningen Drenthe Borgweg 15 a","address":"Borgweg 15 a","city":"Schipborg","operatorName":"EQUANS","maxPowerKw":0,"isMegawatt":false,"status":"AVAILABLE","source":"ndw"}},{"type":"Feature","geometry":{"type":"Point","coordinates":[6.857838,52.988883]},"properties":{"type":"charge","layer":"passenger","locationId":"25787fe6-0f4b-11f0-8dd4-42010aa400b8","name":"Equans Groningen Drenthe Vijverstraat 10","address":"Vijverstraat 10","city":"Gasselternijveen","operatorName":"EQUANS","maxPowerKw":0,"isMegawatt":false,"status":"AVAILABLE","source":"ndw"}},{"type":"Feature","geometry":{"type":"Point","coordinates":[6.79533,52.971055]},"properties":{"type":"charge","layer":"passenger","locationId":"22dca672-0f4b-11f0-8a07-42010aa400b8","name":"Equans Groningen Drenthe De Hoefslag 1","address":"De Hoefslag 1","city":"Gasselte","operatorName":"EQUANS","maxPowerKw":0,"isMegawatt":false,"status":"AVAILABLE","source":"ndw"}},{"type":"Feature","geometry":{"type":"Point","coordinates":[6.64722,52.977498]},"properties":{"type":"charge","layer":"passenger","locationId":"3ea29160-0f4a-11f0-a7c2-42010aa400b8","name":"Equans Groningen Drenthe Rocht 18","address":"Rocht 18","city":"Rolde","operatorName":"EQUANS","maxPowerKw":0,"isMegawatt":false,"status":"AVAILABLE","source":"ndw"}},{"type":"Feature","geometry":{"type":"Point","coordinates":[6.720404,53.053111]},"properties":{"type":"charge","layer":"passenger","locationId":"91145328","name":"Equans Groningen Drenthe Zetstee 13","address":"Zetstee 13","city":"Annen","operatorName":"EQUANS","maxPowerKw":0,"isMegawatt":false,"status":"AVAILABLE","source":"ndw"}},{"type":"Feature","geometry":{"type":"Point","coordinates":[6.76604,53.00605]},"properties":{"type":"charge","layer":"passenger","locationId":"91145160","name":"Equans Groningen Drenthe Schoolstraat 17","address":"Schoolstraat 17","city":"Gieten","operatorName":"EQUANS","maxPowerKw":0,"isMegawatt":false,"status":"AVAILABLE","source":"ndw"}},{"type":"Feature","geometry":{"type":"Point","coordinates":[6.756488,53.007915]},"properties":{"type":"charge","layer":"passenger","locationId":"91145455","name":"Equans Groningen Drenthe Stokleggingslaan 2 a","address":"Stokleggingslaan 2 a","city":"Gieten","operatorName":"EQUANS","maxPowerKw":0,"isMegawatt":false,"status":"AVAILABLE","source":"ndw"}},{"type":"Feature","geometry":{"type":"Point","coordinates":[6.71436,53.06123]},"properties":{"type":"charge","layer":"passenger","locationId":"91145210","name":"Equans Groningen Drenthe Dobbe 2","address":"Dobbe 2","city":"Annen","operatorName":"EQUANS","maxPowerKw":0,"isMegawatt":false,"status":"AVAILABLE","source":"ndw"}},{"type":"Feature","geometry":{"type":"Point","coordinates":[6.724337,53.059189]},"properties":{"type":"charge","layer":"passenger","locationId":"NLLOC006516","name":"NL, Zuidlaarderweg 89, 9468 AD Annen (2)","address":"Zuidlaarderweg 89","city":"Annen","operatorName":"Allego","maxPowerKw":0,"isMegawatt":false,"status":"AVAILABLE","source":"ndw"}},{"type":"Feature","geometry":{"type":"Point","coordinates":[6.70313,53.046948]},"properties":{"type":"charge","layer":"passenger","locationId":"8739732a-b383-11f0-882c-42010aa400b8","name":"Equans Groningen Drenthe Bosweg 6","address":"Bosweg 6","city":"Anloo","operatorName":"EQUANS","maxPowerKw":0,"isMegawatt":false,"status":"AVAILABLE","source":"ndw"}},{"type":"Feature","geometry":{"type":"Point","coordinates":[6.720404,53.053111]},"properties":{"type":"charge","layer":"passenger","locationId":"c83bce46-0f4a-11f0-949d-42010aa400b8","name":"Equans Groningen Drenthe Zetstee 13","address":"Zetstee 13","city":"Annen","operatorName":"EQUANS","maxPowerKw":0,"isMegawatt":false,"status":"AVAILABLE","source":"ndw"}},{"type":"Feature","geometry":{"type":"Point","coordinates":[6.757408,53.003612]},"properties":{"type":"charge","layer":"passenger","locationId":"9dfbc186-69a9-11f0-ae35-42010aa400b8","name":"Equans Groningen Drenthe Asserstraat 24","address":"Asserstraat 24","city":"Gieten","operatorName":"EQUANS","maxPowerKw":0,"isMegawatt":false,"status":"AVAILABLE","source":"ndw"}},{"type":"Feature","geometry":{"type":"Point","coordinates":[6.807123,52.970814]},"properties":{"type":"charge","layer":"passenger","locationId":"63e4b8075b57340012b366c6","name":"Camping Het Horstmannsbos - Gasselte","address":"Hoogte der Heide 8","city":"Gasselte","operatorName":"Fleet Charge Services","maxPowerKw":22,"isMegawatt":false,"status":"AVAILABLE","source":"ndw"}},{"type":"Feature","geometry":{"type":"Point","coordinates":[6.647037,52.983541]},"properties":{"type":"charge","layer":"passenger","locationId":"NLLOC018991","name":"NL, Zuides 50, 9451 KP Rolde","address":"Zuides 50","city":"Rolde","operatorName":"Allego","maxPowerKw":0,"isMegawatt":false,"status":"AVAILABLE","source":"ndw"}},{"type":"Feature","geometry":{"type":"Point","coordinates":[6.759962,52.994674]},"properties":{"type":"charge","layer":"passenger","locationId":"67a0a102337ae5c5707ab24c","name":"Post Risicobeheer B.V.","address":"Steenkamp 4Q","city":"Gieten","operatorName":"E-Flux by Road","maxPowerKw":22,"isMegawatt":false,"status":"AVAILABLE","source":"ndw"}},{"type":"Feature","geometry":{"type":"Point","coordinates":[6.76991,53.00306]},"properties":{"type":"charge","layer":"passenger","locationId":"fa32a608-4ad4-11ef-be51-42010aa400b8","name":"Equans Groningen Drenthe Sleedoorn 2","address":"Sleedoorn 2","city":"Gieten","operatorName":"EQUANS","maxPowerKw":0,"isMegawatt":false,"status":"AVAILABLE","source":"ndw"}},{"type":"Feature","geometry":{"type":"Point","coordinates":[6.83603,53.02314]},"properties":{"type":"charge","layer":"passenger","locationId":"91266388","name":"Equans Groningen Drenthe Boerendijk 2e","address":"Boerendijk 2e","city":"Gieterveen","operatorName":"EQUANS","maxPowerKw":0,"isMegawatt":false,"status":"AVAILABLE","source":"ndw"}},{"type":"Feature","geometry":{"type":"Point","coordinates":[6.75955,53.005209]},"properties":{"type":"charge","layer":"passenger","locationId":"NLLOC018549","name":"NL, Spiekersteeg 1, 9461BH, Gieten (laadpaal 2)","address":"Spiekersteeg 1","city":"Gieten","operatorName":"Allego","maxPowerKw":0,"isMegawatt":false,"status":"AVAILABLE","source":"ndw"}},{"type":"Feature","geometry":{"type":"Point","coordinates":[6.648852,52.985941]},"properties":{"type":"charge","layer":"passenger","locationId":"922917","name":"DAE-NL-2000709","address":"Grolloërstraat 5","city":"Rolde","operatorName":"DAEN Mobility","maxPowerKw":11,"isMegawatt":false,"status":"AVAILABLE","source":"ndw"}},{"type":"Feature","geometry":{"type":"Point","coordinates":[6.700473,52.904059]},"properties":{"type":"charge","layer":"passenger","locationId":"6690edb8eb0ffc001c3d7616","name":"Hotel \"De Koekoekshof\" B.V","address":"Hoofdstraat 1","city":"Schoonloo","operatorName":"Pluq","maxPowerKw":16,"isMegawatt":false,"status":"AVAILABLE","source":"ndw"}},{"type":"Feature","geometry":{"type":"Point","coordinates":[6.653111,52.979253]},"properties":{"type":"charge","layer":"passenger","locationId":"NLLOC024320","name":"NL, Markelaan 12, 9451 HR Rolde","address":"Markelaan 12","city":"Rolde","operatorName":"Allego","maxPowerKw":0,"isMegawatt":false,"status":"AVAILABLE","source":"ndw"}},{"type":"Feature","geometry":{"type":"Point","coordinates":[6.765286,52.998954]},"properties":{"type":"charge","layer":"passenger","locationId":"69de00de6945360089854657","name":"ZPN 01 Voorzijde","address":"Bloemakkers  3","city":"Gieten","operatorName":"E-Flux by Road","maxPowerKw":22,"isMegawatt":false,"status":"AVAILABLE","source":"ndw"}},{"type":"Feature","geometry":{"type":"Point","coordinates":[6.645127,52.983998]},"properties":{"type":"charge","layer":"passenger","locationId":"91145470","name":"Equans Groningen Drenthe Zuides 8","address":"Zuides 8","city":"Rolde","operatorName":"EQUANS","maxPowerKw":0,"isMegawatt":false,"status":"AVAILABLE","source":"ndw"}},{"type":"Feature","geometry":{"type":"Point","coordinates":[6.739938,53.020361]},"properties":{"type":"charge","layer":"passenger","locationId":"91145273","name":"Equans Groningen Drenthe Kromveen 14","address":"Kromveen 14","city":"Eext","operatorName":"EQUANS","maxPowerKw":0,"isMegawatt":false,"status":"AVAILABLE","source":"ndw"}},{"type":"Feature","geometry":{"type":"Point","coordinates":[6.648852,52.985941]},"properties":{"type":"charge","layer":"passenger","locationId":"922916","name":"DAE-NL-2000708","address":"Grolloërstraat 5","city":"rolde","operatorName":"DAEN Mobility","maxPowerKw":11,"isMegawatt":false,"status":"AVAILABLE","source":"ndw"}},{"type":"Feature","geometry":{"type":"Point","coordinates":[6.789185,52.963943]},"properties":{"type":"charge","layer":"passenger","locationId":"67ee8c7f30db220f8f9806e5","name":"Camping de Berken","address":"Borgerweg 23","city":"Gasselte","operatorName":"PureCharged","maxPowerKw":11,"isMegawatt":false,"status":"AVAILABLE","source":"ndw"}},{"type":"Feature","geometry":{"type":"Point","coordinates":[6.679243,52.989315]},"properties":{"type":"charge","layer":"passenger","locationId":"62768ef1d8e5d7bdad81d759","name":"Camping Tolhek met Kabel","address":"Nijend 28","city":"Anderen","operatorName":"E-Flux by Road","maxPowerKw":22,"isMegawatt":false,"status":"AVAILABLE","source":"ndw"}},{"type":"Feature","geometry":{"type":"Point","coordinates":[6.750069,53.009048]},"properties":{"type":"charge","layer":"passenger","locationId":"NLLOC018547","name":"NL, Eexterweg 68, 9461BG Gieten Deel auto 2","address":"Eexterweg 68","city":"Gieten","operatorName":"Allego","maxPowerKw":0,"isMegawatt":false,"status":"AVAILABLE","source":"ndw"}},{"type":"Feature","geometry":{"type":"Point","coordinates":[6.763451,53.001805]},"properties":{"type":"charge","layer":"passenger","locationId":"NLLOC016142","name":"NL, Heetkamp 8, 9461 GN Gieten","address":"Heetkamp 8","city":"Gieten","operatorName":"Allego","maxPowerKw":0,"isMegawatt":false,"status":"AVAILABLE","source":"ndw"}},{"type":"Feature","geometry":{"type":"Point","coordinates":[6.853185,52.98834]},"properties":{"type":"charge","layer":"passenger","locationId":"NLLOC006517","name":"NL, Ceresstraat 4, 9514CA, Gasselternijveen","address":"Ceresstraat 4","city":"Gasselternijveen","operatorName":"Allego","maxPowerKw":0,"isMegawatt":false,"status":"AVAILABLE","source":"ndw"}},{"type":"Feature","geometry":{"type":"Point","coordinates":[6.709151,52.917175]},"properties":{"type":"charge","layer":"passenger","locationId":"679cd9602f1ffffd98c2ad03","name":"Boerhaarsveld","address":"Warmenbossenweg 5","city":"Schoonloo","operatorName":"Pluq","maxPowerKw":22,"isMegawatt":false,"status":"AVAILABLE","source":"ndw"}},{"type":"Feature","geometry":{"type":"Point","coordinates":[6.857838,52.988883]},"properties":{"type":"charge","layer":"passenger","locationId":"91145301","name":"Equans Groningen Drenthe Vijverstraat 10","address":"Vijverstraat 10","city":"Gasselternijveen","operatorName":"EQUANS","maxPowerKw":0,"isMegawatt":false,"status":"AVAILABLE","source":"ndw"}},{"type":"Feature","geometry":{"type":"Point","coordinates":[6.834116,53.025259]},"properties":{"type":"charge","layer":"passenger","locationId":"NLLOC014951","name":"NL, Broek 3a, 9511PR Gieterveen","address":"Broek 3A","city":"Gieterveen","operatorName":"Allego","maxPowerKw":0,"isMegawatt":false,"status":"AVAILABLE","source":"ndw"}},{"type":"Feature","geometry":{"type":"Point","coordinates":[6.759459,52.99876]},"properties":{"type":"charge","layer":"passenger","locationId":"923146","name":"DAE_NL_2000999A","address":"Oelenboom 10","city":"Gieten","operatorName":"DAEN Mobility","maxPowerKw":11,"isMegawatt":false,"status":"AVAILABLE","source":"ndw"}},{"type":"Feature","geometry":{"type":"Point","coordinates":[6.85165,52.985]},"properties":{"type":"charge","layer":"passenger","locationId":"91378808","name":"Equans Groningen Drenthe Sont 7","address":"Sont 7","city":"Gasselternijveen","operatorName":"EQUANS","maxPowerKw":0,"isMegawatt":false,"status":"AVAILABLE","source":"ndw"}},{"type":"Feature","geometry":{"type":"Point","coordinates":[6.820873,53.042549]},"properties":{"type":"charge","layer":"passenger","locationId":"922817","name":"DAE-NL-2000525-C","address":"Dorpsstraat 130","city":"Eexterveen","operatorName":"DAEN Mobility","maxPowerKw":11,"isMegawatt":false,"status":"AVAILABLE","source":"ndw"}},{"type":"Feature","geometry":{"type":"Point","coordinates":[6.76842,52.9999]},"properties":{"type":"charge","layer":"passenger","locationId":"91266339","name":"Equans Groningen Drenthe Elzenwal 13","address":"Elzenwal 13","city":"Gieten","operatorName":"EQUANS","maxPowerKw":0,"isMegawatt":false,"status":"AVAILABLE","source":"ndw"}},{"type":"Feature","geometry":{"type":"Point","coordinates":[6.7931,52.970567]},"properties":{"type":"charge","layer":"passenger","locationId":"NLLOC018550","name":"NL, Achter de Brinken, 6, 9462RH, Aa en Hunze","address":"Achter de Brinken 6","city":"Aa en Hunze","operatorName":"Allego","maxPowerKw":0,"isMegawatt":false,"status":"AVAILABLE","source":"ndw"}},{"type":"Feature","geometry":{"type":"Point","coordinates":[6.773576,53.000915]},"properties":{"type":"charge","layer":"passenger","locationId":"91145465","name":"Equans Groningen Drenthe Dambeern 16 hoek Grote Kamp 40","address":"Dambeern 16","city":"Gieten","operatorName":"EQUANS","maxPowerKw":0,"isMegawatt":false,"status":"AVAILABLE","source":"ndw"}},{"type":"Feature","geometry":{"type":"Point","coordinates":[6.790616,52.972412]},"properties":{"type":"charge","layer":"passenger","locationId":"624c3e4637940b862e932224","name":"Auto Service Doorten","address":"Dorpsstraat  17","city":"GASSELTE","operatorName":"E-Flux by Road","maxPowerKw":22,"isMegawatt":false,"status":"UNAVAILABLE","source":"ndw"}},{"type":"Feature","geometry":{"type":"Point","coordinates":[6.76537,53.0019]},"properties":{"type":"charge","layer":"passenger","locationId":"91246423","name":"Equans Groningen Drenthe Eekschillersweg 2","address":"Eekschillersweg 2","city":"Gieten","operatorName":"EQUANS","maxPowerKw":0,"isMegawatt":false,"status":"AVAILABLE","source":"ndw"}},{"type":"Feature","geometry":{"type":"Point","coordinates":[6.647353,52.986235]},"properties":{"type":"charge","layer":"passenger","locationId":"NLLOC006564","name":"NL, Hoofdstraat 24, 9451BB, Rolde","address":"Hoofdstraat 24","city":"Rolde","operatorName":"Allego","maxPowerKw":0,"isMegawatt":false,"status":"AVAILABLE","source":"ndw"}},{"type":"Feature","geometry":{"type":"Point","coordinates":[6.759459,52.99876]},"properties":{"type":"charge","layer":"passenger","locationId":"923147","name":"DAE_NL_2001000","address":"Oelenboom 10","city":"Gieten","operatorName":"DAEN Mobility","maxPowerKw":11,"isMegawatt":false,"status":"AVAILABLE","source":"ndw"}},{"type":"Feature","geometry":{"type":"Point","coordinates":[6.660451,52.969352]},"properties":{"type":"charge","layer":"passenger","locationId":"91145467","name":"Equans Groningen Drenthe Broeder Quirinuslaan 50","address":"Broeder Quirinuslaan 50","city":"Nooitgedacht","operatorName":"EQUANS","maxPowerKw":0,"isMegawatt":false,"status":"AVAILABLE","source":"ndw"}},{"type":"Feature","geometry":{"type":"Point","coordinates":[6.76485,53.00767]},"properties":{"type":"charge","layer":"passenger","locationId":"91266556","name":"Equans Groningen Drenthe Ambachtsstraat 25","address":"Ambachtsstraat 25","city":"Gieten","operatorName":"EQUANS","maxPowerKw":0,"isMegawatt":false,"status":"AVAILABLE","source":"ndw"}},{"type":"Feature","geometry":{"type":"Point","coordinates":[6.652078,52.981336]},"properties":{"type":"charge","layer":"passenger","locationId":"91145223","name":"Equans Groningen Drenthe Telgenkamp 21","address":"Telgenkamp 21","city":"Rolde","operatorName":"EQUANS","maxPowerKw":0,"isMegawatt":false,"status":"AVAILABLE","source":"ndw"}},{"type":"Feature","geometry":{"type":"Point","coordinates":[6.765286,52.998954]},"properties":{"type":"charge","layer":"passenger","locationId":"69de01353ac507c74150be74","name":"ZPN 02","address":"Bloemakkers 3","city":"Gieten","operatorName":"E-Flux by Road","maxPowerKw":11,"isMegawatt":false,"status":"AVAILABLE","source":"ndw"}},{"type":"Feature","geometry":{"type":"Point","coordinates":[6.757408,53.003612]},"properties":{"type":"charge","layer":"passenger","locationId":"91145409","name":"Equans Groningen Drenthe Asserstraat 24","address":"Asserstraat 24","city":"Gieten","operatorName":"EQUANS","maxPowerKw":0,"isMegawatt":false,"status":"AVAILABLE","source":"ndw"}},{"type":"Feature","geometry":{"type":"Point","coordinates":[6.864986,53.038369]},"properties":{"type":"charge","layer":"passenger","locationId":"69e34eb4f2d141d5779d6e80","name":"Nada Beheer BV","address":"Nieuwediep 113A","city":"Nieuwediep","operatorName":"E-Flux by Road","maxPowerKw":11,"isMegawatt":false,"status":"AVAILABLE","source":"ndw"}},{"type":"Feature","geometry":{"type":"Point","coordinates":[6.79533,52.971055]},"properties":{"type":"charge","layer":"passenger","locationId":"91145372","name":"Equans Groningen Drenthe De Hoefslag 1","address":"De Hoefslag 1","city":"Gasselte","operatorName":"EQUANS","maxPowerKw":0,"isMegawatt":false,"status":"AVAILABLE","source":"ndw"}},{"type":"Feature","geometry":{"type":"Point","coordinates":[6.64722,52.977498]},"properties":{"type":"charge","layer":"passenger","locationId":"91145474","name":"Equans Groningen Drenthe Rocht 18","address":"Rocht 18","city":"Rolde","operatorName":"EQUANS","maxPowerKw":0,"isMegawatt":false,"status":"AVAILABLE","source":"ndw"}},{"type":"Feature","geometry":{"type":"Point","coordinates":[6.714714,53.058107]},"properties":{"type":"charge","layer":"passenger","locationId":"91145546","name":"Equans Groningen Drenthe Ronkelskamp 49","address":"Ronkelskamp 49","city":"Annen","operatorName":"EQUANS","maxPowerKw":0,"isMegawatt":false,"status":"AVAILABLE","source":"ndw"}},{"type":"Feature","geometry":{"type":"Point","coordinates":[6.653821,52.975239]},"properties":{"type":"charge","layer":"freight","locationId":"69cd61291d0c7d3cb385a520","name":"Fieten Electric B.V. | Rolde","address":"Het Veld 2","city":"Marwijksoord","operatorName":"E-Flux by Road","maxPowerKw":401,"isMegawatt":false,"status":"AVAILABLE","source":"ndw"}},{"type":"Feature","geometry":{"type":"MultiPolygon","coordinates":[[[[6.789826797184916,53.0863091141944],[6.813944731272462,53.070972995969065],[6.814535520075113,53.070599471400044],[6.837170412513121,53.056229857404624],[6.8432730407444105,53.05234563601794],[6.861287460073183,53.04087542218978],[6.897088020101555,53.01805252626253],[6.904620035480891,53.01323584496122],[6.907130549812766,53.01163006860119],[6.907184493389342,53.01159555005793],[6.922171347789592,53.00200591338195],[6.934680081876367,52.9939972968799],[6.935684966534081,52.9933537338686],[6.927946363102681,52.99214279954126],[6.872320912840998,52.983421750255616],[6.8579240859313195,52.98115978785837],[6.854636358280056,52.9806429569787],[6.845879990987043,52.97927115384207],[6.839031036740542,52.97796107770933],[6.838959497381718,52.97806069469876],[6.81436880175737,52.97048885896828],[6.812764226069554,52.96999216064942],[6.788759097389499,52.96277564952754],[6.780059659394895,52.961640641113156],[6.729295700785734,52.95492901868958],[6.727711866590866,52.95472072725737],[6.731146506288461,52.93883000356181],[6.731422457918113,52.93755592861719],[6.724650947697165,52.937306053250005],[6.727293662014857,52.91380525744878],[6.728313387599256,52.90667668506271],[6.734699091392741,52.884102967915894],[6.736337062820895,52.878691992656364],[6.71456392008084,52.86815951417961],[6.686498849951753,52.875299879421135],[6.6749856374852605,52.90501805243652],[6.666733733732232,52.909450240480176],[6.641705517747843,52.912001574560634],[6.62557054839679,52.91280651944985],[6.614877413383362,52.918312348609014],[6.585814263924458,52.91946891973463],[6.565071373454797,52.944981772661535],[6.561504898413823,52.94665312648393],[6.567227121626958,52.95246467644413],[6.5699974483262755,52.95767617644686],[6.581265518872844,52.967450127291784],[6.582845880901566,52.96801101560951],[6.5960436860588,52.9726590652011],[6.595378020216529,52.97627121776161],[6.596485134876312,52.97930028174693],[6.599383348626411,52.98151915586087],[6.60413492547054,52.98289990066393],[6.605702156133776,52.984495091925304],[6.607926448194233,52.989413354797506],[6.607944805231328,52.98944190627251],[6.6078632591242,52.99535387305188],[6.611572620690431,52.99957557415879],[6.611720351953232,53.00160758362245],[6.615983908854544,53.00813529920957],[6.6207271956533305,53.00926706348664],[6.621846373530451,53.010057167715836],[6.621738825628314,53.01217451457647],[6.629760839015734,53.01562568599622],[6.6326464754719785,53.02203720070381],[6.629763981081326,53.023716258660436],[6.631221723915265,53.02610636705622],[6.648593585819268,53.026333661419415],[6.648010186362675,53.028265232838955],[6.644771254417792,53.039152535108606],[6.6405558613745805,53.04162971321619],[6.641532958797239,53.04319372622437],[6.643382968625154,53.04699978479391],[6.646477615216343,53.049125070799306],[6.6468342941686664,53.05044515318181],[6.647898617868155,53.05096739840748],[6.653787160338485,53.055531748252854],[6.662142018673292,53.05617948982462],[6.666936939049408,53.05823672674424],[6.664199445897216,53.05992800341137],[6.664526190525544,53.06159107341215],[6.669285893926026,53.06322123760701],[6.67159926133584,53.065018218849836],[6.669375760801461,53.065601953538994],[6.670211943820746,53.06711715993203],[6.66435795392254,53.06914862081504],[6.666411207444695,53.07200513990354],[6.666007965340811,53.07215622317201],[6.663580247988898,53.07133523640467],[6.661217341079065,53.07318954834147],[6.662159880153954,53.075030947093175],[6.659982582247035,53.07442207643048],[6.6546931063004955,53.0782543322578],[6.653988712455616,53.080097007308275],[6.6497678473946795,53.07956896638048],[6.648855226916489,53.08218975547157],[6.657774333198897,53.08403143531242],[6.661836265329084,53.081986480763995],[6.669187633109516,53.080346340527214],[6.670426501895282,53.08010660453594],[6.678520704544206,53.076825781980034],[6.687493365850097,53.072228534379825],[6.692642876034871,53.07018446533785],[6.699014833853831,53.06517478797876],[6.70524508747449,53.067660220272494],[6.70629931000999,53.068081669928375],[6.711433101705498,53.07011426759506],[6.713687323299995,53.068698167303126],[6.715487430785174,53.06943300217289],[6.726138594927451,53.07366719131899],[6.727173755085403,53.07322245048026],[6.748211029937769,53.08123410994441],[6.7502005538055,53.08178861318924],[6.749368166159199,53.08363691334398],[6.747876573992949,53.083529843025644],[6.745108227598518,53.08469137659177],[6.746004880582404,53.085830523582835],[6.757858813308779,53.08940404098077],[6.7619517974614,53.090545520353984],[6.763279492975835,53.090916145204105],[6.765285279162052,53.09149721990125],[6.776509298983373,53.09476203341391],[6.789826797184916,53.0863091141944]]]]},"properties":{"type":"boundary","gemeente":"Aa en Hunze","code":"GM1680"}}]}