{"type":"FeatureCollection","metadata":{"gemeente":"Aalsmeer","slug":"aalsmeer","code":"GM0358","generated_at":"2026-06-02T13:19:22.438Z","total_passenger":166,"total_freight":2,"bounds":[4.670347535106556,52.216354281738106,4.823842256693048,52.30577641823565],"operators":["Allego","DAEN Mobility","E-Flux by Road","Laadnet","Lidl","Shell Recharge","TotalEnergies","Ubitricity","Vattenfall InCharge"]},"features":[{"type":"Feature","geometry":{"type":"Point","coordinates":[4.75227,52.238831]},"properties":{"type":"charge","layer":"passenger","locationId":"NLLOC002866","name":"NLD, Madame Curiestraat 7, 1433 AA, Kudelstaart","address":"Madame Curiestraat 7","city":"Kudelstaart","operatorName":"Allego","maxPowerKw":0,"isMegawatt":false,"status":"AVAILABLE","source":"ndw"}},{"type":"Feature","geometry":{"type":"Point","coordinates":[4.80485,52.278196]},"properties":{"type":"charge","layer":"passenger","locationId":"508bd3f8-df5e-11ef-bbf3-42010aa400b8","name":"Shell Recharge NL Koningsstraat 113, Aalsmeer","address":"Koningsstraat 113","city":"Aalsmeer","operatorName":"Ubitricity","maxPowerKw":22,"isMegawatt":false,"status":"AVAILABLE","source":"ndw"}},{"type":"Feature","geometry":{"type":"Point","coordinates":[4.78936,52.275398]},"properties":{"type":"charge","layer":"passenger","locationId":"923169","name":"DAE_NL_2001046_P2M","address":"Equadorlaan 1","city":"Aalsmeer","operatorName":"DAEN Mobility","maxPowerKw":11,"isMegawatt":false,"status":"AVAILABLE","source":"ndw"}},{"type":"Feature","geometry":{"type":"Point","coordinates":[4.749608,52.234707]},"properties":{"type":"charge","layer":"passenger","locationId":"NLLOC002736","name":"NLD, Aalsmeer, Einsteinstraat 79a","address":"Einsteinstraat 79a","city":"Aalsmeer","operatorName":"Allego","maxPowerKw":0,"isMegawatt":false,"status":"AVAILABLE","source":"ndw"}},{"type":"Feature","geometry":{"type":"Point","coordinates":[4.778782,52.256529]},"properties":{"type":"charge","layer":"passenger","locationId":"677","name":"Shell Recharge NL9040 - Gamma Aalsmeer","address":"Lakenblekerstraat 49A","city":"Aalsmeer","operatorName":"Shell Recharge","maxPowerKw":150,"isMegawatt":false,"status":"AVAILABLE","source":"ndw"}},{"type":"Feature","geometry":{"type":"Point","coordinates":[4.76593,52.267101]},"properties":{"type":"charge","layer":"passenger","locationId":"c31cdf88-8f63-11f0-afe9-42010aa400b8","name":"Shell Recharge NL Sportlaan 41, Aalsmeer","address":"Sportlaan 41","city":"Aalsmeer","operatorName":"Ubitricity","maxPowerKw":22,"isMegawatt":false,"status":"AVAILABLE","source":"ndw"}},{"type":"Feature","geometry":{"type":"Point","coordinates":[4.750829,52.271936]},"properties":{"type":"charge","layer":"passenger","locationId":"88044338-4f3c-11e8-99e3-42010a840002","name":"NLD, Aalsmeer, Ringvaartzijde 22","address":"Ringvaartzijde 22","city":"Aalsmeer","operatorName":"Allego","maxPowerKw":0,"isMegawatt":false,"status":"AVAILABLE","source":"ndw"}},{"type":"Feature","geometry":{"type":"Point","coordinates":[4.7398,52.231798]},"properties":{"type":"charge","layer":"passenger","locationId":"7c5a992e-4f3c-11e8-ab7d-42010a840002","name":"NLD, Aalsmeer, Stuurboordstraat 17","address":"Stuurboordstraat 17","city":"Aalsmeer","operatorName":"Allego","maxPowerKw":0,"isMegawatt":false,"status":"CHARGING","source":"ndw"}},{"type":"Feature","geometry":{"type":"Point","coordinates":[4.756905,52.271103]},"properties":{"type":"charge","layer":"passenger","locationId":"3c558760-0e81-11f0-928e-42010aa400b8","name":"TNLP015369","address":"Spinradhof 12","city":"Aalsmeer","operatorName":"TotalEnergies","maxPowerKw":17,"isMegawatt":false,"status":"AVAILABLE","source":"ndw"}},{"type":"Feature","geometry":{"type":"Point","coordinates":[4.7659301,52.2671013]},"properties":{"type":"charge","layer":"passenger","locationId":"1848","name":"Shell Recharge NL Sportlaan 41","address":"Sportlaan 41","city":"Aalsmeer","operatorName":"Ubitricity","maxPowerKw":22,"isMegawatt":false,"status":"AVAILABLE","source":"ndw"}},{"type":"Feature","geometry":{"type":"Point","coordinates":[4.787146,52.274973]},"properties":{"type":"charge","layer":"passenger","locationId":"923304","name":"DAE_NL_2001082_P10","address":"Ecuadorlaan 3","city":"Aalsmeer","operatorName":"DAEN Mobility","maxPowerKw":11,"isMegawatt":false,"status":"UNAVAILABLE","source":"ndw"}},{"type":"Feature","geometry":{"type":"Point","coordinates":[4.798629,52.277243]},"properties":{"type":"charge","layer":"passenger","locationId":"96c9d38e-af56-11ea-9634-42010a840003","name":"NL, Julianalaan 124, 132 HZ Aalsmeer","address":"Julianalaan 124","city":"Aalsmeer","operatorName":"Allego","maxPowerKw":0,"isMegawatt":false,"status":"AVAILABLE","source":"ndw"}},{"type":"Feature","geometry":{"type":"Point","coordinates":[4.804745,52.281815]},"properties":{"type":"charge","layer":"passenger","locationId":"d7069410-3f07-11ea-aef8-42010a840003","name":"NL, Distelvlinderstraat 23, 1432 MP, Aalsmeer","address":"Distelvlinderstraat 23","city":"Aalsmeer","operatorName":"Allego","maxPowerKw":0,"isMegawatt":false,"status":"AVAILABLE","source":"ndw"}},{"type":"Feature","geometry":{"type":"Point","coordinates":[4.776091,52.257915]},"properties":{"type":"charge","layer":"passenger","locationId":"690b3786428d5a701b897fd7","name":"Michelle's Terpstra Laadbox","address":"lakenblekerstraat 31","city":"Aalsmeer","operatorName":"E-Flux by Road","maxPowerKw":22,"isMegawatt":false,"status":"AVAILABLE","source":"ndw"}},{"type":"Feature","geometry":{"type":"Point","coordinates":[4.76085,52.26386]},"properties":{"type":"charge","layer":"passenger","locationId":"a1d76560-4f3c-11e8-aa8a-42010a840002","name":"Shell Recharge NL Ophelialaan 100 Aalsmeer","address":"Ophelialaan 100","city":"Aalsmeer","operatorName":"Ubitricity","maxPowerKw":11,"isMegawatt":false,"status":"AVAILABLE","source":"ndw"}},{"type":"Feature","geometry":{"type":"Point","coordinates":[4.806958,52.279058]},"properties":{"type":"charge","layer":"passenger","locationId":"3d758218-a9d6-11ea-b832-42010a840003","name":"NL, Koningsstraat 203, 1432 PM Aalsmeer","address":"Koningsstraat 203","city":"Aalsmeer","operatorName":"Allego","maxPowerKw":0,"isMegawatt":false,"status":"AVAILABLE","source":"ndw"}},{"type":"Feature","geometry":{"type":"Point","coordinates":[4.758282,52.271466]},"properties":{"type":"charge","layer":"passenger","locationId":"86ea325a-4f3c-11e8-9460-42010a840002","name":"NLD, Aalsmeer, Manillehof 2","address":"Manillehof 2","city":"Aalsmeer","operatorName":"Allego","maxPowerKw":0,"isMegawatt":false,"status":"AVAILABLE","source":"ndw"}},{"type":"Feature","geometry":{"type":"Point","coordinates":[4.807699,52.278039]},"properties":{"type":"charge","layer":"passenger","locationId":"87d3773a-4f3c-11e8-b737-42010a840002","name":"NLD, Aalsmeer, Brasemstraat 29","address":"Brasemstraat 29","city":"Aalsmeer","operatorName":"Allego","maxPowerKw":0,"isMegawatt":false,"status":"AVAILABLE","source":"ndw"}},{"type":"Feature","geometry":{"type":"Point","coordinates":[4.754902,52.23459]},"properties":{"type":"charge","layer":"passenger","locationId":"8ab9f2da-4f3c-11e8-be3b-42010a840002","name":"NLD, Kudelstaart, Archimedeslaan 35","address":"Archimedeslaan 35","city":"Kudelstaart","operatorName":"Allego","maxPowerKw":0,"isMegawatt":false,"status":"AVAILABLE","source":"ndw"}},{"type":"Feature","geometry":{"type":"Point","coordinates":[4.778782,52.256529]},"properties":{"type":"charge","layer":"passenger","locationId":"fba044ce-9949-11ee-9223-42010aa40fc0","name":"Shell Recharge Lakenblekerstraat 49A","address":"Lakenblekerstraat 49A","city":"Aalsmeer","operatorName":"Shell Recharge","maxPowerKw":150,"isMegawatt":false,"status":"AVAILABLE","source":"ndw"}},{"type":"Feature","geometry":{"type":"Point","coordinates":[4.806958,52.279058]},"properties":{"type":"charge","layer":"passenger","locationId":"NLLOC026660","name":"NL, Koningsstraat 203, 1432 PM Aalsmeer","address":"Koningsstraat 203","city":"Aalsmeer","operatorName":"Allego","maxPowerKw":0,"isMegawatt":false,"status":"AVAILABLE","source":"ndw"}},{"type":"Feature","geometry":{"type":"Point","coordinates":[4.746081,52.269972]},"properties":{"type":"charge","layer":"passenger","locationId":"NLLOC007034","name":"NL, Kanaalstraat 1, 1431BV, Aalsmeer","address":"Kanaalstraat 1","city":"Aalsmeer","operatorName":"Allego","maxPowerKw":0,"isMegawatt":false,"status":"CHARGING","source":"ndw"}},{"type":"Feature","geometry":{"type":"Point","coordinates":[4.761407,52.269167]},"properties":{"type":"charge","layer":"passenger","locationId":"d835266e-0c28-11f0-a960-42010aa400b8","name":"Shell Recharge NL Nicolaas Walensdreef 26, Aalsmeer","address":"Nicolaas Walensdreef 26","city":"Aalsmeer","operatorName":"Ubitricity","maxPowerKw":22,"isMegawatt":false,"status":"AVAILABLE","source":"ndw"}},{"type":"Feature","geometry":{"type":"Point","coordinates":[4.787146,52.274973]},"properties":{"type":"charge","layer":"passenger","locationId":"923295","name":"DAE_NL_2001094_P1M","address":"Ecuadorlaan 3","city":"Aalsmeer","operatorName":"DAEN Mobility","maxPowerKw":11,"isMegawatt":false,"status":"AVAILABLE","source":"ndw"}},{"type":"Feature","geometry":{"type":"Point","coordinates":[4.759504,52.238835]},"properties":{"type":"charge","layer":"passenger","locationId":"20ba2e50-bd31-11e8-b682-42010a840002","name":"NLD, Kudelstaart, Midvoordreef 29","address":"Midvoordreef","city":"Kudelstaart","operatorName":"Allego","maxPowerKw":0,"isMegawatt":false,"status":"CHARGING","source":"ndw"}},{"type":"Feature","geometry":{"type":"Point","coordinates":[4.755361,52.23996]},"properties":{"type":"charge","layer":"passenger","locationId":"7c61c3c0-4f3c-11e8-a859-42010a840002","name":"NLD, Aalsmeer, Fonteinkruidhof 31","address":"Fonteinkruidhof 31","city":"Aalsmeer","operatorName":"Allego","maxPowerKw":0,"isMegawatt":false,"status":"AVAILABLE","source":"ndw"}},{"type":"Feature","geometry":{"type":"Point","coordinates":[4.748936,52.270557]},"properties":{"type":"charge","layer":"passenger","locationId":"349c97c8-ef81-11e8-bf6d-42010a840002","name":"NLD, Aalsmeer, Rozenstraat 2","address":"Rozenstraat 2","city":"Aalsmeer","operatorName":"Allego","maxPowerKw":0,"isMegawatt":false,"status":"AVAILABLE","source":"ndw"}},{"type":"Feature","geometry":{"type":"Point","coordinates":[4.753566,52.270965]},"properties":{"type":"charge","layer":"passenger","locationId":"NLLOC013998","name":"NL, Twijnderlaan 148, 1431 BX Aalsmeer","address":"Twijnderlaan 148","city":"Aalsmeer","operatorName":"Allego","maxPowerKw":0,"isMegawatt":false,"status":"AVAILABLE","source":"ndw"}},{"type":"Feature","geometry":{"type":"Point","coordinates":[4.759815,52.273513]},"properties":{"type":"charge","layer":"passenger","locationId":"632c5ba4b9fe684bb446a664","name":"KONINKLIJKE DE VRIES SCHEEPSBOUW","address":"Oosteinderweg 25","city":"Aalsmeer","operatorName":"E-Flux by Road","maxPowerKw":22,"isMegawatt":false,"status":"AVAILABLE","source":"ndw"}},{"type":"Feature","geometry":{"type":"Point","coordinates":[4.754902,52.23459]},"properties":{"type":"charge","layer":"passenger","locationId":"NLLOC001731","name":"NLD, Kudelstaart, Archimedeslaan 35","address":"Archimedeslaan 35","city":"Kudelstaart","operatorName":"Allego","maxPowerKw":0,"isMegawatt":false,"status":"AVAILABLE","source":"ndw"}},{"type":"Feature","geometry":{"type":"Point","coordinates":[4.80512,52.2763]},"properties":{"type":"charge","layer":"passenger","locationId":"a212e25c-4f3c-11e8-a733-42010a840002","name":"Shell Recharge NL Snoeksbaarsstraat 76 Aalsmeer","address":"Snoeksbaarsstraat 76","city":"Aalsmeer","operatorName":"Ubitricity","maxPowerKw":11,"isMegawatt":false,"status":"AVAILABLE","source":"ndw"}},{"type":"Feature","geometry":{"type":"Point","coordinates":[4.787146,52.274973]},"properties":{"type":"charge","layer":"passenger","locationId":"923300","name":"DAE_NL_2001050_P7","address":"Ecuadorlaan 3","city":"Aalsmeer","operatorName":"DAEN Mobility","maxPowerKw":11,"isMegawatt":false,"status":"AVAILABLE","source":"ndw"}},{"type":"Feature","geometry":{"type":"Point","coordinates":[4.749852,52.269208]},"properties":{"type":"charge","layer":"passenger","locationId":"7f5e51e2-4f3c-11e8-9f03-42010a840002","name":"NLD, Aalsmeer, Weteringstraat 17","address":"Weteringstraat 17","city":"Aalsmeer","operatorName":"Allego","maxPowerKw":0,"isMegawatt":false,"status":"AVAILABLE","source":"ndw"}},{"type":"Feature","geometry":{"type":"Point","coordinates":[4.787146,52.274973]},"properties":{"type":"charge","layer":"passenger","locationId":"923301","name":"DAE_NL_2001096_P9","address":"Ecuadorlaan 3","city":"Aalsmeer","operatorName":"DAEN Mobility","maxPowerKw":11,"isMegawatt":false,"status":"UNAVAILABLE","source":"ndw"}},{"type":"Feature","geometry":{"type":"Point","coordinates":[4.748948,52.266522]},"properties":{"type":"charge","layer":"passenger","locationId":"c8c82b60-5b22-11f0-ba1a-42010aa400b8","name":"Lidl Aalsmeer","address":"Stationsweg","city":"Aalsmeer","operatorName":"Lidl","maxPowerKw":11,"isMegawatt":false,"status":"AVAILABLE","source":"ndw"}},{"type":"Feature","geometry":{"type":"Point","coordinates":[4.782252,52.276782]},"properties":{"type":"charge","layer":"passenger","locationId":"3614241","name":"Laadnet Your Cargo C0ntact BV","address":"Samoaweg 2","city":"Aalsmeer","operatorName":"Laadnet","maxPowerKw":22,"isMegawatt":false,"status":"AVAILABLE","source":"ndw"}},{"type":"Feature","geometry":{"type":"Point","coordinates":[4.686201,52.226648]},"properties":{"type":"charge","layer":"passenger","locationId":"62bc04f70d583ec187e8ca47","name":"Kempers Watersport","address":"Herenweg 100","city":"Aalsmeer","operatorName":"E-Flux by Road","maxPowerKw":22,"isMegawatt":false,"status":"AVAILABLE","source":"ndw"}},{"type":"Feature","geometry":{"type":"Point","coordinates":[4.76574,52.25192]},"properties":{"type":"charge","layer":"passenger","locationId":"NLLOC003674","name":"NLD, Aalsmeer, Haydnstraat 35","address":"Haydnstraat 35","city":"Aalsmeer","operatorName":"Allego","maxPowerKw":0,"isMegawatt":false,"status":"AVAILABLE","source":"ndw"}},{"type":"Feature","geometry":{"type":"Point","coordinates":[4.782788,52.276959]},"properties":{"type":"charge","layer":"passenger","locationId":"3598429","name":"Laadnet Aircargo.nl BV","address":"Samoaweg 4","city":"Aalsmeer","operatorName":"Laadnet","maxPowerKw":22,"isMegawatt":false,"status":"AVAILABLE","source":"ndw"}},{"type":"Feature","geometry":{"type":"Point","coordinates":[4.787146,52.274973]},"properties":{"type":"charge","layer":"passenger","locationId":"923299","name":"DAE_NL_2001099_P4","address":"Ecuadorlaan 3","city":"Aalsmeer","operatorName":"DAEN Mobility","maxPowerKw":11,"isMegawatt":false,"status":"AVAILABLE","source":"ndw"}},{"type":"Feature","geometry":{"type":"Point","coordinates":[4.75877,52.23554]},"properties":{"type":"charge","layer":"passenger","locationId":"810ab32a-6f32-11e9-8a84-42010a840024","name":"Shell Recharge NL Leeghwaterstraat 27 Kudelstaart","address":"Leeghwaterstraat 27","city":"Kudelstaart","operatorName":"Ubitricity","maxPowerKw":11,"isMegawatt":false,"status":"AVAILABLE","source":"ndw"}},{"type":"Feature","geometry":{"type":"Point","coordinates":[4.757092,52.262737]},"properties":{"type":"charge","layer":"passenger","locationId":"89d3a4a6-4f3c-11e8-9a54-42010a840002","name":"NLD, Aalsmeer, Ophelialaan 69","address":"Ophelialaan 69","city":"Aalsmeer","operatorName":"Allego","maxPowerKw":0,"isMegawatt":false,"status":"AVAILABLE","source":"ndw"}},{"type":"Feature","geometry":{"type":"Point","coordinates":[4.749608,52.234707]},"properties":{"type":"charge","layer":"passenger","locationId":"fd913f7e-b879-11e8-b53c-42010a840002","name":"NLD, Aalsmeer, Einsteinstraat 79a","address":"Einsteinstraat 79a","city":"Aalsmeer","operatorName":"Allego","maxPowerKw":0,"isMegawatt":false,"status":"CHARGING","source":"ndw"}},{"type":"Feature","geometry":{"type":"Point","coordinates":[4.76085,52.26386]},"properties":{"type":"charge","layer":"passenger","locationId":"1589","name":"Shell Recharge NL Ophelialaan 100","address":"Ophelialaan 100","city":"Aalsmeer","operatorName":"Ubitricity","maxPowerKw":11,"isMegawatt":false,"status":"AVAILABLE","source":"ndw"}},{"type":"Feature","geometry":{"type":"Point","coordinates":[4.748948,52.266522]},"properties":{"type":"charge","layer":"passenger","locationId":"efe34729-08ed-4fc0-8a95-3133d4702450","name":"Lidl Aalsmeer","address":"Stationsweg","city":"Aalsmeer","operatorName":"Lidl","maxPowerKw":11,"isMegawatt":false,"status":"AVAILABLE","source":"ndw"}},{"type":"Feature","geometry":{"type":"Point","coordinates":[4.75227,52.238831]},"properties":{"type":"charge","layer":"passenger","locationId":"521f5f24-d71c-11e8-a280-42010a840002","name":"NLD, Madame Curiestraat 7, 1433 AA, Kudelstaart","address":"Madame Curiestraat 7","city":"Kudelstaart","operatorName":"Allego","maxPowerKw":0,"isMegawatt":false,"status":"AVAILABLE","source":"ndw"}},{"type":"Feature","geometry":{"type":"Point","coordinates":[4.774016,52.265941]},"properties":{"type":"charge","layer":"passenger","locationId":"7e8931a6-4f3c-11e8-a336-42010a840002","name":"NLD, Aalsmeer, Linnaeuslaan 76","address":"Linnaeuslaan 76","city":"Aalsmeer","operatorName":"Allego","maxPowerKw":0,"isMegawatt":false,"status":"AVAILABLE","source":"ndw"}},{"type":"Feature","geometry":{"type":"Point","coordinates":[4.754014,52.235853]},"properties":{"type":"charge","layer":"passenger","locationId":"b7d3a6b0-3bba-11e9-b5df-42010a840003","name":"NLD, Kudelstaart, Schweitzerstraat 75","address":"Schweitzerstraat 75","city":"Kudelstaart","operatorName":"Allego","maxPowerKw":0,"isMegawatt":false,"status":"AVAILABLE","source":"ndw"}},{"type":"Feature","geometry":{"type":"Point","coordinates":[4.77308,52.26414]},"properties":{"type":"charge","layer":"passenger","locationId":"b538fa68-d3c0-11f0-9226-42010aa400b8","name":"PP002542","address":"A.H. Blaauwstraat 1","city":"Aalsmeer","operatorName":"TotalEnergies","maxPowerKw":17,"isMegawatt":false,"status":"AVAILABLE","source":"ndw"}},{"type":"Feature","geometry":{"type":"Point","coordinates":[4.806187,52.279834]},"properties":{"type":"charge","layer":"passenger","locationId":"223bcb0e-7766-11e9-9315-42010a840003","name":"NLD, Aalsmeer, Koolwitjestraat 223","address":"Koolwitjestraat 223","city":"Aalsmeer","operatorName":"Allego","maxPowerKw":0,"isMegawatt":false,"status":"AVAILABLE","source":"ndw"}},{"type":"Feature","geometry":{"type":"Point","coordinates":[4.789359,52.275399]},"properties":{"type":"charge","layer":"passenger","locationId":"923230","name":"DAE_NL_2001079_P9","address":"Equadorlaan 1","city":"Aalsmeer","operatorName":"DAEN Mobility","maxPowerKw":11,"isMegawatt":false,"status":"UNAVAILABLE","source":"ndw"}},{"type":"Feature","geometry":{"type":"Point","coordinates":[4.789359,52.275399]},"properties":{"type":"charge","layer":"passenger","locationId":"923232","name":"DAE_NL_2001078_P10","address":"Equadorlaan 1","city":"Aalsmeer","operatorName":"DAEN Mobility","maxPowerKw":11,"isMegawatt":false,"status":"UNAVAILABLE","source":"ndw"}},{"type":"Feature","geometry":{"type":"Point","coordinates":[4.820551,52.289315]},"properties":{"type":"charge","layer":"passenger","locationId":"69809d9ac98e86f9debb9280","name":"Loogman Aalsmeer personeel laadpalen","address":"Aalsmeerderweg  497","city":"AALSMEER","operatorName":"E-Flux by Road","maxPowerKw":22,"isMegawatt":false,"status":"AVAILABLE","source":"ndw"}},{"type":"Feature","geometry":{"type":"Point","coordinates":[4.754741,52.241308]},"properties":{"type":"charge","layer":"passenger","locationId":"2bd4300a-5764-11ea-9ef2-42010a840003","name":"NL, Moslaan 38, 1433WJ, Aalsmeer","address":"Moslaan 38","city":"Aalsmeer","operatorName":"Allego","maxPowerKw":0,"isMegawatt":false,"status":"CHARGING","source":"ndw"}},{"type":"Feature","geometry":{"type":"Point","coordinates":[4.80289,52.27761]},"properties":{"type":"charge","layer":"passenger","locationId":"7cda6fb4-4f3c-11e8-ab4c-42010a840002","name":"NLD, Aalsmeer, Koningsstraat 53","address":"Koningsstraat 53","city":"Aalsmeer","operatorName":"Allego","maxPowerKw":0,"isMegawatt":false,"status":"AVAILABLE","source":"ndw"}},{"type":"Feature","geometry":{"type":"Point","coordinates":[4.76574,52.25192]},"properties":{"type":"charge","layer":"passenger","locationId":"8908ff84-527f-11e9-b7c6-42010a840003","name":"NLD, Aalsmeer, Haydnstraat 35","address":"Haydnstraat 35","city":"Aalsmeer","operatorName":"Allego","maxPowerKw":0,"isMegawatt":false,"status":"AVAILABLE","source":"ndw"}},{"type":"Feature","geometry":{"type":"Point","coordinates":[4.794904,52.274972]},"properties":{"type":"charge","layer":"passenger","locationId":"7ca778fc-4f3c-11e8-804a-42010a840002","name":"NLD, Aalsmeer, Poldermeesterplein 1","address":"Poldermeesterplein 1","city":"Aalsmeer","operatorName":"Allego","maxPowerKw":0,"isMegawatt":false,"status":"AVAILABLE","source":"ndw"}},{"type":"Feature","geometry":{"type":"Point","coordinates":[4.746081,52.269972]},"properties":{"type":"charge","layer":"passenger","locationId":"f697e940-a51f-11ea-95c6-42010a840003","name":"NL, Kanaalstraat 1, 1431BV, Aalsmeer","address":"Kanaalstraat 1","city":"Aalsmeer","operatorName":"Allego","maxPowerKw":0,"isMegawatt":false,"status":"AVAILABLE","source":"ndw"}},{"type":"Feature","geometry":{"type":"Point","coordinates":[4.786696,52.277809]},"properties":{"type":"charge","layer":"passenger","locationId":"69c236aac1cd7a3395301c4b","name":"Hoogvliet, Samoaweg 24 Aalsmeer - II","address":"Samoaweg 24","city":"Aalsmeer","operatorName":"E-Flux by Road","maxPowerKw":22,"isMegawatt":false,"status":"AVAILABLE","source":"ndw"}},{"type":"Feature","geometry":{"type":"Point","coordinates":[4.746629,52.229581]},"properties":{"type":"charge","layer":"passenger","locationId":"5fd91c8c-101e-11e9-a801-42010a840003","name":"NLD, Kudelstaart, Zuiderpark 11","address":"Zuiderpark 11","city":"Kudelstaart","operatorName":"Allego","maxPowerKw":0,"isMegawatt":false,"status":"AVAILABLE","source":"ndw"}},{"type":"Feature","geometry":{"type":"Point","coordinates":[4.756579,52.23351]},"properties":{"type":"charge","layer":"passenger","locationId":"61363d2e-4f3c-11e8-97ec-42010a840002","name":"NLD, Aalsmeer, Amperestraat 39","address":"Amperestraat 39","city":"Aalsmeer","operatorName":"Allego","maxPowerKw":0,"isMegawatt":false,"status":"AVAILABLE","source":"ndw"}},{"type":"Feature","geometry":{"type":"Point","coordinates":[4.761302,52.25308]},"properties":{"type":"charge","layer":"passenger","locationId":"8ccb6c48-4f3c-11e8-aff5-42010a840002","name":"NLD, Aalsmeer, Apollostraat 40","address":"Apollostraat 40","city":"Aalsmeer","operatorName":"Allego","maxPowerKw":0,"isMegawatt":false,"status":"AVAILABLE","source":"ndw"}},{"type":"Feature","geometry":{"type":"Point","coordinates":[4.792658,52.276265]},"properties":{"type":"charge","layer":"passenger","locationId":"68824a88-9bf5-11f0-a9e4-42010aa400b8","name":"TNLP008885","address":"Wilhelminastraat 69","city":"Aalsmeer","operatorName":"TotalEnergies","maxPowerKw":14,"isMegawatt":false,"status":"UNAVAILABLE","source":"ndw"}},{"type":"Feature","geometry":{"type":"Point","coordinates":[4.804745,52.281815]},"properties":{"type":"charge","layer":"passenger","locationId":"NLLOC007461","name":"NL, Distelvlinderstraat 23, 1432 MP, Aalsmeer","address":"Distelvlinderstraat 23","city":"Aalsmeer","operatorName":"Allego","maxPowerKw":0,"isMegawatt":false,"status":"AVAILABLE","source":"ndw"}},{"type":"Feature","geometry":{"type":"Point","coordinates":[4.769912,52.26229]},"properties":{"type":"charge","layer":"passenger","locationId":"7cefab68-4f3c-11e8-b50b-42010a840002","name":"NLD, Aalsmeer, Mendelstraat 75","address":"Mendelstraat 75","city":"Aalsmeer","operatorName":"Allego","maxPowerKw":0,"isMegawatt":false,"status":"UNAVAILABLE","source":"ndw"}},{"type":"Feature","geometry":{"type":"Point","coordinates":[4.76257,52.25709]},"properties":{"type":"charge","layer":"passenger","locationId":"995fc3fe-d487-11f0-9139-42010aa400b8","name":"TNLP015182","address":"Waterhoenstraat 6","city":"Aalsmeer","operatorName":"TotalEnergies","maxPowerKw":17,"isMegawatt":false,"status":"AVAILABLE","source":"ndw"}},{"type":"Feature","geometry":{"type":"Point","coordinates":[4.763575,52.255229]},"properties":{"type":"charge","layer":"passenger","locationId":"e2acad54-cd77-11f0-bcaf-42010aa400b8","name":"TNLP015421","address":"Meervalstraat 45","city":"Aalsmeer","operatorName":"TotalEnergies","maxPowerKw":17,"isMegawatt":false,"status":"AVAILABLE","source":"ndw"}},{"type":"Feature","geometry":{"type":"Point","coordinates":[4.792658,52.276265]},"properties":{"type":"charge","layer":"passenger","locationId":"2538D804-DE36-4889-9132-F6ABD6B9E8F2","name":"TNLP008885","address":"Wilhelminastraat 69","city":"Aalsmeer","operatorName":"TotalEnergies","maxPowerKw":14,"isMegawatt":false,"status":"AVAILABLE","source":"ndw"}},{"type":"Feature","geometry":{"type":"Point","coordinates":[4.80289,52.27761]},"properties":{"type":"charge","layer":"passenger","locationId":"NLLOC001021","name":"NLD, Aalsmeer, Koningsstraat 53","address":"Koningsstraat 53","city":"Aalsmeer","operatorName":"Allego","maxPowerKw":0,"isMegawatt":false,"status":"AVAILABLE","source":"ndw"}},{"type":"Feature","geometry":{"type":"Point","coordinates":[4.798972,52.275568]},"properties":{"type":"charge","layer":"passenger","locationId":"7c3d6cf0-4f3c-11e8-9146-42010a840002","name":"NLD, Aalsmeer, Willem-Alexanderstraat 14","address":"Willem-Alexanderstraat 14","city":"Aalsmeer","operatorName":"Allego","maxPowerKw":0,"isMegawatt":false,"status":"AVAILABLE","source":"ndw"}},{"type":"Feature","geometry":{"type":"Point","coordinates":[4.761244,52.236273]},"properties":{"type":"charge","layer":"passenger","locationId":"7ce12886-4f3c-11e8-9c57-42010a840002","name":"NLD, Aalsmeer, Korfstraat 110","address":"Korfstraat 110","city":"Aalsmeer","operatorName":"Allego","maxPowerKw":0,"isMegawatt":false,"status":"AVAILABLE","source":"ndw"}},{"type":"Feature","geometry":{"type":"Point","coordinates":[4.760392,52.251092]},"properties":{"type":"charge","layer":"passenger","locationId":"65d89fde-b57a-11e9-9f10-42010a840003","name":"NLD, Aalsmeer, Marsstraat 15","address":"Marsstraat 15","city":"Aalsmeer","operatorName":"Allego","maxPowerKw":0,"isMegawatt":false,"status":"AVAILABLE","source":"ndw"}},{"type":"Feature","geometry":{"type":"Point","coordinates":[4.757808,52.260431]},"properties":{"type":"charge","layer":"passenger","locationId":"698b076a-9eb0-11e9-b268-42010a840003","name":"NLD, Aalsmeer, Columbiahof 1","address":"Columbiahof 1","city":"Aalsmeer","operatorName":"Allego","maxPowerKw":0,"isMegawatt":false,"status":"AVAILABLE","source":"ndw"}},{"type":"Feature","geometry":{"type":"Point","coordinates":[4.802415,52.278009]},"properties":{"type":"charge","layer":"passenger","locationId":"10bb2fa4-7b54-11e9-9c4a-42010a840003","name":"NLD, Aalsmeer, Vlinderweg 2","address":"Vlinderweg 2","city":"Aalsmeer","operatorName":"Allego","maxPowerKw":0,"isMegawatt":false,"status":"AVAILABLE","source":"ndw"}},{"type":"Feature","geometry":{"type":"Point","coordinates":[4.736958,52.231328]},"properties":{"type":"charge","layer":"passenger","locationId":"1593839a-d032-11e9-b03e-42010a840003","name":"NLD, Gaffelstraat 31, 1433 SK, Kudelstaart","address":"Gaffelstraat 31","city":"Kudelstaart","operatorName":"Allego","maxPowerKw":0,"isMegawatt":false,"status":"AVAILABLE","source":"ndw"}},{"type":"Feature","geometry":{"type":"Point","coordinates":[4.7614066,52.2691671]},"properties":{"type":"charge","layer":"passenger","locationId":"1318","name":"Shell Recharge NL Nicolaas Walensdreef 26","address":"Nicolaas Walensdreef 26","city":"Aalsmeer","operatorName":"Ubitricity","maxPowerKw":22,"isMegawatt":false,"status":"AVAILABLE","source":"ndw"}},{"type":"Feature","geometry":{"type":"Point","coordinates":[4.77698,52.256472]},"properties":{"type":"charge","layer":"passenger","locationId":"64fad6aeadf86a001ccf893a","name":"Burgers Station 02","address":"Lakenblekerstraat 52","city":"Aalsmeer","operatorName":"E-Flux by Road","maxPowerKw":72,"isMegawatt":false,"status":"AVAILABLE","source":"ndw"}},{"type":"Feature","geometry":{"type":"Point","coordinates":[4.759373,52.267558]},"properties":{"type":"charge","layer":"passenger","locationId":"3da73e16-a9d6-11ea-9db2-42010a840003","name":"NL, Wissel 6 1431 LP Aalsmeer","address":"Wissel 6","city":"Aalsmeer","operatorName":"Allego","maxPowerKw":0,"isMegawatt":false,"status":"AVAILABLE","source":"ndw"}},{"type":"Feature","geometry":{"type":"Point","coordinates":[4.77308,52.26414]},"properties":{"type":"charge","layer":"passenger","locationId":"61973531-83D3-4B5C-948D-DBEA392314DE","name":"PP002542","address":"A.H. Blaauwstraat 1","city":"Aalsmeer","operatorName":"TotalEnergies","maxPowerKw":17,"isMegawatt":false,"status":"AVAILABLE","source":"ndw"}},{"type":"Feature","geometry":{"type":"Point","coordinates":[4.753566,52.270965]},"properties":{"type":"charge","layer":"passenger","locationId":"805f0dac-9412-11eb-91db-42010a840003","name":"NL, Twijnderlaan 148, 1431 BX Aalsmeer","address":"Twijnderlaan 148","city":"Aalsmeer","operatorName":"Allego","maxPowerKw":0,"isMegawatt":false,"status":"AVAILABLE","source":"ndw"}},{"type":"Feature","geometry":{"type":"Point","coordinates":[4.800797,52.279603]},"properties":{"type":"charge","layer":"passenger","locationId":"0612FEA7-0CDB-43A0-AE28-B997D46D78DB","name":"TNLP009246","address":"Koolwitjestraat 59","city":"Aalsmeer","operatorName":"TotalEnergies","maxPowerKw":17,"isMegawatt":false,"status":"AVAILABLE","source":"ndw"}},{"type":"Feature","geometry":{"type":"Point","coordinates":[4.754434,52.267296]},"properties":{"type":"charge","layer":"passenger","locationId":"5fd168ca-101e-11e9-92db-42010a840003","name":"NLD, Aalsmeer, Ketelhuis 57","address":"Ketelhuis 57","city":"Aalsmeer","operatorName":"Allego","maxPowerKw":0,"isMegawatt":false,"status":"AVAILABLE","source":"ndw"}},{"type":"Feature","geometry":{"type":"Point","coordinates":[4.800797,52.279603]},"properties":{"type":"charge","layer":"passenger","locationId":"d19b8c40-f583-11f0-a324-42010aa400b8","name":"TNLP009246","address":"Koolwitjestraat 59","city":"Aalsmeer","operatorName":"TotalEnergies","maxPowerKw":17,"isMegawatt":false,"status":"CHARGING","source":"ndw"}},{"type":"Feature","geometry":{"type":"Point","coordinates":[4.751621,52.236343]},"properties":{"type":"charge","layer":"passenger","locationId":"1039eb5a-13d5-11ef-887d-42010aa400b8","name":"TNLP015033","address":"Einsteinstraat 52","city":"Kudelstaart","operatorName":"TotalEnergies","maxPowerKw":17,"isMegawatt":false,"status":"AVAILABLE","source":"ndw"}},{"type":"Feature","geometry":{"type":"Point","coordinates":[4.751495,52.268104]},"properties":{"type":"charge","layer":"passenger","locationId":"aa45d2da-4b02-11f0-8bf0-42010aa400b8","name":"TNLP034056","address":"van Cleeffkade 14A","city":"Aalsmeer","operatorName":"TotalEnergies","maxPowerKw":14,"isMegawatt":false,"status":"CHARGING","source":"ndw"}},{"type":"Feature","geometry":{"type":"Point","coordinates":[4.808061,52.276664]},"properties":{"type":"charge","layer":"passenger","locationId":"42e3c8aa-572e-11e9-b0ec-42010a840003","name":"NLD, Aalsmeer, Zeeltstraat 1","address":"Zeeltstraat 1","city":"Aalsmeer","operatorName":"Allego","maxPowerKw":0,"isMegawatt":false,"status":"AVAILABLE","source":"ndw"}},{"type":"Feature","geometry":{"type":"Point","coordinates":[4.739261,52.22892]},"properties":{"type":"charge","layer":"passenger","locationId":"7d313696-4f3c-11e8-85cc-42010a840002","name":"NLD, Kudelstaart, Copierstraat 21","address":"Copierstraat 21","city":"Kudelstaart","operatorName":"Allego","maxPowerKw":0,"isMegawatt":false,"status":"AVAILABLE","source":"ndw"}},{"type":"Feature","geometry":{"type":"Point","coordinates":[4.747167,52.270958]},"properties":{"type":"charge","layer":"passenger","locationId":"fa42ec66-c621-11ea-bbd8-42010a840003","name":"NL, Helling 23, 1431BW, Aalsmeer","address":"Helling 23","city":"Aalsmeer","operatorName":"Allego","maxPowerKw":0,"isMegawatt":false,"status":"AVAILABLE","source":"ndw"}},{"type":"Feature","geometry":{"type":"Point","coordinates":[4.740988,52.229744]},"properties":{"type":"charge","layer":"passenger","locationId":"e47330ee-cbde-11f0-9a5e-42010aa400b8","name":"TNLP015178","address":"van Swietenstraat 28","city":"Kudelstaart","operatorName":"TotalEnergies","maxPowerKw":17,"isMegawatt":false,"status":"AVAILABLE","source":"ndw"}},{"type":"Feature","geometry":{"type":"Point","coordinates":[4.755393,52.264674]},"properties":{"type":"charge","layer":"passenger","locationId":"10972e4c-a146-11ef-b7f0-42010aa400b8","name":"TNLP015202","address":"Baccarastraat 1","city":"Aalsmeer","operatorName":"TotalEnergies","maxPowerKw":17,"isMegawatt":false,"status":"AVAILABLE","source":"ndw"}},{"type":"Feature","geometry":{"type":"Point","coordinates":[4.789359,52.275399]},"properties":{"type":"charge","layer":"passenger","locationId":"923228","name":"DAE_NL_2001097_P14","address":"Equadorlaan 1","city":"Aalsmeer","operatorName":"DAEN Mobility","maxPowerKw":11,"isMegawatt":false,"status":"AVAILABLE","source":"ndw"}},{"type":"Feature","geometry":{"type":"Point","coordinates":[4.80512,52.2763]},"properties":{"type":"charge","layer":"passenger","locationId":"1634","name":"Shell Recharge NL Snoeksbaarsstraat 76","address":"Snoeksbaarsstraat 76","city":"Aalsmeer","operatorName":"Ubitricity","maxPowerKw":11,"isMegawatt":false,"status":"AVAILABLE","source":"ndw"}},{"type":"Feature","geometry":{"type":"Point","coordinates":[4.762563,52.254592]},"properties":{"type":"charge","layer":"passenger","locationId":"9e67ec80-ad41-4f3b-9e12-85fa53cb5ab6","name":"TNLP034376","address":"Roerdomplaan 33","city":"Aalsmeer","operatorName":"TotalEnergies","maxPowerKw":14,"isMegawatt":false,"status":"AVAILABLE","source":"ndw"}},{"type":"Feature","geometry":{"type":"Point","coordinates":[4.783561,52.272782]},"properties":{"type":"charge","layer":"passenger","locationId":"65a544f576a511001c1afdda","name":"Hoektrans BV / Charging Station","address":"Andorraweg  2","city":"Aalsmeer","operatorName":"E-Flux by Road","maxPowerKw":22,"isMegawatt":false,"status":"AVAILABLE","source":"ndw"}},{"type":"Feature","geometry":{"type":"Point","coordinates":[4.757092,52.262737]},"properties":{"type":"charge","layer":"passenger","locationId":"NLLOC001710","name":"NLD, Aalsmeer, Ophelialaan 69","address":"Ophelialaan 69","city":"Aalsmeer","operatorName":"Allego","maxPowerKw":0,"isMegawatt":false,"status":"AVAILABLE","source":"ndw"}},{"type":"Feature","geometry":{"type":"Point","coordinates":[4.786696,52.277809]},"properties":{"type":"charge","layer":"passenger","locationId":"69c23736021c795988915638","name":"Hoogvliet, Samoaweg 24 Aalsmeer - IV","address":"Samoaweg 24","city":"Aalsmeer","operatorName":"E-Flux by Road","maxPowerKw":22,"isMegawatt":false,"status":"AVAILABLE","source":"ndw"}},{"type":"Feature","geometry":{"type":"Point","coordinates":[4.754434,52.267296]},"properties":{"type":"charge","layer":"passenger","locationId":"NLLOC003158","name":"NLD, Aalsmeer, Ketelhuis 57","address":"Ketelhuis 57","city":"Aalsmeer","operatorName":"Allego","maxPowerKw":0,"isMegawatt":false,"status":"AVAILABLE","source":"ndw"}},{"type":"Feature","geometry":{"type":"Point","coordinates":[4.754014,52.235853]},"properties":{"type":"charge","layer":"passenger","locationId":"NLLOC003508","name":"NLD, Kudelstaart, Schweitzerstraat 75","address":"Schweitzerstraat 75","city":"Kudelstaart","operatorName":"Allego","maxPowerKw":0,"isMegawatt":false,"status":"AVAILABLE","source":"ndw"}},{"type":"Feature","geometry":{"type":"Point","coordinates":[4.789359,52.275399]},"properties":{"type":"charge","layer":"passenger","locationId":"923229","name":"DAE_NL_2001081_P11","address":"Equadorlaan 1","city":"Aalsmeer","operatorName":"DAEN Mobility","maxPowerKw":11,"isMegawatt":false,"status":"AVAILABLE","source":"ndw"}},{"type":"Feature","geometry":{"type":"Point","coordinates":[4.763575,52.255229]},"properties":{"type":"charge","layer":"passenger","locationId":"d7ed7211-a594-45d3-81a2-2cbb6eb02c10","name":"TNLP015421","address":"Meervalstraat 45","city":"Aalsmeer","operatorName":"TotalEnergies","maxPowerKw":17,"isMegawatt":false,"status":"CHARGING","source":"ndw"}},{"type":"Feature","geometry":{"type":"Point","coordinates":[4.78936,52.275398]},"properties":{"type":"charge","layer":"passenger","locationId":"923166","name":"DAE_NL_2001043_P3","address":"Equadorlaan 1","city":"Aalsmeer","operatorName":"DAEN Mobility","maxPowerKw":11,"isMegawatt":false,"status":"UNAVAILABLE","source":"ndw"}},{"type":"Feature","geometry":{"type":"Point","coordinates":[4.789359,52.275399]},"properties":{"type":"charge","layer":"passenger","locationId":"923231","name":"DAE_NL_2001080_P13","address":"Equadorlaan 1","city":"Aalsmeer","operatorName":"DAEN Mobility","maxPowerKw":11,"isMegawatt":false,"status":"AVAILABLE","source":"ndw"}},{"type":"Feature","geometry":{"type":"Point","coordinates":[4.746629,52.229581]},"properties":{"type":"charge","layer":"passenger","locationId":"NLLOC003157","name":"NLD, Kudelstaart, Zuiderpark 11","address":"Zuiderpark 11","city":"Kudelstaart","operatorName":"Allego","maxPowerKw":0,"isMegawatt":false,"status":"AVAILABLE","source":"ndw"}},{"type":"Feature","geometry":{"type":"Point","coordinates":[4.798972,52.275568]},"properties":{"type":"charge","layer":"passenger","locationId":"NLLOC000991","name":"NLD, Aalsmeer, Willem-Alexanderstraat 14","address":"Willem-Alexanderstraat 14","city":"Aalsmeer","operatorName":"Allego","maxPowerKw":0,"isMegawatt":false,"status":"CHARGING","source":"ndw"}},{"type":"Feature","geometry":{"type":"Point","coordinates":[4.807699,52.278039]},"properties":{"type":"charge","layer":"passenger","locationId":"NLLOC001260","name":"NLD, Aalsmeer, Brasemstraat 29","address":"Brasemstraat 29","city":"Aalsmeer","operatorName":"Allego","maxPowerKw":0,"isMegawatt":false,"status":"AVAILABLE","source":"ndw"}},{"type":"Feature","geometry":{"type":"Point","coordinates":[4.761244,52.236273]},"properties":{"type":"charge","layer":"passenger","locationId":"NLLOC001027","name":"NLD, Aalsmeer, Korfstraat 110","address":"Korfstraat 110","city":"Aalsmeer","operatorName":"Allego","maxPowerKw":0,"isMegawatt":false,"status":"AVAILABLE","source":"ndw"}},{"type":"Feature","geometry":{"type":"Point","coordinates":[4.772373,52.269008]},"properties":{"type":"charge","layer":"passenger","locationId":"65e5ee34f8cd44001cae56bd","name":"Hoofdkantoor","address":"Zuid-Afrikaweg 12D","city":"Aalsmeer","operatorName":"E-Flux by Road","maxPowerKw":8,"isMegawatt":false,"status":"AVAILABLE","source":"ndw"}},{"type":"Feature","geometry":{"type":"Point","coordinates":[4.78936,52.275398]},"properties":{"type":"charge","layer":"passenger","locationId":"923168","name":"DAE_NL_2001045_P7","address":"Equadorlaan 1","city":"Aalsmeer","operatorName":"DAEN Mobility","maxPowerKw":11,"isMegawatt":false,"status":"UNAVAILABLE","source":"ndw"}},{"type":"Feature","geometry":{"type":"Point","coordinates":[4.787146,52.274973]},"properties":{"type":"charge","layer":"passenger","locationId":"923296","name":"DAE_NL_2001098_P3","address":"Ecuadorlaan 3","city":"Aalsmeer","operatorName":"DAEN Mobility","maxPowerKw":11,"isMegawatt":false,"status":"AVAILABLE","source":"ndw"}},{"type":"Feature","geometry":{"type":"Point","coordinates":[4.787146,52.274973]},"properties":{"type":"charge","layer":"passenger","locationId":"923303","name":"DAE_NL_2001047_P12M","address":"Ecuadorlaan 3","city":"Aalsmeer","operatorName":"DAEN Mobility","maxPowerKw":11,"isMegawatt":false,"status":"CHARGING","source":"ndw"}},{"type":"Feature","geometry":{"type":"Point","coordinates":[4.774016,52.265941]},"properties":{"type":"charge","layer":"passenger","locationId":"NLLOC001095","name":"NLD, Aalsmeer, Linnaeuslaan 76","address":"Linnaeuslaan 76","city":"Aalsmeer","operatorName":"Allego","maxPowerKw":0,"isMegawatt":false,"status":"AVAILABLE","source":"ndw"}},{"type":"Feature","geometry":{"type":"Point","coordinates":[4.78944,52.275308]},"properties":{"type":"charge","layer":"passenger","locationId":"923164","name":"DAE_NL_2001022_P1","address":"Equadorlaan 1","city":"Aalsmeer","operatorName":"DAEN Mobility","maxPowerKw":11,"isMegawatt":false,"status":"AVAILABLE","source":"ndw"}},{"type":"Feature","geometry":{"type":"Point","coordinates":[4.769912,52.26229]},"properties":{"type":"charge","layer":"passenger","locationId":"NLLOC001018","name":"NLD, Aalsmeer, Mendelstraat 75","address":"Mendelstraat 75","city":"Aalsmeer","operatorName":"Allego","maxPowerKw":0,"isMegawatt":false,"status":"AVAILABLE","source":"ndw"}},{"type":"Feature","geometry":{"type":"Point","coordinates":[4.794904,52.274972]},"properties":{"type":"charge","layer":"passenger","locationId":"NLLOC001012","name":"NLD, Aalsmeer, Poldermeesterplein 1","address":"Poldermeesterplein 1","city":"Aalsmeer","operatorName":"Allego","maxPowerKw":0,"isMegawatt":false,"status":"AVAILABLE","source":"ndw"}},{"type":"Feature","geometry":{"type":"Point","coordinates":[4.802415,52.278009]},"properties":{"type":"charge","layer":"passenger","locationId":"NLLOC004075","name":"NLD, Aalsmeer, Vlinderweg 2","address":"Vlinderweg 2","city":"Aalsmeer","operatorName":"Allego","maxPowerKw":0,"isMegawatt":false,"status":"AVAILABLE","source":"ndw"}},{"type":"Feature","geometry":{"type":"Point","coordinates":[4.756579,52.23351]},"properties":{"type":"charge","layer":"passenger","locationId":"NLLOC000992","name":"NLD, Aalsmeer, Amperestraat 39","address":"Amperestraat 39","city":"Aalsmeer","operatorName":"Allego","maxPowerKw":0,"isMegawatt":false,"status":"AVAILABLE","source":"ndw"}},{"type":"Feature","geometry":{"type":"Point","coordinates":[4.756905,52.271103]},"properties":{"type":"charge","layer":"passenger","locationId":"bf7a0a6a-d9c0-4177-88b2-755c9e921df3","name":"TNLP015369","address":"Spinradhof 12","city":"Aalsmeer","operatorName":"TotalEnergies","maxPowerKw":17,"isMegawatt":false,"status":"AVAILABLE","source":"ndw"}},{"type":"Feature","geometry":{"type":"Point","coordinates":[4.798629,52.277243]},"properties":{"type":"charge","layer":"passenger","locationId":"NLLOC008936","name":"NL, Julianalaan 124, 132 HZ Aalsmeer","address":"Julianalaan 124","city":"Aalsmeer","operatorName":"Allego","maxPowerKw":0,"isMegawatt":false,"status":"AVAILABLE","source":"ndw"}},{"type":"Feature","geometry":{"type":"Point","coordinates":[4.822068,52.291184]},"properties":{"type":"charge","layer":"passenger","locationId":"68bc07f30e95c89c61d44c14","name":"Aemstelhorst","address":"Schinkeldijkje  18 F","city":"Aalsmeer","operatorName":"E-Flux by Road","maxPowerKw":22,"isMegawatt":false,"status":"AVAILABLE","source":"ndw"}},{"type":"Feature","geometry":{"type":"Point","coordinates":[4.760392,52.251092]},"properties":{"type":"charge","layer":"passenger","locationId":"NLLOC004562","name":"NLD, Aalsmeer, Marsstraat 15","address":"Marsstraat 15","city":"Aalsmeer","operatorName":"Allego","maxPowerKw":0,"isMegawatt":false,"status":"UNAVAILABLE","source":"ndw"}},{"type":"Feature","geometry":{"type":"Point","coordinates":[4.75877,52.23554]},"properties":{"type":"charge","layer":"passenger","locationId":"485","name":"Shell Recharge NL Leeghwaterstraat 27","address":"Leeghwaterstraat 27","city":"Kudelstaart","operatorName":"Ubitricity","maxPowerKw":11,"isMegawatt":false,"status":"AVAILABLE","source":"ndw"}},{"type":"Feature","geometry":{"type":"Point","coordinates":[4.8048504,52.2781965]},"properties":{"type":"charge","layer":"passenger","locationId":"1099","name":"Shell Recharge NL Koningsstraat 113","address":"Koningsstraat 113","city":"Aalsmeer","operatorName":"Ubitricity","maxPowerKw":22,"isMegawatt":false,"status":"CHARGING","source":"ndw"}},{"type":"Feature","geometry":{"type":"Point","coordinates":[4.755361,52.23996]},"properties":{"type":"charge","layer":"passenger","locationId":"NLLOC000994","name":"NLD, Aalsmeer, Fonteinkruidhof 31","address":"Fonteinkruidhof 31","city":"Aalsmeer","operatorName":"Allego","maxPowerKw":0,"isMegawatt":false,"status":"CHARGING","source":"ndw"}},{"type":"Feature","geometry":{"type":"Point","coordinates":[4.751495,52.268104]},"properties":{"type":"charge","layer":"passenger","locationId":"b28d0ae7-4033-4805-86e7-f52622552bdf","name":"TNLP034056","address":"van Cleeffkade 14A","city":"Aalsmeer","operatorName":"TotalEnergies","maxPowerKw":14,"isMegawatt":false,"status":"AVAILABLE","source":"ndw"}},{"type":"Feature","geometry":{"type":"Point","coordinates":[4.754741,52.241308]},"properties":{"type":"charge","layer":"passenger","locationId":"NLLOC007402","name":"NL, Moslaan 38, 1433WJ, Aalsmeer","address":"Moslaan 38","city":"Aalsmeer","operatorName":"Allego","maxPowerKw":0,"isMegawatt":false,"status":"AVAILABLE","source":"ndw"}},{"type":"Feature","geometry":{"type":"Point","coordinates":[4.759504,52.238835]},"properties":{"type":"charge","layer":"passenger","locationId":"NLLOC002750","name":"NLD, Kudelstaart, Midvoordreef 29","address":"Midvoordreef","city":"Kudelstaart","operatorName":"Allego","maxPowerKw":0,"isMegawatt":false,"status":"AVAILABLE","source":"ndw"}},{"type":"Feature","geometry":{"type":"Point","coordinates":[4.761302,52.25308]},"properties":{"type":"charge","layer":"passenger","locationId":"NLLOC001344","name":"NLD, Aalsmeer, Apollostraat 40","address":"Apollostraat 40","city":"Aalsmeer","operatorName":"Allego","maxPowerKw":0,"isMegawatt":false,"status":"AVAILABLE","source":"ndw"}},{"type":"Feature","geometry":{"type":"Point","coordinates":[4.806187,52.279834]},"properties":{"type":"charge","layer":"passenger","locationId":"NLLOC004033","name":"NLD, Aalsmeer, Koolwitjestraat 223","address":"Koolwitjestraat 223","city":"Aalsmeer","operatorName":"Allego","maxPowerKw":0,"isMegawatt":false,"status":"AVAILABLE","source":"ndw"}},{"type":"Feature","geometry":{"type":"Point","coordinates":[4.758539,52.236986]},"properties":{"type":"charge","layer":"passenger","locationId":"d3cb1f9999e07b2d014753a1dcfc0db6","name":"Kamerlingh Onnesweg 109","address":"Kamerlingh Onnesweg 109","city":"Kudelstaart","operatorName":"Vattenfall InCharge","maxPowerKw":11,"isMegawatt":false,"status":"AVAILABLE","source":"ndw"}},{"type":"Feature","geometry":{"type":"Point","coordinates":[4.787146,52.274973]},"properties":{"type":"charge","layer":"passenger","locationId":"923302","name":"DAE_NL_2001051_P8","address":"Ecuadorlaan 3","city":"Aalsmeer","operatorName":"DAEN Mobility","maxPowerKw":11,"isMegawatt":false,"status":"CHARGING","source":"ndw"}},{"type":"Feature","geometry":{"type":"Point","coordinates":[4.78936,52.275398]},"properties":{"type":"charge","layer":"passenger","locationId":"923165","name":"DAE_NL_2001041_P5","address":"Equadorlaan 1","city":"Aalsmeer","operatorName":"DAEN Mobility","maxPowerKw":11,"isMegawatt":false,"status":"AVAILABLE","source":"ndw"}},{"type":"Feature","geometry":{"type":"Point","coordinates":[4.786696,52.277809]},"properties":{"type":"charge","layer":"passenger","locationId":"69c236f11723cc5e3aba1241","name":"Hoogvliet, Samoaweg 24 Aalsmeer - III","address":"Samoaweg 24","city":"Aalsmeer","operatorName":"E-Flux by Road","maxPowerKw":22,"isMegawatt":false,"status":"AVAILABLE","source":"ndw"}},{"type":"Feature","geometry":{"type":"Point","coordinates":[4.787146,52.274973]},"properties":{"type":"charge","layer":"passenger","locationId":"923298","name":"DAE_NL_2001040_P6","address":"Ecuadorlaan 3","city":"Aalsmeer,","operatorName":"DAEN Mobility","maxPowerKw":11,"isMegawatt":false,"status":"AVAILABLE","source":"ndw"}},{"type":"Feature","geometry":{"type":"Point","coordinates":[4.757808,52.260431]},"properties":{"type":"charge","layer":"passenger","locationId":"NLLOC004387","name":"NLD, Aalsmeer, Columbiahof 1","address":"Columbiahof 1","city":"Aalsmeer","operatorName":"Allego","maxPowerKw":0,"isMegawatt":false,"status":"AVAILABLE","source":"ndw"}},{"type":"Feature","geometry":{"type":"Point","coordinates":[4.789359,52.275399]},"properties":{"type":"charge","layer":"passenger","locationId":"923225","name":"DAE_NL_2001092_P15","address":"Equadorlaan 1","city":"Aalsmeer","operatorName":"DAEN Mobility","maxPowerKw":11,"isMegawatt":false,"status":"AVAILABLE","source":"ndw"}},{"type":"Feature","geometry":{"type":"Point","coordinates":[4.749852,52.269208]},"properties":{"type":"charge","layer":"passenger","locationId":"NLLOC001125","name":"NLD, Aalsmeer, Weteringstraat 17","address":"Weteringstraat 17","city":"Aalsmeer","operatorName":"Allego","maxPowerKw":0,"isMegawatt":false,"status":"AVAILABLE","source":"ndw"}},{"type":"Feature","geometry":{"type":"Point","coordinates":[4.748013,52.234576]},"properties":{"type":"charge","layer":"passenger","locationId":"923072","name":"DAE_NL_2000868","address":"Kudelstaartseweg 295","city":"Kudelstaart","operatorName":"DAEN Mobility","maxPowerKw":11,"isMegawatt":false,"status":"AVAILABLE","source":"ndw"}},{"type":"Feature","geometry":{"type":"Point","coordinates":[4.785533,52.273647]},"properties":{"type":"charge","layer":"passenger","locationId":"923479","name":"DAE_NL_2001021_P4","address":"Ecuadorlaan 1","city":"Aalsmeer","operatorName":"DAEN Mobility","maxPowerKw":11,"isMegawatt":false,"status":"UNAVAILABLE","source":"ndw"}},{"type":"Feature","geometry":{"type":"Point","coordinates":[4.759373,52.267558]},"properties":{"type":"charge","layer":"passenger","locationId":"NLLOC008277","name":"NL, Wissel 6 1431 LP Aalsmeer","address":"Wissel 6","city":"Aalsmeer","operatorName":"Allego","maxPowerKw":0,"isMegawatt":false,"status":"AVAILABLE","source":"ndw"}},{"type":"Feature","geometry":{"type":"Point","coordinates":[4.787146,52.274973]},"properties":{"type":"charge","layer":"passenger","locationId":"923306","name":"DAE_NL_2001095_P2","address":"Ecuadorlaan 3","city":"Aalsmeer","operatorName":"DAEN Mobility","maxPowerKw":11,"isMegawatt":false,"status":"AVAILABLE","source":"ndw"}},{"type":"Feature","geometry":{"type":"Point","coordinates":[4.78936,52.275398]},"properties":{"type":"charge","layer":"passenger","locationId":"923171","name":"DAE_NL_2001052_P6","address":"Equadorlaan 1","city":"Aalsmeer","operatorName":"DAEN Mobility","maxPowerKw":11,"isMegawatt":false,"status":"AVAILABLE","source":"ndw"}},{"type":"Feature","geometry":{"type":"Point","coordinates":[4.747167,52.270958]},"properties":{"type":"charge","layer":"passenger","locationId":"NLLOC009221","name":"NL, Helling 23, 1431BW, Aalsmeer","address":"Helling 23","city":"Aalsmeer","operatorName":"Allego","maxPowerKw":0,"isMegawatt":false,"status":"AVAILABLE","source":"ndw"}},{"type":"Feature","geometry":{"type":"Point","coordinates":[4.786696,52.277809]},"properties":{"type":"charge","layer":"passenger","locationId":"69c236503c7649f0b104928d","name":"Hoogvliet, Samoaweg 24 Aalsmeer - I","address":"Samoaweg 24","city":"Aalsmeer","operatorName":"E-Flux by Road","maxPowerKw":22,"isMegawatt":false,"status":"AVAILABLE","source":"ndw"}},{"type":"Feature","geometry":{"type":"Point","coordinates":[4.78936,52.275398]},"properties":{"type":"charge","layer":"passenger","locationId":"923167","name":"DAE_NL_2001044_P8","address":"Equadorlaan 1","city":"Aalsmeer","operatorName":"DAEN Mobility","maxPowerKw":11,"isMegawatt":false,"status":"UNAVAILABLE","source":"ndw"}},{"type":"Feature","geometry":{"type":"Point","coordinates":[4.727718,52.260665]},"properties":{"type":"charge","layer":"passenger","locationId":"922655","name":"DAE-NL-2000126","address":"Uiterweg 266 ws2","city":"Aalsmeer","operatorName":"DAEN Mobility","maxPowerKw":11,"isMegawatt":false,"status":"AVAILABLE","source":"ndw"}},{"type":"Feature","geometry":{"type":"Point","coordinates":[4.740988,52.229744]},"properties":{"type":"charge","layer":"passenger","locationId":"bd49109d-7345-4ea7-a65a-e76cd75ce769","name":"TNLP015178","address":"van Swietenstraat 28","city":"Kudelstaart","operatorName":"TotalEnergies","maxPowerKw":17,"isMegawatt":false,"status":"AVAILABLE","source":"ndw"}},{"type":"Feature","geometry":{"type":"Point","coordinates":[4.808061,52.276664]},"properties":{"type":"charge","layer":"passenger","locationId":"NLLOC003711","name":"NLD, Aalsmeer, Zeeltstraat 1","address":"Zeeltstraat 1","city":"Aalsmeer","operatorName":"Allego","maxPowerKw":0,"isMegawatt":false,"status":"AVAILABLE","source":"ndw"}},{"type":"Feature","geometry":{"type":"Point","coordinates":[4.72962,52.260001]},"properties":{"type":"charge","layer":"passenger","locationId":"60e6a39ed7c4762a1e007907","name":"Jachthaven Persoon","address":"Uiterweg 235","city":"Aalsmeer","operatorName":"E-Flux by Road","maxPowerKw":22,"isMegawatt":false,"status":"AVAILABLE","source":"ndw"}},{"type":"Feature","geometry":{"type":"Point","coordinates":[4.748936,52.270557]},"properties":{"type":"charge","layer":"passenger","locationId":"NLLOC003027","name":"NLD, Aalsmeer, Rozenstraat 2","address":"Rozenstraat 2","city":"Aalsmeer","operatorName":"Allego","maxPowerKw":0,"isMegawatt":false,"status":"AVAILABLE","source":"ndw"}},{"type":"Feature","geometry":{"type":"Point","coordinates":[4.754411,52.240802]},"properties":{"type":"charge","layer":"passenger","locationId":"cf74f6bc-d410-41e7-98ae-302019535007","name":"Moslaan","address":"Moslaan 48","city":"Kudelstaart","operatorName":"Vattenfall InCharge","maxPowerKw":11,"isMegawatt":false,"status":"AVAILABLE","source":"ndw"}},{"type":"Feature","geometry":{"type":"Point","coordinates":[4.789359,52.275399]},"properties":{"type":"charge","layer":"passenger","locationId":"923226","name":"DAE_NL_2001093_P16","address":"Equadorlaan 1","city":"Aalsmeer","operatorName":"DAEN Mobility","maxPowerKw":11,"isMegawatt":false,"status":"CHARGING","source":"ndw"}},{"type":"Feature","geometry":{"type":"Point","coordinates":[4.758474,52.259087]},"properties":{"type":"charge","layer":"passenger","locationId":"6645c9524a7099001c9fd9b7","name":"Dienstencentrum voor rechterkant","address":"Vuurdoornstraat  11","city":"Aalsmeer","operatorName":"E-Flux by Road","maxPowerKw":11,"isMegawatt":false,"status":"CHARGING","source":"ndw"}},{"type":"Feature","geometry":{"type":"Point","coordinates":[4.739261,52.22892]},"properties":{"type":"charge","layer":"passenger","locationId":"NLLOC001026","name":"NLD, Kudelstaart, Copierstraat 21","address":"Copierstraat 21","city":"Kudelstaart","operatorName":"Allego","maxPowerKw":0,"isMegawatt":false,"status":"AVAILABLE","source":"ndw"}},{"type":"Feature","geometry":{"type":"Point","coordinates":[4.76257,52.25709]},"properties":{"type":"charge","layer":"passenger","locationId":"31695fe8-b19a-45eb-a791-c29883051533","name":"TNLP015182","address":"Waterhoenstraat 6","city":"Aalsmeer","operatorName":"TotalEnergies","maxPowerKw":17,"isMegawatt":false,"status":"CHARGING","source":"ndw"}},{"type":"Feature","geometry":{"type":"Point","coordinates":[4.787146,52.274973]},"properties":{"type":"charge","layer":"passenger","locationId":"923297","name":"DAE_NL_2001042_P5","address":"Ecuadorlaan 3","city":"Aalsmeer","operatorName":"DAEN Mobility","maxPowerKw":11,"isMegawatt":false,"status":"CHARGING","source":"ndw"}},{"type":"Feature","geometry":{"type":"Point","coordinates":[4.736958,52.231328]},"properties":{"type":"charge","layer":"passenger","locationId":"NLLOC004748","name":"NLD, Gaffelstraat 31, 1433 SK, Kudelstaart","address":"Gaffelstraat 31","city":"Kudelstaart","operatorName":"Allego","maxPowerKw":0,"isMegawatt":false,"status":"AVAILABLE","source":"ndw"}},{"type":"Feature","geometry":{"type":"Point","coordinates":[4.783535,52.272775]},"properties":{"type":"charge","layer":"passenger","locationId":"65a548ca67f342001c6229ac","name":"Hoektrans BV / Charging Station","address":"Andorraweg  2","city":"Aalsmeer","operatorName":"E-Flux by Road","maxPowerKw":22,"isMegawatt":false,"status":"AVAILABLE","source":"ndw"}},{"type":"Feature","geometry":{"type":"Point","coordinates":[4.758282,52.271466]},"properties":{"type":"charge","layer":"passenger","locationId":"NLLOC001243","name":"NLD, Aalsmeer, Manillehof 2","address":"Manillehof 2","city":"Aalsmeer","operatorName":"Allego","maxPowerKw":0,"isMegawatt":false,"status":"AVAILABLE","source":"ndw"}},{"type":"Feature","geometry":{"type":"Point","coordinates":[4.787146,52.274973]},"properties":{"type":"charge","layer":"passenger","locationId":"923305","name":"DAE_NL_2001049_P11","address":"Ecuadorlaan 3","city":"Aalsmeer","operatorName":"DAEN Mobility","maxPowerKw":11,"isMegawatt":false,"status":"UNAVAILABLE","source":"ndw"}},{"type":"Feature","geometry":{"type":"Point","coordinates":[4.745043,52.231003]},"properties":{"type":"charge","layer":"passenger","locationId":"34ec5724911c218a98be91481a049e87","name":"Geerland 62","address":"Geerland 62","city":"Kudelstaart","operatorName":"Vattenfall InCharge","maxPowerKw":11,"isMegawatt":false,"status":"AVAILABLE","source":"ndw"}},{"type":"Feature","geometry":{"type":"Point","coordinates":[4.750829,52.271936]},"properties":{"type":"charge","layer":"passenger","locationId":"NLLOC001261","name":"NLD, Aalsmeer, Ringvaartzijde 22","address":"Ringvaartzijde 22","city":"Aalsmeer","operatorName":"Allego","maxPowerKw":0,"isMegawatt":false,"status":"AVAILABLE","source":"ndw"}},{"type":"Feature","geometry":{"type":"Point","coordinates":[4.7398,52.231798]},"properties":{"type":"charge","layer":"passenger","locationId":"NLLOC000996","name":"NLD, Aalsmeer, Stuurboordstraat 17","address":"Stuurboordstraat 17","city":"Aalsmeer","operatorName":"Allego","maxPowerKw":0,"isMegawatt":false,"status":"AVAILABLE","source":"ndw"}},{"type":"Feature","geometry":{"type":"Point","coordinates":[4.758374,52.267633]},"properties":{"type":"charge","layer":"passenger","locationId":"6643906f7aa5c213168a02a4cb619fc6","name":"Salomon Dierkenslaan 17","address":"Salomon Dierkenslaan 17","city":"Aalsmeer","operatorName":"Vattenfall InCharge","maxPowerKw":11,"isMegawatt":false,"status":"AVAILABLE","source":"ndw"}},{"type":"Feature","geometry":{"type":"Point","coordinates":[4.748838,52.229119]},"properties":{"type":"charge","layer":"passenger","locationId":"923288","name":"DAE_NL_2001086 K11","address":"Hoofdweg 111","city":"De Kwakel","operatorName":"DAEN Mobility","maxPowerKw":22,"isMegawatt":false,"status":"AVAILABLE","source":"ndw"}},{"type":"Feature","geometry":{"type":"Point","coordinates":[4.755393,52.264674]},"properties":{"type":"charge","layer":"passenger","locationId":"64a70be0-2762-4708-92a0-b1a587ef1661","name":"TNLP015202","address":"Baccarastraat 1","city":"Aalsmeer","operatorName":"TotalEnergies","maxPowerKw":17,"isMegawatt":false,"status":"AVAILABLE","source":"ndw"}},{"type":"Feature","geometry":{"type":"Point","coordinates":[4.773596,52.258648]},"properties":{"type":"charge","layer":"passenger","locationId":"64774f885acadd001c21b564","name":"Burgers Station 01","address":"Lakenblekerstraat 26","city":"Aalsmeer","operatorName":"E-Flux by Road","maxPowerKw":22,"isMegawatt":false,"status":"UNAVAILABLE","source":"ndw"}},{"type":"Feature","geometry":{"type":"Point","coordinates":[4.788222,52.271055]},"properties":{"type":"charge","layer":"freight","locationId":"693987f490f9bc207df30bef","name":"DCB CHARGE Aalsmeer","address":"Braziliëlaan 1","city":"Aalsmeer","operatorName":"E-Flux by Road","maxPowerKw":396,"isMegawatt":false,"status":"AVAILABLE","source":"ndw"}},{"type":"Feature","geometry":{"type":"Point","coordinates":[4.82145,52.289575]},"properties":{"type":"charge","layer":"freight","locationId":"699da578c8da68fb64e54103","name":"Loogman Aalsmeer Nieuw","address":"Aalsmeerderweg 497","city":"Aalsmeer","operatorName":"E-Flux by Road","maxPowerKw":352,"isMegawatt":false,"status":"AVAILABLE","source":"ndw"}},{"type":"Feature","geometry":{"type":"MultiPolygon","coordinates":[[[[4.7829314185886345,52.25514878554157],[4.780888560774558,52.253520211553834],[4.779197510729436,52.25353623475864],[4.77086695465164,52.249909347651226],[4.7689945932382045,52.248398570051194],[4.767888578411588,52.24697793112044],[4.7680654893009695,52.245394767417906],[4.773271793992797,52.24103448761451],[4.723764128840122,52.21657406938179],[4.723301684122743,52.216354281738106],[4.723649314301157,52.218235385929354],[4.722896340773161,52.22036432318055],[4.724154341635766,52.232371756118276],[4.704427709819538,52.23384246733632],[4.7002432860672965,52.23307984235488],[4.6962437014231675,52.2321096719745],[4.686210075922011,52.22663385047289],[4.683631796274137,52.22635442272665],[4.679974600414314,52.226763496193854],[4.676698480277881,52.225925906508],[4.670347535106556,52.230756173267665],[4.677073326165769,52.234387093339066],[4.6812482111317895,52.239143278645045],[4.692713213495103,52.24272009379055],[4.695512376720403,52.2432231661034],[4.701866933796449,52.24446831385007],[4.705266860844065,52.246755604454094],[4.713219942509102,52.25540130778456],[4.720785472571687,52.25878191352721],[4.725877059540989,52.26333926372762],[4.7297953145459335,52.26516340900668],[4.734567187989703,52.26654707909945],[4.739234850964529,52.26761394255451],[4.743765321231747,52.26983802664308],[4.745618074323624,52.271643225771335],[4.746699252184087,52.27225376993994],[4.751321999465959,52.27368991100238],[4.7568784803849935,52.27440155478634],[4.765113040363691,52.27678256586847],[4.771019884145452,52.27936662335646],[4.77991039792506,52.28313069995982],[4.788341444294597,52.28853133159082],[4.793248213307457,52.29409981892841],[4.794442835623752,52.29626738965151],[4.795663249695154,52.29932426534658],[4.798835652427541,52.30142145517163],[4.803702070348251,52.30358432155153],[4.809883549285995,52.30577641823565],[4.822402283281125,52.29202399267475],[4.823842256693048,52.29054023209479],[4.823827085738676,52.29001570980026],[4.8191044653606205,52.285473263711005],[4.8149537326411656,52.28142856622701],[4.810220693957955,52.27680812304682],[4.806862390129236,52.2730959944497],[4.800626101265315,52.26605424086833],[4.795571802373267,52.261554960084226],[4.794697687931669,52.26068221451098],[4.794603561198371,52.26005548893325],[4.7829314185886345,52.25514878554157]]]]},"properties":{"type":"boundary","gemeente":"Aalsmeer","code":"GM0358"}}]}