{"type":"FeatureCollection","metadata":{"gemeente":"Aalten","slug":"aalten","code":"GM0197","generated_at":"2026-06-07T19:22:09.578Z","total_passenger":86,"total_freight":0,"bounds":[6.464383816304923,51.8538233888817,6.668733073692377,51.974364159927305],"operators":["Allego","DAEN Mobility","E-Flux by Road","Laadnet","Lanova Laadpalen","Pluq","Shell Recharge","VARO Charging","Vattenfall InCharge"]},"features":[{"type":"Feature","geometry":{"type":"Point","coordinates":[6.5713,51.914402]},"properties":{"type":"charge","layer":"passenger","locationId":"665dd8f53ae8ad001c665440","name":"Sanovo Laadunit 3","address":"Ambachtsstaat 4","city":"Aalten","operatorName":"E-Flux by Road","maxPowerKw":22,"isMegawatt":false,"status":"CHARGING","source":"ndw","priceKwh":0.39}},{"type":"Feature","geometry":{"type":"Point","coordinates":[6.564934,51.928408]},"properties":{"type":"charge","layer":"passenger","locationId":"582","name":"Shell Recharge NL9206 - Karwei Aalten","address":"De Driehoek 5","city":"Aalten","operatorName":"Shell Recharge","maxPowerKw":150,"isMegawatt":false,"status":"AVAILABLE","source":"ndw","priceKwh":0.7025}},{"type":"Feature","geometry":{"type":"Point","coordinates":[6.588412,51.931088]},"properties":{"type":"charge","layer":"passenger","locationId":"4122694","name":"Laadnet Thuis","address":"Lijsterbeslaan 9","city":"Aalten","operatorName":"Laadnet","maxPowerKw":4,"isMegawatt":false,"status":"UNAVAILABLE","source":"ndw"}},{"type":"Feature","geometry":{"type":"Point","coordinates":[6.562983,51.927465]},"properties":{"type":"charge","layer":"passenger","locationId":"64997af75bb6f2001c47ebda","name":"Graven Groep","address":"'t Boske 1","city":"Aalten","operatorName":"E-Flux by Road","maxPowerKw":22,"isMegawatt":false,"status":"AVAILABLE","source":"ndw","priceKwh":0.48}},{"type":"Feature","geometry":{"type":"Point","coordinates":[6.568423,51.924022]},"properties":{"type":"charge","layer":"passenger","locationId":"1341ae60-90b1-11ea-abca-42010a840003","name":"NL, Orion 43, 7122 XE, Aalten","address":"Orion 43","city":"Aalten","operatorName":"Allego","maxPowerKw":0,"isMegawatt":false,"status":"AVAILABLE","source":"ndw"}},{"type":"Feature","geometry":{"type":"Point","coordinates":[6.581693,51.921835]},"properties":{"type":"charge","layer":"passenger","locationId":"95354e8e-89a1-11ea-9273-42010a840003","name":"NL, Koeweide 30, 7121 EJ, Aalten","address":"Koeweide 30","city":"Aalten","operatorName":"Allego","maxPowerKw":0,"isMegawatt":false,"status":"AVAILABLE","source":"ndw"}},{"type":"Feature","geometry":{"type":"Point","coordinates":[6.564989,51.918736]},"properties":{"type":"charge","layer":"passenger","locationId":"929228","name":"DAE_NL_2001331_P02","address":"Weverij 18","city":"Aalten","operatorName":"DAEN Mobility","maxPowerKw":11,"isMegawatt":false,"status":"AVAILABLE","source":"ndw","priceKwh":0.2}},{"type":"Feature","geometry":{"type":"Point","coordinates":[6.564989,51.918736]},"properties":{"type":"charge","layer":"passenger","locationId":"929284","name":"DAE_NL_2001333_P04","address":"Weverij 18","city":"Aalten","operatorName":"DAEN Mobility","maxPowerKw":11,"isMegawatt":false,"status":"AVAILABLE","source":"ndw","priceKwh":0.2}},{"type":"Feature","geometry":{"type":"Point","coordinates":[6.62008,51.94271]},"properties":{"type":"charge","layer":"passenger","locationId":"9538e74a9aecdfb0c48658de5c6252df","name":"Pater Jan de Vriesstraat 22","address":"Pater Jan de Vriesstraat 22","city":"Bredevoort","operatorName":"Vattenfall InCharge","maxPowerKw":11,"isMegawatt":false,"status":"AVAILABLE","source":"ndw"}},{"type":"Feature","geometry":{"type":"Point","coordinates":[6.581105,51.929409]},"properties":{"type":"charge","layer":"passenger","locationId":"132fc196-90b1-11ea-9b57-42010a840003","name":"NL, Oosterkerkstraat 26, 7121 AK, Aalten","address":"Oosterkerkstraat 26","city":"Aalten","operatorName":"Allego","maxPowerKw":0,"isMegawatt":false,"status":"AVAILABLE","source":"ndw"}},{"type":"Feature","geometry":{"type":"Point","coordinates":[6.575187,51.916574]},"properties":{"type":"charge","layer":"passenger","locationId":"3543044","name":"Laadnet Top Silo Constructions","address":"Tweede Broekdijk 3","city":"Aalten","operatorName":"Laadnet","maxPowerKw":22,"isMegawatt":false,"status":"AVAILABLE","source":"ndw"}},{"type":"Feature","geometry":{"type":"Point","coordinates":[6.564934,51.928408]},"properties":{"type":"charge","layer":"passenger","locationId":"cad68572-5747-11ee-9537-42010aa40fc0","name":"Shell Recharge De Driehoek 5","address":"De Driehoek 5","city":"Aalten","operatorName":"Shell Recharge","maxPowerKw":150,"isMegawatt":false,"status":"AVAILABLE","source":"ndw"}},{"type":"Feature","geometry":{"type":"Point","coordinates":[6.564783,51.920575]},"properties":{"type":"charge","layer":"passenger","locationId":"4763496","name":"Laadnet Ottevanger Services","address":"Weverij 2","city":"Aalten","operatorName":"Laadnet","maxPowerKw":22,"isMegawatt":false,"status":"AVAILABLE","source":"ndw"}},{"type":"Feature","geometry":{"type":"Point","coordinates":[6.574248,51.920335]},"properties":{"type":"charge","layer":"passenger","locationId":"6274f8fd8a70043414b39429","name":"3dNb Aalten","address":"Industriestraat 4","city":"Aalten","operatorName":"E-Flux by Road","maxPowerKw":11,"isMegawatt":false,"status":"AVAILABLE","source":"ndw","priceKwh":0.43}},{"type":"Feature","geometry":{"type":"Point","coordinates":[6.566569,51.916224]},"properties":{"type":"charge","layer":"passenger","locationId":"6372666f18a0e0905d557a70","name":"Laadpaal Wisselink","address":"Eerste Broekdijk 85","city":"Aalten","operatorName":"E-Flux by Road","maxPowerKw":22,"isMegawatt":false,"status":"AVAILABLE","source":"ndw","priceKwh":0.42}},{"type":"Feature","geometry":{"type":"Point","coordinates":[6.474808,51.85795]},"properties":{"type":"charge","layer":"passenger","locationId":"1499981","name":"Laadnet Enveloprint B.V. - Papicolor International B.V.","address":"Meniststraat 14","city":"Dinxperlo","operatorName":"Laadnet","maxPowerKw":22,"isMegawatt":false,"status":"AVAILABLE","source":"ndw"}},{"type":"Feature","geometry":{"type":"Point","coordinates":[6.568423,51.924022]},"properties":{"type":"charge","layer":"passenger","locationId":"NLLOC006307","name":"NL, Orion 43, 7122 XE, Aalten","address":"Orion 43","city":"Aalten","operatorName":"Allego","maxPowerKw":0,"isMegawatt":false,"status":"AVAILABLE","source":"ndw","priceKwh":0.511}},{"type":"Feature","geometry":{"type":"Point","coordinates":[6.481167,51.861561]},"properties":{"type":"charge","layer":"passenger","locationId":"9a00e092-247c-11eb-9ebf-42010a840003","name":"NL, Keminksweide 13, 7091 DK Dinxperlo","address":"Keminksweide 13","city":"Aalten","operatorName":"Allego","maxPowerKw":0,"isMegawatt":false,"status":"AVAILABLE","source":"ndw"}},{"type":"Feature","geometry":{"type":"Point","coordinates":[6.578523,51.9272]},"properties":{"type":"charge","layer":"passenger","locationId":"918437b8-85b0-11ea-a9cc-42010a840003","name":"NL, De Hoven 23, 7122 BJ, Aalten","address":"De Hoven 23","city":"Aalten","operatorName":"Allego","maxPowerKw":0,"isMegawatt":false,"status":"AVAILABLE","source":"ndw"}},{"type":"Feature","geometry":{"type":"Point","coordinates":[6.587493,51.913431]},"properties":{"type":"charge","layer":"passenger","locationId":"1fcb041e-ee36-11ea-81e9-42010a840033","name":"NL, De Pas 2 7123AE, Aalten","address":"De Pas 2","city":"Aalten","operatorName":"Allego","maxPowerKw":0,"isMegawatt":false,"status":"AVAILABLE","source":"ndw"}},{"type":"Feature","geometry":{"type":"Point","coordinates":[6.585229,51.925619]},"properties":{"type":"charge","layer":"passenger","locationId":"e6a43242-7890-11eb-af9c-42010a840033","name":"NL, Hofstraat 30, 7121DM Aalten","address":"Hofstraat 20","city":"Aalten","operatorName":"Allego","maxPowerKw":0,"isMegawatt":false,"status":"UNAVAILABLE","source":"ndw"}},{"type":"Feature","geometry":{"type":"Point","coordinates":[6.573194,51.914206]},"properties":{"type":"charge","layer":"passenger","locationId":"63500b7dfc58f9001a3b09e8","name":"Laadpaal hoofdkantoor entree - links","address":"Broekstraat  13","city":"Aalten","operatorName":"E-Flux by Road","maxPowerKw":21,"isMegawatt":false,"status":"AVAILABLE","source":"ndw","priceKwh":0.42}},{"type":"Feature","geometry":{"type":"Point","coordinates":[6.481167,51.861561]},"properties":{"type":"charge","layer":"passenger","locationId":"NLLOC011801","name":"NL, Keminksweide 13, 7091 DK Dinxperlo","address":"Keminksweide 13","city":"Aalten","operatorName":"Allego","maxPowerKw":0,"isMegawatt":false,"status":"AVAILABLE","source":"ndw","priceKwh":0.511}},{"type":"Feature","geometry":{"type":"Point","coordinates":[6.477549,51.864556]},"properties":{"type":"charge","layer":"passenger","locationId":"99f70a86-247c-11eb-a7d4-42010a840003","name":"NL, Bosmanslaan 9, 7091 VX, Dinxperlo","address":"Bosmanslaan 9","city":"Dinxperlo","operatorName":"Allego","maxPowerKw":0,"isMegawatt":false,"status":"CHARGING","source":"ndw"}},{"type":"Feature","geometry":{"type":"Point","coordinates":[6.571477,51.914419]},"properties":{"type":"charge","layer":"passenger","locationId":"6763d401880af8aa2a1355de","name":"Sanovo Laadunit 4","address":"Ambachtsstraat  4","city":"Aalten","operatorName":"E-Flux by Road","maxPowerKw":22,"isMegawatt":false,"status":"AVAILABLE","source":"ndw","priceKwh":0.39}},{"type":"Feature","geometry":{"type":"Point","coordinates":[6.476709,51.857625]},"properties":{"type":"charge","layer":"passenger","locationId":"4282144","name":"Laadnet Saba Dinxperlo","address":"Meniststraat 7","city":"Dinxperlo","operatorName":"Laadnet","maxPowerKw":22,"isMegawatt":false,"status":"AVAILABLE","source":"ndw"}},{"type":"Feature","geometry":{"type":"Point","coordinates":[6.514067,51.925649]},"properties":{"type":"charge","layer":"passenger","locationId":"b3262fce8267d10cebfc87d86b47f9d0","name":"Schooldijk 23A","address":"Schooldijk 23A","city":"Aalten","operatorName":"Vattenfall InCharge","maxPowerKw":11,"isMegawatt":false,"status":"AVAILABLE","source":"ndw"}},{"type":"Feature","geometry":{"type":"Point","coordinates":[6.587368,51.929318]},"properties":{"type":"charge","layer":"passenger","locationId":"665ed7827cafde001c896db9","name":"Heijnen Patrimoniumstraat","address":"Patrimoniumstraat 29","city":"Aalten","operatorName":"E-Flux by Road","maxPowerKw":14,"isMegawatt":false,"status":"AVAILABLE","source":"ndw","priceKwh":0.43}},{"type":"Feature","geometry":{"type":"Point","coordinates":[6.46719,51.857289]},"properties":{"type":"charge","layer":"passenger","locationId":"6405fac08b9d4e0012ae7f60","name":"WN kunststof kozijnen station 1","address":"anholtseweg 48","city":"dinxperlo","operatorName":"Lanova Laadpalen","maxPowerKw":22,"isMegawatt":false,"status":"AVAILABLE","source":"ndw","priceKwh":0.38}},{"type":"Feature","geometry":{"type":"Point","coordinates":[6.573348,51.914237]},"properties":{"type":"charge","layer":"passenger","locationId":"63500bcdfc58f917d93b166b","name":"Laadpaal hoofdkantoor entree - rechts","address":"Broekstraat  13","city":"Aalten","operatorName":"E-Flux by Road","maxPowerKw":21,"isMegawatt":false,"status":"AVAILABLE","source":"ndw","priceKwh":0.42}},{"type":"Feature","geometry":{"type":"Point","coordinates":[6.59398,51.92667]},"properties":{"type":"charge","layer":"passenger","locationId":"c6de8374a9beb1004e30682c595eb18d","name":"De Hare 132","address":"De Hare 132","city":"Aalten","operatorName":"Vattenfall InCharge","maxPowerKw":11,"isMegawatt":false,"status":"AVAILABLE","source":"ndw"}},{"type":"Feature","geometry":{"type":"Point","coordinates":[6.575616,51.914932]},"properties":{"type":"charge","layer":"passenger","locationId":"2593417","name":"Laadnet Aalten","address":"Dinxperlosestraatweg 62","city":"Aalten","operatorName":"Laadnet","maxPowerKw":22,"isMegawatt":false,"status":"AVAILABLE","source":"ndw"}},{"type":"Feature","geometry":{"type":"Point","coordinates":[6.576435,51.924099]},"properties":{"type":"charge","layer":"passenger","locationId":"6257db1cdeedb592e58f9ef0","name":"Netto Tank Electric / Jumbo Aalten (VARO)","address":"Admiraal de Ruyterstraat 10","city":"Aalten","operatorName":"VARO Charging","maxPowerKw":22,"isMegawatt":false,"status":"UNAVAILABLE","source":"ndw","priceKwh":0.48}},{"type":"Feature","geometry":{"type":"Point","coordinates":[6.584646,51.922475]},"properties":{"type":"charge","layer":"passenger","locationId":"63765131966fc278da9e9dfe","name":"Beth San","address":"Ludgerstraat  17","city":"AALTEN","operatorName":"E-Flux by Road","maxPowerKw":22,"isMegawatt":false,"status":"AVAILABLE","source":"ndw","priceKwh":0.427}},{"type":"Feature","geometry":{"type":"Point","coordinates":[6.523215,51.935006]},"properties":{"type":"charge","layer":"passenger","locationId":"692840b5ee563cdeb67ae9c1","name":"Marco Rutgers 's station","address":"Beunkdijk 1b","city":"Aalten","operatorName":"E-Flux by Road","maxPowerKw":22,"isMegawatt":false,"status":"AVAILABLE","source":"ndw","priceKwh":0.2719}},{"type":"Feature","geometry":{"type":"Point","coordinates":[6.571595,51.914439]},"properties":{"type":"charge","layer":"passenger","locationId":"6763d500880af8aa2a138d47","name":"Sanovo Laadunit 5","address":"Ambachtsstraat  4","city":"Aalten","operatorName":"E-Flux by Road","maxPowerKw":22,"isMegawatt":false,"status":"AVAILABLE","source":"ndw","priceKwh":0.39}},{"type":"Feature","geometry":{"type":"Point","coordinates":[6.564989,51.918736]},"properties":{"type":"charge","layer":"passenger","locationId":"929256","name":"DAE_NL_2001332_P03","address":"Weverij 18","city":"Aalten","operatorName":"DAEN Mobility","maxPowerKw":11,"isMegawatt":false,"status":"AVAILABLE","source":"ndw","priceKwh":0.2}},{"type":"Feature","geometry":{"type":"Point","coordinates":[6.597561,51.925718]},"properties":{"type":"charge","layer":"passenger","locationId":"e2ce841f-1105-4c64-a004-fbb593954d8b","name":"Haartsestraat","address":"Haartsestraat 148","city":"Aalten","operatorName":"Vattenfall InCharge","maxPowerKw":11,"isMegawatt":false,"status":"AVAILABLE","source":"ndw"}},{"type":"Feature","geometry":{"type":"Point","coordinates":[6.564989,51.918736]},"properties":{"type":"charge","layer":"passenger","locationId":"929173","name":"DAE_NL_2001330_P01","address":"Weverij 18","city":"Aalten","operatorName":"DAEN Mobility","maxPowerKw":11,"isMegawatt":false,"status":"AVAILABLE","source":"ndw","priceKwh":0.2}},{"type":"Feature","geometry":{"type":"Point","coordinates":[6.575552,51.927023]},"properties":{"type":"charge","layer":"passenger","locationId":"5dc729af-5ede-4aa4-9698-83d13f76e66f","name":"Hogestraat","address":"Hogestraat 60","city":"Aalten","operatorName":"Vattenfall InCharge","maxPowerKw":11,"isMegawatt":false,"status":"CHARGING","source":"ndw"}},{"type":"Feature","geometry":{"type":"Point","coordinates":[6.658906,51.912617]},"properties":{"type":"charge","layer":"passenger","locationId":"649971ec037c96001deff847","name":"De Grenswachter","address":"Driehonderdmeterweg 1","city":"Aalten","operatorName":"E-Flux by Road","maxPowerKw":14,"isMegawatt":false,"status":"AVAILABLE","source":"ndw","priceKwh":0.52}},{"type":"Feature","geometry":{"type":"Point","coordinates":[6.477549,51.864556]},"properties":{"type":"charge","layer":"passenger","locationId":"NLLOC006958","name":"NL, Bosmanslaan 9, 7091 VX, Dinxperlo","address":"Bosmanslaan 9","city":"Dinxperlo","operatorName":"Allego","maxPowerKw":0,"isMegawatt":false,"status":"AVAILABLE","source":"ndw","priceKwh":0.511}},{"type":"Feature","geometry":{"type":"Point","coordinates":[6.579527,51.926907]},"properties":{"type":"charge","layer":"passenger","locationId":"67d40ebcbeb478d7cae7af4e","name":"8594 - Duo","address":"De Hoven 25","city":"25","operatorName":"E-Flux by Road","maxPowerKw":22,"isMegawatt":false,"status":"AVAILABLE","source":"ndw","priceKwh":0.63}},{"type":"Feature","geometry":{"type":"Point","coordinates":[6.581105,51.929409]},"properties":{"type":"charge","layer":"passenger","locationId":"NLLOC006266","name":"NL, Oosterkerkstraat 26, 7121 AK, Aalten","address":"Oosterkerkstraat 26","city":"Aalten","operatorName":"Allego","maxPowerKw":0,"isMegawatt":false,"status":"AVAILABLE","source":"ndw","priceKwh":0.511}},{"type":"Feature","geometry":{"type":"Point","coordinates":[6.571043,51.914456]},"properties":{"type":"charge","layer":"passenger","locationId":"646b4f7173ae760012c578bb","name":"Sanovo Laadunit 1","address":"Ambachtsstraat 4","city":"Aalten","operatorName":"E-Flux by Road","maxPowerKw":22,"isMegawatt":false,"status":"AVAILABLE","source":"ndw","priceKwh":0.39}},{"type":"Feature","geometry":{"type":"Point","coordinates":[6.58535,51.894349]},"properties":{"type":"charge","layer":"passenger","locationId":"62ab22e915545edd2e4843f8","name":"Henk Reinders 's station 3","address":"Hamelandroute 92","city":"Aalten","operatorName":"E-Flux by Road","maxPowerKw":22,"isMegawatt":false,"status":"AVAILABLE","source":"ndw","priceKwh":0.35}},{"type":"Feature","geometry":{"type":"Point","coordinates":[6.574695,51.920696]},"properties":{"type":"charge","layer":"passenger","locationId":"623c463bab3debb252b67f18","name":"Perebolte","address":"Industriestraat 11","city":"Aalten","operatorName":"E-Flux by Road","maxPowerKw":11,"isMegawatt":false,"status":"AVAILABLE","source":"ndw","priceKwh":0.48}},{"type":"Feature","geometry":{"type":"Point","coordinates":[6.481823,51.857241]},"properties":{"type":"charge","layer":"passenger","locationId":"678f923914763a22bedab6e0","name":"Wireweaving Dinxperlo","address":"Anholtseweg 18","city":"Dinxpelro","operatorName":"E-Flux by Road","maxPowerKw":22,"isMegawatt":false,"status":"AVAILABLE","source":"ndw","priceKwh":0.43}},{"type":"Feature","geometry":{"type":"Point","coordinates":[6.51413,51.925737]},"properties":{"type":"charge","layer":"passenger","locationId":"e7c783e1ed2c6f32ed7c915ee941c4d0","name":"Schooldijk 23","address":"Schooldijk 23","city":"Aalten","operatorName":"Vattenfall InCharge","maxPowerKw":11,"isMegawatt":false,"status":"AVAILABLE","source":"ndw"}},{"type":"Feature","geometry":{"type":"Point","coordinates":[6.497952,51.861842]},"properties":{"type":"charge","layer":"passenger","locationId":"3a935405d105a1a343147239a146343e","name":"De Ruiterij 20","address":"De Ruiterij 20","city":"Dinxperlo","operatorName":"Vattenfall InCharge","maxPowerKw":11,"isMegawatt":false,"status":"AVAILABLE","source":"ndw"}},{"type":"Feature","geometry":{"type":"Point","coordinates":[6.572627,51.915579]},"properties":{"type":"charge","layer":"passenger","locationId":"63566ac3c9ee469f693f8464","name":"Laadpaal hoofdkantoor 2019","address":"Broekstraat  13","city":"Aalten","operatorName":"E-Flux by Road","maxPowerKw":22,"isMegawatt":false,"status":"AVAILABLE","source":"ndw","priceKwh":0.42}},{"type":"Feature","geometry":{"type":"Point","coordinates":[6.57107,51.914479]},"properties":{"type":"charge","layer":"passenger","locationId":"646b4ff02c242c0012acfcfd","name":"Sanovo Laadunit 2","address":"Ambachtsstraat 4","city":"Aalten","operatorName":"E-Flux by Road","maxPowerKw":22,"isMegawatt":false,"status":"AVAILABLE","source":"ndw","priceKwh":0.39}},{"type":"Feature","geometry":{"type":"Point","coordinates":[6.564226,51.923785]},"properties":{"type":"charge","layer":"passenger","locationId":"cc5a5019bbc9282f67fe739f40339ea5","name":"Bulsinkkamp 91","address":"Bulsinkkamp 91","city":"Aalten","operatorName":"Vattenfall InCharge","maxPowerKw":11,"isMegawatt":false,"status":"AVAILABLE","source":"ndw"}},{"type":"Feature","geometry":{"type":"Point","coordinates":[6.56864,51.919593]},"properties":{"type":"charge","layer":"passenger","locationId":"649e804d9280a0001cab8852","name":"Rainbow Industry Bv","address":"Broekstraat  30","city":"Aalten","operatorName":"E-Flux by Road","maxPowerKw":22,"isMegawatt":false,"status":"AVAILABLE","source":"ndw","priceKwh":0.6}},{"type":"Feature","geometry":{"type":"Point","coordinates":[6.486841,51.863598]},"properties":{"type":"charge","layer":"passenger","locationId":"dbdba509-6a24-4886-bf02-687c03434a39","name":"Minister Ringersstraat","address":"Minister Ringersstraat 22","city":"Dinxperlo","operatorName":"Vattenfall InCharge","maxPowerKw":11,"isMegawatt":false,"status":"AVAILABLE","source":"ndw"}},{"type":"Feature","geometry":{"type":"Point","coordinates":[6.581693,51.921835]},"properties":{"type":"charge","layer":"passenger","locationId":"NLLOC007036","name":"NL, Koeweide 30, 7121 EJ, Aalten","address":"Koeweide 30","city":"Aalten","operatorName":"Allego","maxPowerKw":0,"isMegawatt":false,"status":"AVAILABLE","source":"ndw","priceKwh":0.511}},{"type":"Feature","geometry":{"type":"Point","coordinates":[6.563871,51.923754]},"properties":{"type":"charge","layer":"passenger","locationId":"11d52cf19f6d8e122085234d18e5d34e","name":"Bulsinkkamp 55","address":"Bulsinkkamp 55","city":"Aalten","operatorName":"Vattenfall InCharge","maxPowerKw":11,"isMegawatt":false,"status":"AVAILABLE","source":"ndw"}},{"type":"Feature","geometry":{"type":"Point","coordinates":[6.594632,51.924461]},"properties":{"type":"charge","layer":"passenger","locationId":"d109d5ab5aa04f2efd4b5248bcd35566","name":"Het Verzet 83","address":"Het Verzet 83","city":"Aalten","operatorName":"Vattenfall InCharge","maxPowerKw":11,"isMegawatt":false,"status":"AVAILABLE","source":"ndw"}},{"type":"Feature","geometry":{"type":"Point","coordinates":[6.480238,51.866622]},"properties":{"type":"charge","layer":"passenger","locationId":"83bac1b8366579c9b87a05c7ee9c0759","name":"Reehorsterlaan 65","address":"Reehorsterlaan 65","city":"Dinxperlo","operatorName":"Vattenfall InCharge","maxPowerKw":11,"isMegawatt":false,"status":"AVAILABLE","source":"ndw"}},{"type":"Feature","geometry":{"type":"Point","coordinates":[6.590121,51.929082]},"properties":{"type":"charge","layer":"passenger","locationId":"cba3f350-e756-469b-80e6-b17b5d1008c0","name":"Oranjelaan","address":"Oranjelaan 15","city":"Aalten","operatorName":"Vattenfall InCharge","maxPowerKw":11,"isMegawatt":false,"status":"AVAILABLE","source":"ndw"}},{"type":"Feature","geometry":{"type":"Point","coordinates":[6.61762,51.940148]},"properties":{"type":"charge","layer":"passenger","locationId":"dbbf941b-fe75-4df4-9aca-85266451520e","name":"Prins Mauritsstraat","address":"Prins Mauritsstraat 9","city":"Bredevoort","operatorName":"Vattenfall InCharge","maxPowerKw":11,"isMegawatt":false,"status":"AVAILABLE","source":"ndw"}},{"type":"Feature","geometry":{"type":"Point","coordinates":[6.574161,51.92311]},"properties":{"type":"charge","layer":"passenger","locationId":"e72a4e52-74ba-41f0-994a-dc1baee2e256","name":"Admiraal de Ruyterstraat","address":"Admiraal de Ruyterstraat 57","city":"Aalten","operatorName":"Vattenfall InCharge","maxPowerKw":11,"isMegawatt":false,"status":"AVAILABLE","source":"ndw"}},{"type":"Feature","geometry":{"type":"Point","coordinates":[6.587493,51.913431]},"properties":{"type":"charge","layer":"passenger","locationId":"NLLOC010663","name":"NL, De Pas 2 7123AE, Aalten","address":"De Pas 2","city":"Aalten","operatorName":"Allego","maxPowerKw":0,"isMegawatt":false,"status":"AVAILABLE","source":"ndw","priceKwh":0.511}},{"type":"Feature","geometry":{"type":"Point","coordinates":[6.5757,51.93374]},"properties":{"type":"charge","layer":"passenger","locationId":"8ffe1300edd4739a4f09129935a7869f","name":"Romienendiek 2/A","address":"Romienendiek 2/A","city":"Aalten","operatorName":"Vattenfall InCharge","maxPowerKw":11,"isMegawatt":false,"status":"AVAILABLE","source":"ndw"}},{"type":"Feature","geometry":{"type":"Point","coordinates":[6.583015,51.926012]},"properties":{"type":"charge","layer":"passenger","locationId":"f28122f2-312c-46ff-a583-8dc44dd5c51c","name":"Hofstraat 8","address":"Hofstraat 8","city":"Aalten","operatorName":"Vattenfall InCharge","maxPowerKw":11,"isMegawatt":false,"status":"AVAILABLE","source":"ndw"}},{"type":"Feature","geometry":{"type":"Point","coordinates":[6.585291,51.894479]},"properties":{"type":"charge","layer":"passenger","locationId":"62ab2131cab6ba3ce9cb0ec6","name":"Henk Reinders 's station 1","address":"Hamelandroute 92","city":"Aalten","operatorName":"E-Flux by Road","maxPowerKw":22,"isMegawatt":false,"status":"AVAILABLE","source":"ndw","priceKwh":0.35}},{"type":"Feature","geometry":{"type":"Point","coordinates":[6.585331,51.894396]},"properties":{"type":"charge","layer":"passenger","locationId":"62ab2210cab6ba7393cb2144","name":"Henk Reinders 's station 2","address":"Hamelandroute 92","city":"Aalten","operatorName":"E-Flux by Road","maxPowerKw":22,"isMegawatt":false,"status":"AVAILABLE","source":"ndw","priceKwh":0.35}},{"type":"Feature","geometry":{"type":"Point","coordinates":[6.585229,51.925619]},"properties":{"type":"charge","layer":"passenger","locationId":"NLLOC013567","name":"NL, Hofstraat 30, 7121DM Aalten","address":"Hofstraat 20","city":"Aalten","operatorName":"Allego","maxPowerKw":0,"isMegawatt":false,"status":"AVAILABLE","source":"ndw","priceKwh":0.511}},{"type":"Feature","geometry":{"type":"Point","coordinates":[6.585348,51.894256]},"properties":{"type":"charge","layer":"passenger","locationId":"63a41448ed10f000124ddcd4","name":"Henk Reinders DC Terra 360","address":"Hamelandroute 92","city":"Aalten","operatorName":"E-Flux by Road","maxPowerKw":240,"isMegawatt":false,"status":"AVAILABLE","source":"ndw","priceKwh":0.63}},{"type":"Feature","geometry":{"type":"Point","coordinates":[6.579345,51.92781]},"properties":{"type":"charge","layer":"passenger","locationId":"603f4af0df10a929de346d56","name":"Stegemanhof","address":"Geurdenstraat 1","city":"AALTEN","operatorName":"E-Flux by Road","maxPowerKw":22,"isMegawatt":false,"status":"CHARGING","source":"ndw","priceKwh":0.427}},{"type":"Feature","geometry":{"type":"Point","coordinates":[6.520268,51.920533]},"properties":{"type":"charge","layer":"passenger","locationId":"621e5721b282af343774d6c2","name":"Laadpaal Kruudhuuske","address":"Navisweg 4a","city":"Aalten","operatorName":"E-Flux by Road","maxPowerKw":11,"isMegawatt":false,"status":"AVAILABLE","source":"ndw","priceKwh":0.4}},{"type":"Feature","geometry":{"type":"Point","coordinates":[6.572209,51.911633]},"properties":{"type":"charge","layer":"passenger","locationId":"633a8787cbc742cf41956813","name":"Laadpaal Jumbo","address":"Vierde Broekdijk  2","city":"Aalten","operatorName":"E-Flux by Road","maxPowerKw":22,"isMegawatt":false,"status":"AVAILABLE","source":"ndw","priceKwh":0.42}},{"type":"Feature","geometry":{"type":"Point","coordinates":[6.58302,51.93054]},"properties":{"type":"charge","layer":"passenger","locationId":"694e2292a766be4f5c5bd3edebe94c7e","name":"Manschotplein 83","address":"Manschotplein 83","city":"Aalten","operatorName":"Vattenfall InCharge","maxPowerKw":11,"isMegawatt":false,"status":"AVAILABLE","source":"ndw"}},{"type":"Feature","geometry":{"type":"Point","coordinates":[6.578523,51.9272]},"properties":{"type":"charge","layer":"passenger","locationId":"NLLOC006877","name":"NL, De Hoven 23, 7122 BJ, Aalten","address":"De Hoven 23","city":"Aalten","operatorName":"Allego","maxPowerKw":0,"isMegawatt":false,"status":"AVAILABLE","source":"ndw","priceKwh":0.511}},{"type":"Feature","geometry":{"type":"Point","coordinates":[6.578966,51.918215]},"properties":{"type":"charge","layer":"passenger","locationId":"7fad336df10baaebb6071430c809e0b1","name":"Dinxperlosestraatweg 28","address":"Dinxperlosestraatweg 28","city":"Aalten","operatorName":"Vattenfall InCharge","maxPowerKw":11,"isMegawatt":false,"status":"AVAILABLE","source":"ndw"}},{"type":"Feature","geometry":{"type":"Point","coordinates":[6.537811,51.888694]},"properties":{"type":"charge","layer":"passenger","locationId":"66dedd1987af5b001c7dab25","name":"Hippisch Centrum de Achterhoek","address":"Dinxperlosestraatweg 122 A","city":"IJzerlo","operatorName":"Pluq","maxPowerKw":14,"isMegawatt":false,"status":"AVAILABLE","source":"ndw","priceKwh":0.4}},{"type":"Feature","geometry":{"type":"Point","coordinates":[6.582197,51.916697]},"properties":{"type":"charge","layer":"passenger","locationId":"5f0c075e-646d-4f99-99ac-afb669596808","name":"De Miggelt 42","address":"De Miggelt 42","city":"Aalten","operatorName":"Vattenfall InCharge","maxPowerKw":11,"isMegawatt":false,"status":"AVAILABLE","source":"ndw"}},{"type":"Feature","geometry":{"type":"Point","coordinates":[6.577997,51.923344]},"properties":{"type":"charge","layer":"passenger","locationId":"5a25ff2474c1ba805932af2157b04355","name":"Breukelaarplein 6","address":"Breukelaarplein 6","city":"Aalten","operatorName":"Vattenfall InCharge","maxPowerKw":11,"isMegawatt":false,"status":"AVAILABLE","source":"ndw"}},{"type":"Feature","geometry":{"type":"Point","coordinates":[6.589233,51.913766]},"properties":{"type":"charge","layer":"passenger","locationId":"dc356d3757aceda079782ede0a550a41","name":"De Pas 13","address":"De Pas 13","city":"Aalten","operatorName":"Vattenfall InCharge","maxPowerKw":11,"isMegawatt":false,"status":"AVAILABLE","source":"ndw"}},{"type":"Feature","geometry":{"type":"Point","coordinates":[6.572775,51.930806]},"properties":{"type":"charge","layer":"passenger","locationId":"7b90f4e6025e3971819c43602abbfb23","name":"Hoge Veld 19","address":"Hoge Veld 19","city":"Aalten","operatorName":"Vattenfall InCharge","maxPowerKw":11,"isMegawatt":false,"status":"AVAILABLE","source":"ndw"}},{"type":"Feature","geometry":{"type":"Point","coordinates":[6.482902,51.862872]},"properties":{"type":"charge","layer":"passenger","locationId":"773d6ab6-f4ce-4bb3-bf19-ceb5538ac5d3","name":"Nieuwstraat","address":"Nieuwstraat 60","city":"Dinxperlo","operatorName":"Vattenfall InCharge","maxPowerKw":11,"isMegawatt":false,"status":"AVAILABLE","source":"ndw"}},{"type":"Feature","geometry":{"type":"Point","coordinates":[6.49441,51.86732]},"properties":{"type":"charge","layer":"passenger","locationId":"15e551002fbbf7598b547ce4202fa240","name":"Vriezenkamp 59","address":"Vriezenkamp 59","city":"Dinxperlo","operatorName":"Vattenfall InCharge","maxPowerKw":11,"isMegawatt":false,"status":"AVAILABLE","source":"ndw"}},{"type":"Feature","geometry":{"type":"Point","coordinates":[6.479888,51.862188]},"properties":{"type":"charge","layer":"passenger","locationId":"8083a91d-c241-498e-878e-0f3a20888704","name":"Keminksweide 68","address":"Keminksweide 68","city":"Dinxperlo","operatorName":"Vattenfall InCharge","maxPowerKw":11,"isMegawatt":false,"status":"AVAILABLE","source":"ndw"}},{"type":"Feature","geometry":{"type":"Point","coordinates":[6.578305,51.921444]},"properties":{"type":"charge","layer":"passenger","locationId":"941738d9-652e-43ce-a33b-a10ffc60aec1","name":"Stationsstraat 38","address":"Stationsstraat 38","city":"Aalten","operatorName":"Vattenfall InCharge","maxPowerKw":11,"isMegawatt":false,"status":"AVAILABLE","source":"ndw"}},{"type":"Feature","geometry":{"type":"Point","coordinates":[6.587613,51.929457]},"properties":{"type":"charge","layer":"passenger","locationId":"d367b430f2f8197eafaa3e0ab15c8cee","name":"Patrimoniumstraat 16D","address":"Patrimoniumstraat 16D","city":"Aalten","operatorName":"Vattenfall InCharge","maxPowerKw":11,"isMegawatt":false,"status":"CHARGING","source":"ndw"}},{"type":"Feature","geometry":{"type":"Point","coordinates":[6.581386,51.923612]},"properties":{"type":"charge","layer":"passenger","locationId":"c5341bf3-83df-4e3f-9a06-7322f3a06580","name":"Driessenshof 33","address":"Driessenshof 33","city":"Aalten","operatorName":"Vattenfall InCharge","maxPowerKw":11,"isMegawatt":false,"status":"AVAILABLE","source":"ndw"}},{"type":"Feature","geometry":{"type":"MultiPolygon","coordinates":[[[[6.559352807309806,51.974364159927305],[6.569684000920984,51.972158057725316],[6.575104554258513,51.97322466789665],[6.589441843057814,51.97170952663784],[6.591743459178578,51.972125496902464],[6.59254138873775,51.97084154032555],[6.598433343381867,51.971143319333834],[6.604276188023541,51.97027628442126],[6.628720872396826,51.96728160478276],[6.633928383957768,51.965669716132076],[6.638915729576278,51.96254717432155],[6.639225724651573,51.95939767487283],[6.629071226076192,51.95009223718482],[6.633068299580901,51.94768537065924],[6.633739756955213,51.945864314213274],[6.634323848141581,51.94501341791477],[6.633705864585552,51.939715467474656],[6.632007809499919,51.93781715580574],[6.634223257104004,51.93737177590817],[6.634152572328928,51.93530015633729],[6.639180138271848,51.93246656089034],[6.645973586916235,51.92960590093434],[6.646943631080669,51.9293926755005],[6.649483397051528,51.92890688650791],[6.651292394838797,51.92854258191673],[6.653257657704778,51.929111905792226],[6.653652922966833,51.9302672482443],[6.656648610402453,51.93018018335078],[6.657600984643382,51.928449338979185],[6.657873386954341,51.92910626159053],[6.6590037549552035,51.929019684640764],[6.659071633163393,51.92584323843102],[6.657985058724268,51.926028349808156],[6.658030332805614,51.92433210719994],[6.660678322813728,51.92222854866405],[6.662178288374094,51.92053807431006],[6.661720692174428,51.92035133516873],[6.663126282960401,51.91979401472265],[6.662843148758252,51.91851000762568],[6.660766474505371,51.918369174209985],[6.661613111073227,51.91690617288977],[6.660587393212394,51.916706533153544],[6.661009517476961,51.915603721166605],[6.662942390558382,51.915736923840576],[6.664285263923275,51.91648118538732],[6.666992408140393,51.91430617832097],[6.668733073692377,51.91386374159248],[6.654631704974986,51.90894056484284],[6.637716809921742,51.90445503130601],[6.634173482851824,51.901005744323825],[6.6276952285541,51.9008578865061],[6.625309710854284,51.90194223815063],[6.619635017498943,51.90066401592438],[6.604321169025475,51.89725891141532],[6.58577985277592,51.89408234554725],[6.569130071410868,51.88810974540624],[6.563869946011199,51.88548945190925],[6.5627783812761935,51.88441173255419],[6.56086472096172,51.88401602713726],[6.560976819709987,51.88248313792929],[6.560337043097883,51.8821958393935],[6.558812415801349,51.88252695543563],[6.557279623552291,51.8817781474564],[6.555862833107451,51.88180507441541],[6.555328844247009,51.88343805055608],[6.552717205477062,51.88405167031981],[6.552425530402998,51.8861917995622],[6.548363002595643,51.88534703658539],[6.549897638424284,51.883390382762364],[6.549250492151136,51.88314332333523],[6.547505234357427,51.8833210175947],[6.545291848862262,51.88463225870649],[6.544150638405028,51.884610175798336],[6.53989861277539,51.88091657430397],[6.529205494234984,51.87681634991162],[6.529885946160079,51.87598833707263],[6.524476736848401,51.87405136902984],[6.5245725026946335,51.87369264073436],[6.518288631338872,51.873117546417035],[6.515609124084181,51.87352177556371],[6.514577716511103,51.873126168947515],[6.511547563331235,51.87086017596647],[6.5044706924994,51.86855598126105],[6.503193155096183,51.86763399940315],[6.501060735711151,51.86800048902697],[6.502207931932513,51.86470563390077],[6.50029101019748,51.86227278230715],[6.487922654681099,51.85906183431068],[6.483977876032447,51.85756046200048],[6.482512398282428,51.85683642782112],[6.48088002929637,51.856934988103376],[6.478233079373373,51.856880307832206],[6.477053628190432,51.85665997543162],[6.473895213366157,51.85547483674574],[6.472507867808368,51.8538233888817],[6.464735097936943,51.85516273551179],[6.464383816304923,51.85528764808603],[6.468127169904916,51.86034719837761],[6.468402228442174,51.8641766317776],[6.471285594948299,51.86452635101608],[6.471867207799073,51.866076013194515],[6.471834923741889,51.868962911552046],[6.474325210731576,51.86945667754248],[6.4753143410812815,51.87066098548928],[6.477872769590226,51.87175861875854],[6.477979200651093,51.87185232298444],[6.4784679978277,51.87230947094488],[6.480974942604879,51.874074724773806],[6.483499720230026,51.87741667578997],[6.484207618520571,51.87896880034711],[6.481901124416949,51.88341573326332],[6.480609086972965,51.88426297984782],[6.479170367898691,51.889242813150894],[6.47999420935271,51.89433663537363],[6.476064643907974,51.90197277205264],[6.472352096741495,51.90735354674027],[6.482710373877001,51.91026011367023],[6.488668895585442,51.91273194581299],[6.487112842024085,51.91408612470788],[6.491175055095679,51.91564156320524],[6.490659575076824,51.91717127016351],[6.492576866729864,51.917409939294856],[6.493233925616879,51.92021763619769],[6.49235937007893,51.92593019515657],[6.494519302509824,51.92712102231612],[6.497089777916483,51.92959976622893],[6.495580304939077,51.93028777527788],[6.503127927752983,51.93931328703893],[6.500979540424319,51.939504433502606],[6.502966458818623,51.94128472566479],[6.503454011462787,51.94402294789723],[6.504781022013718,51.94598445612078],[6.517186482387555,51.94800776956153],[6.5186422393284,51.951171395720216],[6.518614312160612,51.95346782860787],[6.519832743122834,51.95556278739313],[6.532829488598807,51.962353598093976],[6.527269953581475,51.96602365441824],[6.547385825983112,51.9727668598534],[6.554528731884748,51.97375776015948],[6.559352807309806,51.974364159927305]]]]},"properties":{"type":"boundary","gemeente":"Aalten","code":"GM0197"}}]}