{"type":"FeatureCollection","metadata":{"gemeente":"Altena","slug":"altena","code":"GM1959","generated_at":"2026-06-07T19:22:09.578Z","total_passenger":110,"total_freight":0,"bounds":[4.676303957828994,51.71088230751466,5.142713523153104,51.828314603407435],"operators":["Allego","DAEN Mobility","E-Flux by Road","Eneco","Fastned","Laadnet","Opcharge","Pluq","PureCharged","Shell Recharge"]},"features":[{"type":"Feature","geometry":{"type":"Point","coordinates":[4.90116,51.813247]},"properties":{"type":"charge","layer":"passenger","locationId":"NLLOC006962","name":"NL, Binnengriend 45, 4251 DG, Werkendam","address":"Binnengriend 45","city":"Werkendam","operatorName":"Allego","maxPowerKw":0,"isMegawatt":false,"status":"AVAILABLE","source":"ndw","priceKwh":0.511}},{"type":"Feature","geometry":{"type":"Point","coordinates":[4.886663,51.801435]},"properties":{"type":"charge","layer":"passenger","locationId":"68baa15825cf25b834fd4f7d","name":"Velsenstraat 6 paal 1","address":"Velsenstraat  6","city":"Werkendam","operatorName":"E-Flux by Road","maxPowerKw":11,"isMegawatt":false,"status":"AVAILABLE","source":"ndw","priceKwh":0.33}},{"type":"Feature","geometry":{"type":"Point","coordinates":[4.895531,51.721643]},"properties":{"type":"charge","layer":"passenger","locationId":"4175072","name":"Laadnet Janson Bridging","address":"Keizersveer 9","city":"Hank","operatorName":"Laadnet","maxPowerKw":22,"isMegawatt":false,"status":"AVAILABLE","source":"ndw"}},{"type":"Feature","geometry":{"type":"Point","coordinates":[4.890498,51.806828]},"properties":{"type":"charge","layer":"passenger","locationId":"959543","name":"DAE_NL_2001340","address":"Akkerwinde 6","city":"Werkendam","operatorName":"DAEN Mobility","maxPowerKw":11,"isMegawatt":false,"status":"AVAILABLE","source":"ndw","priceKwh":0.36}},{"type":"Feature","geometry":{"type":"Point","coordinates":[4.950107,51.816168]},"properties":{"type":"charge","layer":"passenger","locationId":"117bd2ca-82b1-11f0-b908-42010aa400b8","name":"NL, Vijfmorgen 58, 4254 CK, Sleeuwijk","address":"Vijfmorgen 58","city":"Sleeuwijk","operatorName":"Allego","maxPowerKw":0,"isMegawatt":false,"status":"AVAILABLE","source":"ndw"}},{"type":"Feature","geometry":{"type":"Point","coordinates":[4.90116,51.813247]},"properties":{"type":"charge","layer":"passenger","locationId":"ad1c85b6-632d-11ea-b8c4-42010a840003","name":"NL, Binnengriend 45, 4251 DG, Werkendam","address":"Binnengriend 45","city":"Werkendam","operatorName":"Allego","maxPowerKw":0,"isMegawatt":false,"status":"AVAILABLE","source":"ndw"}},{"type":"Feature","geometry":{"type":"Point","coordinates":[4.921949,51.746879]},"properties":{"type":"charge","layer":"passenger","locationId":"31292","name":"Fastned De Keizer","address":"De Keizer A27","city":"Hank","operatorName":"Fastned","maxPowerKw":150,"isMegawatt":false,"status":"AVAILABLE","source":"ndw","priceKwh":0.6364}},{"type":"Feature","geometry":{"type":"Point","coordinates":[4.959105,51.817972]},"properties":{"type":"charge","layer":"passenger","locationId":"b50e348e-578f-11eb-a092-42010a840003","name":"NL, Munnikenland, 85, 4254EZ, Sleeuwijk","address":"Munnikenland 85","city":"Sleeuwijk","operatorName":"Allego","maxPowerKw":0,"isMegawatt":false,"status":"AVAILABLE","source":"ndw"}},{"type":"Feature","geometry":{"type":"Point","coordinates":[4.886663,51.801435]},"properties":{"type":"charge","layer":"passenger","locationId":"68baa1ce666af3c5a456df25","name":"Velsenstraat 6 paal 2","address":"Velsenstraat 6","city":"Werkendam","operatorName":"E-Flux by Road","maxPowerKw":11,"isMegawatt":false,"status":"AVAILABLE","source":"ndw","priceKwh":0.33}},{"type":"Feature","geometry":{"type":"Point","coordinates":[4.917835,51.744185]},"properties":{"type":"charge","layer":"passenger","locationId":"d7cce53e-0e05-11eb-8eca-42010a840fde","name":"Shell Recharge A27 E311 WZ","address":"A27 E311 WZ","city":"Hank","operatorName":"Shell Recharge","maxPowerKw":175,"isMegawatt":false,"status":"AVAILABLE","source":"ndw"}},{"type":"Feature","geometry":{"type":"Point","coordinates":[4.917835,51.744185]},"properties":{"type":"charge","layer":"passenger","locationId":"50","name":"Shell Recharge NL0032 - Shell Hank","address":"A27 E311 WZ","city":"Hank","operatorName":"Shell Recharge","maxPowerKw":175,"isMegawatt":false,"status":"UNAVAILABLE","source":"ndw","priceKwh":0.7025}},{"type":"Feature","geometry":{"type":"Point","coordinates":[4.905504,51.811322]},"properties":{"type":"charge","layer":"passenger","locationId":"badaecf4-67e4-11ea-a611-42010a840003","name":"NL, Koelemaaier 1, 4251 DT, Werkendam","address":"Koelemaaier 1","city":"Werkendam","operatorName":"Allego","maxPowerKw":0,"isMegawatt":false,"status":"AVAILABLE","source":"ndw"}},{"type":"Feature","geometry":{"type":"Point","coordinates":[4.921949,51.746879]},"properties":{"type":"charge","layer":"passenger","locationId":"f3dc17ae-91f7-11e8-9ab9-42010a840002","name":"Fastned De Keizer","address":"De Keizer A27","city":"Hank","operatorName":"Fastned","maxPowerKw":150,"isMegawatt":false,"status":"AVAILABLE","source":"ndw"}},{"type":"Feature","geometry":{"type":"Point","coordinates":[5.03849,51.78875]},"properties":{"type":"charge","layer":"passenger","locationId":"b15836dc-2fc2-11ef-8973-42010aa400b8","name":"Eneco eMobility Vervoorn VOF - Giessen","address":"Hoofdgraaf 4","city":"Giessen","operatorName":"Eneco","maxPowerKw":22,"isMegawatt":false,"status":"AVAILABLE","source":"ndw","priceKwh":0.35}},{"type":"Feature","geometry":{"type":"Point","coordinates":[4.94672,51.80785]},"properties":{"type":"charge","layer":"passenger","locationId":"30361866-76A3-40A0-86D4-77B12685FF28","name":"Eneco eMobility De Roef 10 SLEEUWIJK","address":"De Roef 10","city":"Sleeuwijk","operatorName":"Eneco","maxPowerKw":22,"isMegawatt":false,"status":"UNAVAILABLE","source":"ndw","priceKwh":0.32}},{"type":"Feature","geometry":{"type":"Point","coordinates":[4.888071,51.806718]},"properties":{"type":"charge","layer":"passenger","locationId":"NLLOC001651","name":"NLD, Werkendam, Klaproos 22","address":"Klaproos 22","city":"Werkendam","operatorName":"Allego","maxPowerKw":0,"isMegawatt":false,"status":"AVAILABLE","source":"ndw","priceKwh":0.511}},{"type":"Feature","geometry":{"type":"Point","coordinates":[4.965855,51.730447]},"properties":{"type":"charge","layer":"passenger","locationId":"NLLOC002890","name":"NLD, Molenplantsoen 36, 4271 AH, Dussen","address":"Molenplantsoen 36","city":"Dussen","operatorName":"Allego","maxPowerKw":0,"isMegawatt":false,"status":"AVAILABLE","source":"ndw","priceKwh":0.511}},{"type":"Feature","geometry":{"type":"Point","coordinates":[5.035224,51.792143]},"properties":{"type":"charge","layer":"passenger","locationId":"702111bcc8b341b093f1","name":"Quasar Giessen","address":"Burgstraat 2","city":"Giessen","operatorName":"Opcharge","maxPowerKw":22,"isMegawatt":false,"status":"AVAILABLE","source":"ndw","priceKwh":0.38}},{"type":"Feature","geometry":{"type":"Point","coordinates":[4.959891,51.770913]},"properties":{"type":"charge","layer":"passenger","locationId":"3f15d4fc-fc35-11ec-bec2-42010aa4001d","name":"Eneco eMobility Voorstraat 4 Almkerk","address":"Voorstraat 4","city":"Almkerk","operatorName":"Eneco","maxPowerKw":0,"isMegawatt":false,"status":"AVAILABLE","source":"ndw","priceKwh":0.32}},{"type":"Feature","geometry":{"type":"Point","coordinates":[5.111769,51.776008]},"properties":{"type":"charge","layer":"passenger","locationId":"4748860","name":"Laadnet Emmastraat","address":"Emmastraat 8","city":"Veen","operatorName":"Laadnet","maxPowerKw":22,"isMegawatt":false,"status":"CHARGING","source":"ndw"}},{"type":"Feature","geometry":{"type":"Point","coordinates":[4.959891,51.770913]},"properties":{"type":"charge","layer":"passenger","locationId":"C9912D65-489B-4854-BFFE-C70F08EB923C","name":"Eneco eMobility Voorstraat 4 Almkerk","address":"Voorstraat 4","city":"Almkerk","operatorName":"Eneco","maxPowerKw":0,"isMegawatt":false,"status":"AVAILABLE","source":"ndw","priceKwh":0.32}},{"type":"Feature","geometry":{"type":"Point","coordinates":[5.03849,51.78875]},"properties":{"type":"charge","layer":"passenger","locationId":"07B62BE9-AADA-43DF-AE04-5917F44331A4","name":"Eneco eMobility Vervoorn VOF - Giessen","address":"Hoofdgraaf 4","city":"Giessen","operatorName":"Eneco","maxPowerKw":22,"isMegawatt":false,"status":"AVAILABLE","source":"ndw","priceKwh":0.35}},{"type":"Feature","geometry":{"type":"Point","coordinates":[4.93065,51.81819]},"properties":{"type":"charge","layer":"passenger","locationId":"19f93726-fc36-11ec-a6b6-42010aa40014","name":"Eneco eMobility Robijnseweg 15 SLEEUWIJK","address":"Robijnseweg 15","city":"Sleeuwijk","operatorName":"Eneco","maxPowerKw":0,"isMegawatt":false,"status":"AVAILABLE","source":"ndw","priceKwh":0.25}},{"type":"Feature","geometry":{"type":"Point","coordinates":[4.89727,51.80642]},"properties":{"type":"charge","layer":"passenger","locationId":"66aa3e94-ec6c-11ee-bc28-42010aa400b8","name":"Eneco eMobility Stichting Mijzo - Goezate - Werkendam","address":"Raadhuislaan 4","city":"Werkendam","operatorName":"Eneco","maxPowerKw":11,"isMegawatt":false,"status":"AVAILABLE","source":"ndw","priceKwh":0.55}},{"type":"Feature","geometry":{"type":"Point","coordinates":[4.923761,51.773921]},"properties":{"type":"charge","layer":"passenger","locationId":"3fe9c67bd4e54ebe8e2a405b9a6b4df0","name":"MDB Thuislader Nieuwendijk","address":"Prinses Julianaweg 14","city":"Nieuwendijk","operatorName":"","maxPowerKw":11,"isMegawatt":false,"status":"AVAILABLE","source":"ndw","priceKwh":0.4}},{"type":"Feature","geometry":{"type":"Point","coordinates":[4.896052,51.737874]},"properties":{"type":"charge","layer":"passenger","locationId":"844a1592-78f8-11e9-b434-42010a840003","name":"NLD, Korenstraat 10 4273CX Hank","address":"Korenstraat 10","city":"Hank","operatorName":"Allego","maxPowerKw":0,"isMegawatt":false,"status":"AVAILABLE","source":"ndw"}},{"type":"Feature","geometry":{"type":"Point","coordinates":[4.901292,51.741264]},"properties":{"type":"charge","layer":"passenger","locationId":"84bc0620-78f8-11e9-838c-42010a840003","name":"NLD, Raai 53 4273BC Hank","address":"Raai 53","city":"Hank","operatorName":"Allego","maxPowerKw":0,"isMegawatt":false,"status":"AVAILABLE","source":"ndw"}},{"type":"Feature","geometry":{"type":"Point","coordinates":[4.899478,51.805765]},"properties":{"type":"charge","layer":"passenger","locationId":"b5f0de60-578f-11eb-81c1-42010a840003","name":"NL, Floreffestraat, 44, 4251GR, Werkendam","address":"Floreffestraat 44","city":"Werkendam","operatorName":"Allego","maxPowerKw":0,"isMegawatt":false,"status":"AVAILABLE","source":"ndw"}},{"type":"Feature","geometry":{"type":"Point","coordinates":[4.899185,51.80583]},"properties":{"type":"charge","layer":"passenger","locationId":"38b5180c-d8ee-11e8-9a85-42010a840002","name":"NLD, Floreffestraat 38, 4251 GP, Werkendam","address":"Floreffestraat 38","city":"Werkendam","operatorName":"Allego","maxPowerKw":0,"isMegawatt":false,"status":"AVAILABLE","source":"ndw"}},{"type":"Feature","geometry":{"type":"Point","coordinates":[4.999655,51.807219]},"properties":{"type":"charge","layer":"passenger","locationId":"61b725d6-a882-11eb-b7ce-42010a840003","name":"NL, Schans 31, 4285 EC Woudrichem","address":"Schans 31","city":"Woudrichem","operatorName":"Allego","maxPowerKw":0,"isMegawatt":false,"status":"AVAILABLE","source":"ndw"}},{"type":"Feature","geometry":{"type":"Point","coordinates":[5.049229,51.782536]},"properties":{"type":"charge","layer":"passenger","locationId":"bf100370-cdfd-11ea-9338-42010a840003","name":"Bellefleur 39 4281JB Andel","address":"Bellefleur 39","city":"Andel","operatorName":"Allego","maxPowerKw":0,"isMegawatt":false,"status":"AVAILABLE","source":"ndw"}},{"type":"Feature","geometry":{"type":"Point","coordinates":[4.89727,51.80642]},"properties":{"type":"charge","layer":"passenger","locationId":"0C979E16-F984-46C5-8DC1-97FA7AFF41E6","name":"Eneco eMobility Stichting Mijzo - Goezate - Werkendam","address":"Raadhuislaan 4","city":"Werkendam","operatorName":"Eneco","maxPowerKw":11,"isMegawatt":false,"status":"AVAILABLE","source":"ndw","priceKwh":0.55}},{"type":"Feature","geometry":{"type":"Point","coordinates":[4.92611,51.77883]},"properties":{"type":"charge","layer":"passenger","locationId":"71d73984-fc36-11ec-b699-42010aa40003","name":"Eneco eMobility Ippelseweg 13 Nieuwendijk","address":"Ippelseweg 13","city":"Nieuwendijk","operatorName":"Eneco","maxPowerKw":22,"isMegawatt":false,"status":"AVAILABLE","source":"ndw","priceKwh":0.32}},{"type":"Feature","geometry":{"type":"Point","coordinates":[4.9046,51.81804]},"properties":{"type":"charge","layer":"passenger","locationId":"3a8f2d4c-fc36-11ec-b720-42010aa40017","name":"Eneco eMobility Sleeuwijksedijk 26 WERKENDAM","address":"Sleeuwijksedijk 26","city":"Werkendam","operatorName":"Eneco","maxPowerKw":0,"isMegawatt":false,"status":"UNAVAILABLE","source":"ndw","priceKwh":0.32}},{"type":"Feature","geometry":{"type":"Point","coordinates":[4.914636,51.779179]},"properties":{"type":"charge","layer":"passenger","locationId":"00d01fc0-6977-11ea-be9b-42010a840003","name":"NL, Kilse Suikerpeer 19, 4255 JP, Nieuwendijk","address":"Kilse Suikerpeer 19","city":"Nieuwendijk","operatorName":"Allego","maxPowerKw":0,"isMegawatt":false,"status":"AVAILABLE","source":"ndw"}},{"type":"Feature","geometry":{"type":"Point","coordinates":[4.888071,51.806718]},"properties":{"type":"charge","layer":"passenger","locationId":"8644851c-4f3c-11e8-ab6f-42010a840002","name":"NLD, Werkendam, Klaproos 22","address":"Klaproos 22","city":"Werkendam","operatorName":"Allego","maxPowerKw":0,"isMegawatt":false,"status":"AVAILABLE","source":"ndw"}},{"type":"Feature","geometry":{"type":"Point","coordinates":[5.103885,51.776051]},"properties":{"type":"charge","layer":"passenger","locationId":"a2f76c44-f457-11e9-ae60-42010a840003","name":"NLD, Hubertus Schreudershof 2 4264RG Veen","address":"Hubertus Schreudershof 2","city":"Veen","operatorName":"Allego","maxPowerKw":0,"isMegawatt":false,"status":"AVAILABLE","source":"ndw"}},{"type":"Feature","geometry":{"type":"Point","coordinates":[4.892637,51.735451]},"properties":{"type":"charge","layer":"passenger","locationId":"65c49ada21e2a0001c32aba8","name":"Sportcentrum Hank","address":"rietwerfplantsoen 14","city":"Hank","operatorName":"E-Flux by Road","maxPowerKw":11,"isMegawatt":false,"status":"AVAILABLE","source":"ndw","priceKwh":0.58}},{"type":"Feature","geometry":{"type":"Point","coordinates":[4.965855,51.730447]},"properties":{"type":"charge","layer":"passenger","locationId":"8619643e-dd6e-11e8-8d3d-42010a840002","name":"NLD, Molenplantsoen 36, 4271 AH, Dussen","address":"Molenplantsoen 36","city":"Dussen","operatorName":"Allego","maxPowerKw":0,"isMegawatt":false,"status":"AVAILABLE","source":"ndw"}},{"type":"Feature","geometry":{"type":"Point","coordinates":[4.89211,51.801937]},"properties":{"type":"charge","layer":"passenger","locationId":"660bad4f5ebeae001ce084b6","name":"laadpaal vision 1","address":"hulsenboschstraat 9","city":"werkendam","operatorName":"E-Flux by Road","maxPowerKw":22,"isMegawatt":false,"status":"AVAILABLE","source":"ndw","priceKwh":0.38}},{"type":"Feature","geometry":{"type":"Point","coordinates":[4.878018,51.804365]},"properties":{"type":"charge","layer":"passenger","locationId":"615f2e53823a016f6064e271","name":"Kees Kieboom","address":"Biesboschhaven zuid 30a","city":"Werkendam","operatorName":"E-Flux by Road","maxPowerKw":150,"isMegawatt":false,"status":"AVAILABLE","source":"ndw","priceKwh":0.4}},{"type":"Feature","geometry":{"type":"Point","coordinates":[4.972001,51.771637]},"properties":{"type":"charge","layer":"passenger","locationId":"62bebb8e86f59e483637a61b","name":"Golfpark Almkreek","address":"Hoekje 7B","city":"Almkerk","operatorName":"E-Flux by Road","maxPowerKw":22,"isMegawatt":false,"status":"AVAILABLE","source":"ndw","priceKwh":0.58}},{"type":"Feature","geometry":{"type":"Point","coordinates":[5.131642,51.760749]},"properties":{"type":"charge","layer":"passenger","locationId":"2e94eaa8-80d4-11e9-a55a-42010a840003","name":"NLD, Grote Kerkstraat 32 4261BE Aalburg","address":"Grote Kerkstraat 32","city":"Aalburg","operatorName":"Allego","maxPowerKw":0,"isMegawatt":false,"status":"CHARGING","source":"ndw"}},{"type":"Feature","geometry":{"type":"Point","coordinates":[4.965852,51.77401]},"properties":{"type":"charge","layer":"passenger","locationId":"7f488ef2-4f3c-11e8-ab7f-42010a840002","name":"NLD, Almkerk, Van Limburg Stirumstraat 33","address":"Van Limburg Stirumstraat 33","city":"Almkerk","operatorName":"Allego","maxPowerKw":0,"isMegawatt":false,"status":"AVAILABLE","source":"ndw"}},{"type":"Feature","geometry":{"type":"Point","coordinates":[5.05395,51.783134]},"properties":{"type":"charge","layer":"passenger","locationId":"4241124","name":"Laadnet Neer Andelse weg 1D","address":"Neer-Andelseweg 1D","city":"Andel","operatorName":"Laadnet","maxPowerKw":11,"isMegawatt":false,"status":"AVAILABLE","source":"ndw"}},{"type":"Feature","geometry":{"type":"Point","coordinates":[4.953352,51.769614]},"properties":{"type":"charge","layer":"passenger","locationId":"ac6baffe-a159-11ec-a26d-42010a840003","name":"NL, Provincialeweg Noord 12, 4286EA, Almkerk","address":"Provincialeweg Noord 12","city":"Almkerk","operatorName":"Allego","maxPowerKw":0,"isMegawatt":false,"status":"AVAILABLE","source":"ndw"}},{"type":"Feature","geometry":{"type":"Point","coordinates":[4.905504,51.811322]},"properties":{"type":"charge","layer":"passenger","locationId":"NLLOC007154","name":"NL, Koelemaaier 1, 4251 DT, Werkendam","address":"Koelemaaier 1","city":"Werkendam","operatorName":"Allego","maxPowerKw":0,"isMegawatt":false,"status":"AVAILABLE","source":"ndw","priceKwh":0.511}},{"type":"Feature","geometry":{"type":"Point","coordinates":[4.945343,51.815688]},"properties":{"type":"charge","layer":"passenger","locationId":"8f8b8d3c-4f3c-11e8-9ef0-42010a840002","name":"NLD, Sleeuwijk, Espendreef 2","address":"Espendreef 2","city":"Sleeuwijk","operatorName":"Allego","maxPowerKw":0,"isMegawatt":false,"status":"AVAILABLE","source":"ndw"}},{"type":"Feature","geometry":{"type":"Point","coordinates":[5.003281,51.810464]},"properties":{"type":"charge","layer":"passenger","locationId":"5f58d4f2-a15a-11ec-be33-42010a840003","name":"NL, Kastanjelaan 69, 4285 DB Woudrichem","address":"Kastanjelaan 69","city":"Woudrichem","operatorName":"Allego","maxPowerKw":0,"isMegawatt":false,"status":"AVAILABLE","source":"ndw"}},{"type":"Feature","geometry":{"type":"Point","coordinates":[5.02255,51.794504]},"properties":{"type":"charge","layer":"passenger","locationId":"a0115488-702e-11ea-bd70-42010a840003","name":"NLD, Koperwiek 42 4284 XA Rijswijk","address":"Koperwiek 42","city":"Rijswijk","operatorName":"Allego","maxPowerKw":0,"isMegawatt":false,"status":"AVAILABLE","source":"ndw"}},{"type":"Feature","geometry":{"type":"Point","coordinates":[4.957812,51.734051]},"properties":{"type":"charge","layer":"passenger","locationId":"bab5494a-67e4-11ea-88dc-42010a840003","name":"NL, Schenkelkamp 1, 4271 XS, Dussen","address":"Schenkelkamp 1","city":"Dussen","operatorName":"Allego","maxPowerKw":0,"isMegawatt":false,"status":"CHARGING","source":"ndw"}},{"type":"Feature","geometry":{"type":"Point","coordinates":[5.004114,51.815899]},"properties":{"type":"charge","layer":"passenger","locationId":"9824f7f2-620f-11ea-8663-42010a840ff1","name":"NL, Arsenaal 13, 4285 BD, Woudrichem","address":"Arsenaal 13","city":"Woudrichem","operatorName":"Allego","maxPowerKw":0,"isMegawatt":false,"status":"AVAILABLE","source":"ndw"}},{"type":"Feature","geometry":{"type":"Point","coordinates":[5.056221,51.780422]},"properties":{"type":"charge","layer":"passenger","locationId":"007b3e0a-eeb8-11e8-a15f-42010a840002","name":"NLD, Jasmijn 2, 4281LV, Andel","address":"Jasmijn 2","city":"Andel","operatorName":"Allego","maxPowerKw":0,"isMegawatt":false,"status":"AVAILABLE","source":"ndw"}},{"type":"Feature","geometry":{"type":"Point","coordinates":[4.899235,51.811004]},"properties":{"type":"charge","layer":"passenger","locationId":"40debb6a-1d6a-11eb-bbb4-42010a840003","name":"NLD, de Erker 29 4251EZ Werkendam","address":"de Erker 29","city":"Werkendam","operatorName":"Allego","maxPowerKw":0,"isMegawatt":false,"status":"AVAILABLE","source":"ndw"}},{"type":"Feature","geometry":{"type":"Point","coordinates":[4.94673,51.812494]},"properties":{"type":"charge","layer":"passenger","locationId":"bae8e444-67e4-11ea-a837-42010a840003","name":"NL, Nieuwe Es 89, 4254 AW, Sleeuwijk","address":"Nieuwe Es 89","city":"Sleeuwijk","operatorName":"Allego","maxPowerKw":0,"isMegawatt":false,"status":"AVAILABLE","source":"ndw"}},{"type":"Feature","geometry":{"type":"Point","coordinates":[5.006691,51.817252]},"properties":{"type":"charge","layer":"passenger","locationId":"76a3811e-62d1-11e8-9a83-42010a840002","name":"NL, Hoogstraat 56, 4285 AJ, Woudrichem","address":"Hoogstraat 56","city":"Woudrichem","operatorName":"Allego","maxPowerKw":0,"isMegawatt":false,"status":"AVAILABLE","source":"ndw"}},{"type":"Feature","geometry":{"type":"Point","coordinates":[4.913656,51.777517]},"properties":{"type":"charge","layer":"passenger","locationId":"317af36e-9ae8-11ea-a995-42010a840003","name":"NL, Dirkappel 15, 4255 JT, Nieuwendijk","address":"Dirkappel 15","city":"Nieuwendijk","operatorName":"Allego","maxPowerKw":0,"isMegawatt":false,"status":"AVAILABLE","source":"ndw"}},{"type":"Feature","geometry":{"type":"Point","coordinates":[4.891708,51.814122]},"properties":{"type":"charge","layer":"passenger","locationId":"3184d8d4-9ae8-11ea-a2cc-42010a840003","name":"NL, Gedempte Haven 17, 4251 CA, Werkendam","address":"Gedempte Haven 17","city":"Werkendam","operatorName":"Allego","maxPowerKw":0,"isMegawatt":false,"status":"CHARGING","source":"ndw"}},{"type":"Feature","geometry":{"type":"Point","coordinates":[4.914636,51.779179]},"properties":{"type":"charge","layer":"passenger","locationId":"NLLOC006961","name":"NL, Kilse Suikerpeer 19, 4255 JP, Nieuwendijk","address":"Kilse Suikerpeer 19","city":"Nieuwendijk","operatorName":"Allego","maxPowerKw":0,"isMegawatt":false,"status":"AVAILABLE","source":"ndw","priceKwh":0.511}},{"type":"Feature","geometry":{"type":"Point","coordinates":[4.899478,51.805765]},"properties":{"type":"charge","layer":"passenger","locationId":"NLLOC013481","name":"NL, Floreffestraat, 44, 4251GR, Werkendam","address":"Floreffestraat 44","city":"Werkendam","operatorName":"Allego","maxPowerKw":0,"isMegawatt":false,"status":"AVAILABLE","source":"ndw","priceKwh":0.511}},{"type":"Feature","geometry":{"type":"Point","coordinates":[5.006691,51.817252]},"properties":{"type":"charge","layer":"passenger","locationId":"NLLOC002472","name":"NL, Hoogstraat 56, 4285 AJ, Woudrichem","address":"Hoogstraat 56","city":"Woudrichem","operatorName":"Allego","maxPowerKw":0,"isMegawatt":false,"status":"AVAILABLE","source":"ndw","priceKwh":0.511}},{"type":"Feature","geometry":{"type":"Point","coordinates":[4.96322,51.77059]},"properties":{"type":"charge","layer":"passenger","locationId":"5d4f704e-a15a-11ec-bdd8-42010a840003","name":"NL, Molenstraat 12, 4286 AR Almkerk","address":"Molenstraat 12","city":"Almkerk","operatorName":"Allego","maxPowerKw":0,"isMegawatt":false,"status":"AVAILABLE","source":"ndw"}},{"type":"Feature","geometry":{"type":"Point","coordinates":[4.922474,51.769956]},"properties":{"type":"charge","layer":"passenger","locationId":"fd011db4-a4f9-11e9-8620-42010a840003","name":"NLD, Rijksweg 103 4255GH Nieuwendijk","address":"Rijksweg 103","city":"Nieuwendijk","operatorName":"Allego","maxPowerKw":0,"isMegawatt":false,"status":"AVAILABLE","source":"ndw"}},{"type":"Feature","geometry":{"type":"Point","coordinates":[4.947362,51.818578]},"properties":{"type":"charge","layer":"passenger","locationId":"49d37f3a-10aa-11ea-aae8-42010a840003","name":"NLD, Abeelhof 52 4254BZ Sleeuwijk","address":"Abeelhof 52","city":"Sleeuwijk","operatorName":"Allego","maxPowerKw":0,"isMegawatt":false,"status":"AVAILABLE","source":"ndw"}},{"type":"Feature","geometry":{"type":"Point","coordinates":[4.952781,51.808206]},"properties":{"type":"charge","layer":"passenger","locationId":"bf035b16-cdfd-11ea-a13e-42010a840003","name":"NL, Waaiersluis 21 4254 VD Sleeuwijk","address":"Waaiersluis 21","city":"Sleeuwijk","operatorName":"Allego","maxPowerKw":0,"isMegawatt":false,"status":"AVAILABLE","source":"ndw"}},{"type":"Feature","geometry":{"type":"Point","coordinates":[4.954091,51.818291]},"properties":{"type":"charge","layer":"passenger","locationId":"cea7ddda-f2ec-11ea-8c42-42010a840003","name":"Jan de Waalstraat 6 4254EM Sleeuwijk","address":"Jan de Waalstraat 6","city":"Sleeuwijk","operatorName":"Allego","maxPowerKw":0,"isMegawatt":false,"status":"AVAILABLE","source":"ndw"}},{"type":"Feature","geometry":{"type":"Point","coordinates":[4.997623,51.813293]},"properties":{"type":"charge","layer":"passenger","locationId":"e2e4b99c-f2a5-11e8-9e68-42010a840002","name":"NLD, Wethouder Kentiestraat 3, 4285 CK, Woudrichem","address":"Wethouder Kentiestraat 3","city":"Woudrichem","operatorName":"Allego","maxPowerKw":0,"isMegawatt":false,"status":"AVAILABLE","source":"ndw"}},{"type":"Feature","geometry":{"type":"Point","coordinates":[4.950107,51.816168]},"properties":{"type":"charge","layer":"passenger","locationId":"NLLOC007060","name":"NL, Vijfmorgen 58, 4254 CK, Sleeuwijk","address":"Vijfmorgen 58","city":"Sleeuwijk","operatorName":"Allego","maxPowerKw":0,"isMegawatt":false,"status":"AVAILABLE","source":"ndw","priceKwh":0.511}},{"type":"Feature","geometry":{"type":"Point","coordinates":[4.896052,51.737874]},"properties":{"type":"charge","layer":"passenger","locationId":"NLLOC004061","name":"NLD, Korenstraat 10 4273CX Hank","address":"Korenstraat 10","city":"Hank","operatorName":"Allego","maxPowerKw":0,"isMegawatt":false,"status":"AVAILABLE","source":"ndw","priceKwh":0.511}},{"type":"Feature","geometry":{"type":"Point","coordinates":[4.954091,51.818291]},"properties":{"type":"charge","layer":"passenger","locationId":"NLLOC007928","name":"Jan de Waalstraat 6 4254EM Sleeuwijk","address":"Jan de Waalstraat 6","city":"Sleeuwijk","operatorName":"Allego","maxPowerKw":0,"isMegawatt":false,"status":"AVAILABLE","source":"ndw","priceKwh":0.511}},{"type":"Feature","geometry":{"type":"Point","coordinates":[4.96322,51.77059]},"properties":{"type":"charge","layer":"passenger","locationId":"NLLOC019496","name":"NL, Molenstraat 12, 4286 AR Almkerk","address":"Molenstraat 12","city":"Almkerk","operatorName":"Allego","maxPowerKw":0,"isMegawatt":false,"status":"AVAILABLE","source":"ndw","priceKwh":0.511}},{"type":"Feature","geometry":{"type":"Point","coordinates":[4.913656,51.777517]},"properties":{"type":"charge","layer":"passenger","locationId":"NLLOC006889","name":"NL, Dirkappel 15, 4255 JT, Nieuwendijk","address":"Dirkappel 15","city":"Nieuwendijk","operatorName":"Allego","maxPowerKw":0,"isMegawatt":false,"status":"AVAILABLE","source":"ndw","priceKwh":0.511}},{"type":"Feature","geometry":{"type":"Point","coordinates":[4.922474,51.769956]},"properties":{"type":"charge","layer":"passenger","locationId":"NLLOC004444","name":"NLD, Rijksweg 103 4255GH Nieuwendijk","address":"Rijksweg 103","city":"Nieuwendijk","operatorName":"Allego","maxPowerKw":0,"isMegawatt":false,"status":"AVAILABLE","source":"ndw","priceKwh":0.511}},{"type":"Feature","geometry":{"type":"Point","coordinates":[4.886402,51.765801]},"properties":{"type":"charge","layer":"passenger","locationId":"641979c9e6043100126b200b","name":"Hooge Polder B&B","address":"Hooge Polderweg (schuur) 2","city":"Werkendam","operatorName":"E-Flux by Road","maxPowerKw":22,"isMegawatt":false,"status":"AVAILABLE","source":"ndw","priceKwh":0.33}},{"type":"Feature","geometry":{"type":"Point","coordinates":[4.92611,51.77883]},"properties":{"type":"charge","layer":"passenger","locationId":"B8160C3C-E2FC-4D74-8AD7-3BB6860A4554","name":"Eneco eMobility Ippelseweg 13 Nieuwendijk","address":"Ippelseweg 13","city":"Nieuwendijk","operatorName":"Eneco","maxPowerKw":22,"isMegawatt":false,"status":"AVAILABLE","source":"ndw","priceKwh":0.32}},{"type":"Feature","geometry":{"type":"Point","coordinates":[5.103885,51.776051]},"properties":{"type":"charge","layer":"passenger","locationId":"NLLOC005264","name":"NLD, Hubertus Schreudershof 2 4264RG Veen","address":"Hubertus Schreudershof 2","city":"Veen","operatorName":"Allego","maxPowerKw":0,"isMegawatt":false,"status":"AVAILABLE","source":"ndw","priceKwh":0.511}},{"type":"Feature","geometry":{"type":"Point","coordinates":[4.911391,51.804571]},"properties":{"type":"charge","layer":"passenger","locationId":"6967c2fc29b2347c0e8108c8","name":"A den Dekker & Zn. B.V.","address":"Schans  4","city":"Werkendam","operatorName":"E-Flux by Road","maxPowerKw":22,"isMegawatt":false,"status":"AVAILABLE","source":"ndw","priceKwh":0.48}},{"type":"Feature","geometry":{"type":"Point","coordinates":[4.953191,51.818796]},"properties":{"type":"charge","layer":"passenger","locationId":"675ae8b10f2fdaf2b1c56518","name":"Joost de Jong","address":"Nanningh Keyserstraat 15","city":"SLEEUWIJK","operatorName":"E-Flux by Road","maxPowerKw":22,"isMegawatt":false,"status":"AVAILABLE","source":"ndw","priceKwh":0.35}},{"type":"Feature","geometry":{"type":"Point","coordinates":[4.9046,51.81804]},"properties":{"type":"charge","layer":"passenger","locationId":"402C2BBA-E795-4D60-86A1-2B066BC2EC0B","name":"Eneco eMobility Sleeuwijksedijk 26 WERKENDAM","address":"Sleeuwijksedijk 26","city":"Werkendam","operatorName":"Eneco","maxPowerKw":0,"isMegawatt":false,"status":"UNAVAILABLE","source":"ndw","priceKwh":0.32}},{"type":"Feature","geometry":{"type":"Point","coordinates":[5.056221,51.780422]},"properties":{"type":"charge","layer":"passenger","locationId":"NLLOC003013","name":"NLD, Jasmijn 2, 4281LV, Andel","address":"Jasmijn 2","city":"Andel","operatorName":"Allego","maxPowerKw":0,"isMegawatt":false,"status":"AVAILABLE","source":"ndw","priceKwh":0.511}},{"type":"Feature","geometry":{"type":"Point","coordinates":[5.131642,51.760749]},"properties":{"type":"charge","layer":"passenger","locationId":"NLLOC004147","name":"NLD, Grote Kerkstraat 32 4261BE Aalburg","address":"Grote Kerkstraat 32","city":"Aalburg","operatorName":"Allego","maxPowerKw":0,"isMegawatt":false,"status":"AVAILABLE","source":"ndw","priceKwh":0.511}},{"type":"Feature","geometry":{"type":"Point","coordinates":[5.125461,51.758275]},"properties":{"type":"charge","layer":"passenger","locationId":"696a61a2f04be0d32db91de0","name":"B W Lader","address":"Begoniastraat 9","city":"Wijk En Aalburg","operatorName":"E-Flux by Road","maxPowerKw":22,"isMegawatt":false,"status":"CHARGING","source":"ndw","priceKwh":0.61}},{"type":"Feature","geometry":{"type":"Point","coordinates":[5.003281,51.810464]},"properties":{"type":"charge","layer":"passenger","locationId":"NLLOC017700","name":"NL, Kastanjelaan 69, 4285 DB Woudrichem","address":"Kastanjelaan 69","city":"Woudrichem","operatorName":"Allego","maxPowerKw":0,"isMegawatt":false,"status":"AVAILABLE","source":"ndw","priceKwh":0.511}},{"type":"Feature","geometry":{"type":"Point","coordinates":[5.035224,51.792142]},"properties":{"type":"charge","layer":"passenger","locationId":"6256b76ec6db62351bb6f669","name":"Quasar Giessen","address":"Burgstraat  2","city":"Giessen","operatorName":"E-Flux by Road","maxPowerKw":11,"isMegawatt":false,"status":"UNAVAILABLE","source":"ndw"}},{"type":"Feature","geometry":{"type":"Point","coordinates":[4.93065,51.81819]},"properties":{"type":"charge","layer":"passenger","locationId":"BBBD1132-C577-475F-B879-FD203862D2CB","name":"Eneco eMobility Robijnseweg 15 SLEEUWIJK","address":"Robijnseweg 15","city":"Sleeuwijk","operatorName":"Eneco","maxPowerKw":0,"isMegawatt":false,"status":"AVAILABLE","source":"ndw","priceKwh":0.25}},{"type":"Feature","geometry":{"type":"Point","coordinates":[4.997623,51.813293]},"properties":{"type":"charge","layer":"passenger","locationId":"NLLOC003016","name":"NLD, Wethouder Kentiestraat 3, 4285 CK, Woudrichem","address":"Wethouder Kentiestraat 3","city":"Woudrichem","operatorName":"Allego","maxPowerKw":0,"isMegawatt":false,"status":"AVAILABLE","source":"ndw","priceKwh":0.511}},{"type":"Feature","geometry":{"type":"Point","coordinates":[4.899185,51.80583]},"properties":{"type":"charge","layer":"passenger","locationId":"NLLOC002884","name":"NLD, Floreffestraat 38, 4251 GP, Werkendam","address":"Floreffestraat 38","city":"Werkendam","operatorName":"Allego","maxPowerKw":0,"isMegawatt":false,"status":"AVAILABLE","source":"ndw","priceKwh":0.511}},{"type":"Feature","geometry":{"type":"Point","coordinates":[4.965852,51.77401]},"properties":{"type":"charge","layer":"passenger","locationId":"NLLOC001120","name":"NLD, Almkerk, Van Limburg Stirumstraat 33","address":"Van Limburg Stirumstraat 33","city":"Almkerk","operatorName":"Allego","maxPowerKw":0,"isMegawatt":false,"status":"AVAILABLE","source":"ndw","priceKwh":0.511}},{"type":"Feature","geometry":{"type":"Point","coordinates":[4.891708,51.814122]},"properties":{"type":"charge","layer":"passenger","locationId":"NLLOC006946","name":"NL, Gedempte Haven 17, 4251 CA, Werkendam","address":"Gedempte Haven 17","city":"Werkendam","operatorName":"Allego","maxPowerKw":0,"isMegawatt":false,"status":"AVAILABLE","source":"ndw","priceKwh":0.511}},{"type":"Feature","geometry":{"type":"Point","coordinates":[4.947027,51.808472]},"properties":{"type":"charge","layer":"passenger","locationId":"66e9468a58b43e001cc566aa","name":"V.O.F. Traiteur Erik","address":"Rijksstraatweg 115","city":"Sleeuwijk","operatorName":"Pluq","maxPowerKw":22,"isMegawatt":false,"status":"AVAILABLE","source":"ndw","priceKwh":0.34}},{"type":"Feature","geometry":{"type":"Point","coordinates":[4.94673,51.812494]},"properties":{"type":"charge","layer":"passenger","locationId":"NLLOC006960","name":"NL, Nieuwe Es 89, 4254 AW, Sleeuwijk","address":"Nieuwe Es 89","city":"Sleeuwijk","operatorName":"Allego","maxPowerKw":0,"isMegawatt":false,"status":"AVAILABLE","source":"ndw","priceKwh":0.511}},{"type":"Feature","geometry":{"type":"Point","coordinates":[4.960095,51.802094]},"properties":{"type":"charge","layer":"passenger","locationId":"64104da3e0ce4b0012090e02","name":"Landgoed Kraaiveld 2","address":"De  Roef  4","city":"Woudrichem","operatorName":"E-Flux by Road","maxPowerKw":11,"isMegawatt":false,"status":"AVAILABLE","source":"ndw","priceKwh":0.33}},{"type":"Feature","geometry":{"type":"Point","coordinates":[4.947362,51.818578]},"properties":{"type":"charge","layer":"passenger","locationId":"NLLOC005664","name":"NLD, Abeelhof 52 4254BZ Sleeuwijk","address":"Abeelhof 52","city":"Sleeuwijk","operatorName":"Allego","maxPowerKw":0,"isMegawatt":false,"status":"CHARGING","source":"ndw","priceKwh":0.511}},{"type":"Feature","geometry":{"type":"Point","coordinates":[5.050194,51.783846]},"properties":{"type":"charge","layer":"passenger","locationId":"69b9114b60f2adec47af45f0","name":"Gijsbert Prive","address":"sterappel 2","city":"Andel","operatorName":"E-Flux by Road","maxPowerKw":4,"isMegawatt":false,"status":"AVAILABLE","source":"ndw","priceKwh":0.83}},{"type":"Feature","geometry":{"type":"Point","coordinates":[5.028873,51.78069]},"properties":{"type":"charge","layer":"passenger","locationId":"685e9e3d4e219598b3e9a9cf","name":"Den Doorn Totaalinstallateurs","address":"Distributiestraat 23","city":"Giessen","operatorName":"PureCharged","maxPowerKw":22,"isMegawatt":false,"status":"AVAILABLE","source":"ndw","priceKwh":0.68}},{"type":"Feature","geometry":{"type":"Point","coordinates":[4.904907,51.810809]},"properties":{"type":"charge","layer":"passenger","locationId":"922597","name":"DAE-NL-2000022","address":"Richter 88","city":"werkendam","operatorName":"DAEN Mobility","maxPowerKw":11,"isMegawatt":false,"status":"AVAILABLE","source":"ndw","priceKwh":0.45}},{"type":"Feature","geometry":{"type":"Point","coordinates":[4.945343,51.815688]},"properties":{"type":"charge","layer":"passenger","locationId":"NLLOC001380","name":"NLD, Sleeuwijk, Espendreef 2","address":"Espendreef 2","city":"Sleeuwijk","operatorName":"Allego","maxPowerKw":0,"isMegawatt":false,"status":"AVAILABLE","source":"ndw","priceKwh":0.511}},{"type":"Feature","geometry":{"type":"Point","coordinates":[4.960492,51.802041]},"properties":{"type":"charge","layer":"passenger","locationId":"641043da730f240012d3a397","name":"Landgoed Kraaiveld 1","address":"De Roef  4","city":"Woudrichem","operatorName":"E-Flux by Road","maxPowerKw":11,"isMegawatt":false,"status":"AVAILABLE","source":"ndw","priceKwh":0.33}},{"type":"Feature","geometry":{"type":"Point","coordinates":[4.899235,51.811004]},"properties":{"type":"charge","layer":"passenger","locationId":"NLLOC009183","name":"NLD, de Erker 29 4251EZ Werkendam","address":"de Erker 29","city":"Werkendam","operatorName":"Allego","maxPowerKw":0,"isMegawatt":false,"status":"AVAILABLE","source":"ndw","priceKwh":0.511}},{"type":"Feature","geometry":{"type":"Point","coordinates":[4.999655,51.807219]},"properties":{"type":"charge","layer":"passenger","locationId":"NLLOC014303","name":"NL, Schans 31, 4285 EC Woudrichem","address":"Schans 31","city":"Woudrichem","operatorName":"Allego","maxPowerKw":0,"isMegawatt":false,"status":"AVAILABLE","source":"ndw","priceKwh":0.511}},{"type":"Feature","geometry":{"type":"Point","coordinates":[4.952781,51.808206]},"properties":{"type":"charge","layer":"passenger","locationId":"NLLOC010611","name":"NL, Waaiersluis 21 4254 VD Sleeuwijk","address":"Waaiersluis 21","city":"Sleeuwijk","operatorName":"Allego","maxPowerKw":0,"isMegawatt":false,"status":"AVAILABLE","source":"ndw","priceKwh":0.511}},{"type":"Feature","geometry":{"type":"Point","coordinates":[4.957812,51.734051]},"properties":{"type":"charge","layer":"passenger","locationId":"NLLOC006411","name":"NL, Schenkelkamp 1, 4271 XS, Dussen","address":"Schenkelkamp 1","city":"Dussen","operatorName":"Allego","maxPowerKw":0,"isMegawatt":false,"status":"AVAILABLE","source":"ndw","priceKwh":0.511}},{"type":"Feature","geometry":{"type":"Point","coordinates":[5.049229,51.782536]},"properties":{"type":"charge","layer":"passenger","locationId":"NLLOC008453","name":"Bellefleur 39 4281JB Andel","address":"Bellefleur 39","city":"Andel","operatorName":"Allego","maxPowerKw":0,"isMegawatt":false,"status":"AVAILABLE","source":"ndw","priceKwh":0.511}},{"type":"Feature","geometry":{"type":"Point","coordinates":[4.953352,51.769614]},"properties":{"type":"charge","layer":"passenger","locationId":"NLLOC023938","name":"NL, Provincialeweg Noord 12, 4286EA, Almkerk","address":"Provincialeweg Noord 12","city":"Almkerk","operatorName":"Allego","maxPowerKw":0,"isMegawatt":false,"status":"AVAILABLE","source":"ndw","priceKwh":0.511}},{"type":"Feature","geometry":{"type":"Point","coordinates":[4.95929,51.76981]},"properties":{"type":"charge","layer":"passenger","locationId":"25B9C0B2-F0C0-4E27-A429-DB69B835B437","name":"Eneco eMobility Stichting Mijzo - Altenahove - Almkerk","address":"Rivierenland 1","city":"Almkerk","operatorName":"Eneco","maxPowerKw":22,"isMegawatt":false,"status":"AVAILABLE","source":"ndw","priceKwh":0.55}},{"type":"Feature","geometry":{"type":"Point","coordinates":[4.901292,51.741264]},"properties":{"type":"charge","layer":"passenger","locationId":"NLLOC004059","name":"NLD, Raai 53 4273BC Hank","address":"Raai 53","city":"Hank","operatorName":"Allego","maxPowerKw":0,"isMegawatt":false,"status":"AVAILABLE","source":"ndw","priceKwh":0.511}},{"type":"Feature","geometry":{"type":"Point","coordinates":[5.004114,51.815899]},"properties":{"type":"charge","layer":"passenger","locationId":"NLLOC006890","name":"NL, Arsenaal 13, 4285 BD, Woudrichem","address":"Arsenaal 13","city":"Woudrichem","operatorName":"Allego","maxPowerKw":0,"isMegawatt":false,"status":"AVAILABLE","source":"ndw","priceKwh":0.511}},{"type":"Feature","geometry":{"type":"Point","coordinates":[5.02255,51.794504]},"properties":{"type":"charge","layer":"passenger","locationId":"NLLOC002521","name":"NLD, Koperwiek 42 4284 XA Rijswijk","address":"Koperwiek 42","city":"Rijswijk","operatorName":"Allego","maxPowerKw":0,"isMegawatt":false,"status":"AVAILABLE","source":"ndw","priceKwh":0.511}},{"type":"Feature","geometry":{"type":"Point","coordinates":[4.959105,51.817972]},"properties":{"type":"charge","layer":"passenger","locationId":"NLLOC013388","name":"NL, Munnikenland, 85, 4254EZ, Sleeuwijk","address":"Munnikenland 85","city":"Sleeuwijk","operatorName":"Allego","maxPowerKw":0,"isMegawatt":false,"status":"AVAILABLE","source":"ndw","priceKwh":0.511}},{"type":"Feature","geometry":{"type":"Point","coordinates":[4.893487,51.734279]},"properties":{"type":"charge","layer":"passenger","locationId":"63723a208ab24b7644128cb3","name":"Meyke Ritsema 's station","address":"Kerkstraat 7","city":"Hank","operatorName":"E-Flux by Road","maxPowerKw":22,"isMegawatt":false,"status":"AVAILABLE","source":"ndw","priceKwh":0.47}},{"type":"Feature","geometry":{"type":"MultiPolygon","coordinates":[[[[4.9877559846751005,51.82105951126231],[4.999281662628338,51.8208679311388],[5.000362936658818,51.8209335382102],[5.009343101054306,51.81751219716097],[5.010101670037226,51.81660853756368],[5.010306503904103,51.813010603159164],[5.0124256959318645,51.81064823958821],[5.015969349068863,51.808222011176575],[5.0242458631179385,51.804770813917486],[5.02617768524267,51.803965109257156],[5.038596496922986,51.800965866984235],[5.044478682453163,51.79932623269525],[5.048145327649604,51.79811401423226],[5.052578452992514,51.79529074000882],[5.057118372494394,51.79069542427122],[5.061042667019318,51.78528274910145],[5.066965347298304,51.78055316766395],[5.069854074461346,51.77954876181247],[5.074247870869287,51.779070038691316],[5.078538393042284,51.77956371752652],[5.081952659512277,51.780712627853426],[5.087201045357505,51.78509549429454],[5.091437101778244,51.78693306914675],[5.095889622763399,51.78764761325546],[5.100276887706103,51.78715055193266],[5.104857414949791,51.78572509894638],[5.1089695497310395,51.783578109447156],[5.116087380206467,51.77892358867265],[5.118644725032701,51.7778126039201],[5.137580344559368,51.77290517644372],[5.139648653940549,51.77021928764804],[5.138687164859305,51.76745272414168],[5.136349774663297,51.76391630732182],[5.135890303594435,51.760319572592245],[5.137652150113068,51.75762806295616],[5.142713523153104,51.75521002545106],[5.138112330839049,51.75072605839592],[5.126335660624846,51.74502120171031],[5.125591189066013,51.74322631131219],[5.125984268398887,51.739628877651874],[5.126607793733927,51.73792864480817],[5.1280544967679855,51.73760681815787],[5.126530995104428,51.7373143147056],[5.118138371554818,51.73570894881565],[5.101582829556983,51.73121506563204],[5.092124218444913,51.727583330368084],[5.081760054065952,51.72234394463348],[5.075058090168303,51.718876674209085],[5.069098712445207,51.71628112948015],[5.062456423518612,51.71384242423586],[5.053629579712202,51.71181736127894],[5.041760432728704,51.71088230751466],[5.027653979056691,51.71106094134705],[5.009451991588181,51.7128190550139],[4.988636370417279,51.71687116394134],[4.96998611441406,51.72109959263146],[4.95848350514494,51.72262895265652],[4.945562624416679,51.723041643193994],[4.9359518175057335,51.72242687751414],[4.9214246333800356,51.72044296352164],[4.917990296203698,51.71995951335617],[4.901549501100106,51.718672560116374],[4.890030497339957,51.719768708132726],[4.890016286304574,51.71976999526884],[4.873054035108818,51.71999851101657],[4.841591608548225,51.7134497221261],[4.8369039261300415,51.712612106532404],[4.8406631116662275,51.71632386394138],[4.846936806129596,51.72552438075935],[4.846929672449609,51.73355278643454],[4.849830177156033,51.74034561888906],[4.8494105015158935,51.74482754666134],[4.852480178801379,51.74867998980243],[4.853125209488292,51.75074860238597],[4.851327523422798,51.75617854330432],[4.846750133981175,51.757056747332754],[4.841880428069058,51.75668696379708],[4.833648399372869,51.75400606222429],[4.828088583278002,51.75378441360564],[4.822275197740704,51.75385694246268],[4.812862479642956,51.756634514415005],[4.802500824366703,51.757586686116746],[4.7854032814058485,51.7559331288299],[4.782448506701076,51.76656863118672],[4.780653530500737,51.7664192194889],[4.778796256791259,51.764169073462384],[4.772108684132715,51.75932997065931],[4.763941817574726,51.75906800318091],[4.750726379881787,51.75228954756163],[4.747901149501379,51.74877182627382],[4.747363175407878,51.74662280538035],[4.737450241972843,51.741300716381666],[4.733650398086918,51.73650767520677],[4.721842103595376,51.73427222618285],[4.698552817831302,51.72199232400628],[4.67728596884516,51.720110499014],[4.676303957828994,51.72492389952645],[4.681597301339696,51.72841899216344],[4.6932625610435545,51.73228190974651],[4.703745299261104,51.73692777224961],[4.724591109331145,51.74790583950672],[4.736630275269825,51.75556870993264],[4.740769464554532,51.758818539859526],[4.744787656553931,51.76348776612177],[4.7505683273166905,51.77576183786272],[4.755239114352714,51.781611730642965],[4.7652239051718634,51.78920867214661],[4.765982562459584,51.78963197671713],[4.773538425769434,51.79332463266445],[4.7971934813922585,51.79977023113224],[4.806874993305254,51.80033654466072],[4.8288714485602275,51.798020867986054],[4.836107645100598,51.79783935013363],[4.845983516664003,51.798757203276175],[4.854412633004745,51.80068336520409],[4.859666436975259,51.80268457229517],[4.884641732952574,51.81647155176786],[4.885226097412335,51.81676984488307],[4.889400179947526,51.818895156308805],[4.909125616122066,51.825377551891506],[4.918598266434088,51.827482291553764],[4.926985826481712,51.82830606193055],[4.936063346754613,51.828314603407435],[4.942436784284997,51.82724328707538],[4.960514960906387,51.82504222741106],[4.969632254550107,51.82365450280675],[4.976098834290462,51.82263318276571],[4.9877559846751005,51.82105951126231]]]]},"properties":{"type":"boundary","gemeente":"Altena","code":"GM1959"}}]}