{"type":"FeatureCollection","metadata":{"gemeente":"Amstelveen","slug":"amstelveen","code":"GM0362","generated_at":"2026-06-02T13:19:22.438Z","total_passenger":562,"total_freight":0,"bounds":[4.794697687931669,52.242013981938335,4.90913472257084,52.33056705415223],"operators":["Allego","E-Flux by Road","Eneco","Laadnet","NXT50Five","Opcharge","Pluq","Q-Park Netherlands","Tango electric","TotalEnergies","Ubitricity","Vattenfall InCharge"]},"features":[{"type":"Feature","geometry":{"type":"Point","coordinates":[4.864506,52.287909]},"properties":{"type":"charge","layer":"passenger","locationId":"NLLOC011293","name":"NL, Rupel 18 1186 LC Amstelveen","address":"Rupel 18","city":"Amstelveen","operatorName":"Allego","maxPowerKw":0,"isMegawatt":false,"status":"AVAILABLE","source":"ndw"}},{"type":"Feature","geometry":{"type":"Point","coordinates":[4.84274,52.30681]},"properties":{"type":"charge","layer":"passenger","locationId":"8DDEFF3A-FE55-46A8-8565-E804F9007AC0","name":"Eneco eMobility KLM - Hoofdkantoor - gebouw 702 & 712","address":"Amsterdamseweg 55","city":"Amstelveen","operatorName":"Eneco","maxPowerKw":11,"isMegawatt":false,"status":"AVAILABLE","source":"ndw"}},{"type":"Feature","geometry":{"type":"Point","coordinates":[4.865966,52.29026]},"properties":{"type":"charge","layer":"passenger","locationId":"NLLOC019771","name":"NL, Matterhorn 48, 1186 EC Amstelveen","address":"Matterhorn 48","city":"Amstelveen","operatorName":"Allego","maxPowerKw":0,"isMegawatt":false,"status":"AVAILABLE","source":"ndw"}},{"type":"Feature","geometry":{"type":"Point","coordinates":[4.866134,52.301632]},"properties":{"type":"charge","layer":"passenger","locationId":"3dadf1d2-0126-11f0-9393-42010aa400b8","name":"Q-Park Amstelveen Handelsplein","address":"Handelsweg 51","city":"Amstelveen","operatorName":"Q-Park Netherlands","maxPowerKw":11,"isMegawatt":false,"status":"AVAILABLE","source":"ndw"}},{"type":"Feature","geometry":{"type":"Point","coordinates":[4.85383,52.298041]},"properties":{"type":"charge","layer":"passenger","locationId":"4AD7DC38-B6E3-4383-AA88-3407BA144334","name":"TNLP015080","address":"Van Weerden Poelmanlaan 1","city":"Amstelveen","operatorName":"TotalEnergies","maxPowerKw":17,"isMegawatt":false,"status":"AVAILABLE","source":"ndw"}},{"type":"Feature","geometry":{"type":"Point","coordinates":[4.85583,52.302228]},"properties":{"type":"charge","layer":"passenger","locationId":"NLLOC002162","name":"NLD, Amstelveen, F.A. van Hallweg 43","address":"F.A. van Hallweg 43","city":"Amstelveen","operatorName":"Allego","maxPowerKw":0,"isMegawatt":false,"status":"AVAILABLE","source":"ndw"}},{"type":"Feature","geometry":{"type":"Point","coordinates":[4.857911,52.283538]},"properties":{"type":"charge","layer":"passenger","locationId":"2f94435c-a146-11ef-9cbb-42010aa400b8","name":"TNLP015203","address":"Voerman 14","city":"Amstelveen","operatorName":"TotalEnergies","maxPowerKw":17,"isMegawatt":false,"status":"AVAILABLE","source":"ndw"}},{"type":"Feature","geometry":{"type":"Point","coordinates":[4.861493,52.316755]},"properties":{"type":"charge","layer":"passenger","locationId":"6aa5f6b9-f4f7-4519-8d42-371c8c9b4d37","name":"Goereesepad","address":"Goereesepad 113","city":"Amstelveen","operatorName":"Vattenfall InCharge","maxPowerKw":11,"isMegawatt":false,"status":"AVAILABLE","source":"ndw"}},{"type":"Feature","geometry":{"type":"Point","coordinates":[4.8562,52.30696]},"properties":{"type":"charge","layer":"passenger","locationId":"d04d0e2a-d545-11ec-9b87-42010a840003","name":"Shell Recharge NL Keizer Karelweg 333 Amstelveen","address":"Keizer Karelweg 333","city":"Amstelveen","operatorName":"Ubitricity","maxPowerKw":11,"isMegawatt":false,"status":"AVAILABLE","source":"ndw"}},{"type":"Feature","geometry":{"type":"Point","coordinates":[4.85902,52.321111]},"properties":{"type":"charge","layer":"passenger","locationId":"a93c6090-74bd-4e17-8e55-4898951558ac","name":"TNLP015417","address":"Plantsoen Laanhorn 12","city":"Amstelveen","operatorName":"TotalEnergies","maxPowerKw":17,"isMegawatt":false,"status":"AVAILABLE","source":"ndw"}},{"type":"Feature","geometry":{"type":"Point","coordinates":[4.827489,52.28235]},"properties":{"type":"charge","layer":"passenger","locationId":"6fed7a10-2d08-4288-8e97-c0a6071ba6e1","name":"Marthahoeve","address":"Marthahoeve 3a","city":"Amstelveen","operatorName":"Vattenfall InCharge","maxPowerKw":11,"isMegawatt":false,"status":"CHARGING","source":"ndw"}},{"type":"Feature","geometry":{"type":"Point","coordinates":[4.863429,52.282301]},"properties":{"type":"charge","layer":"passenger","locationId":"653b23da-be57-11ef-9bbc-42010aa400b8","name":"TNLP015148","address":"Logger 9","city":"Amstelveen","operatorName":"TotalEnergies","maxPowerKw":17,"isMegawatt":false,"status":"AVAILABLE","source":"ndw"}},{"type":"Feature","geometry":{"type":"Point","coordinates":[4.828327,52.290481]},"properties":{"type":"charge","layer":"passenger","locationId":"6a370f41-3b24-43da-8d2d-bdb856d45afb","name":"Kuifeend 5","address":"Kuifeend 5","city":"Amstelveen","operatorName":"Vattenfall InCharge","maxPowerKw":11,"isMegawatt":false,"status":"AVAILABLE","source":"ndw"}},{"type":"Feature","geometry":{"type":"Point","coordinates":[4.864081,52.279044]},"properties":{"type":"charge","layer":"passenger","locationId":"5c4272ea-592e-45f7-9fb6-57146347da7e","name":"Kotter 14","address":"Kotter 14","city":"Amstelveen","operatorName":"Vattenfall InCharge","maxPowerKw":11,"isMegawatt":false,"status":"AVAILABLE","source":"ndw"}},{"type":"Feature","geometry":{"type":"Point","coordinates":[4.83013,52.27284]},"properties":{"type":"charge","layer":"passenger","locationId":"3494b78e-3ad8-11eb-84f8-42010a840003","name":"Shell Recharge NL Marjoleinlaan 53 Amstelveen","address":"Marjoleinlaan 53","city":"Amstelveen","operatorName":"Ubitricity","maxPowerKw":11,"isMegawatt":false,"status":"AVAILABLE","source":"ndw"}},{"type":"Feature","geometry":{"type":"Point","coordinates":[4.859593,52.303135]},"properties":{"type":"charge","layer":"passenger","locationId":"33FA2E5B-C04E-42CE-BD66-F5D45221ABF2","name":"Eneco eMobility Westfield Mall of the Netherlands - Stadshart Amstelveen - Schouwburggarage","address":"Rembrandweg 41 2","city":"Amstelveen","operatorName":"Eneco","maxPowerKw":22,"isMegawatt":false,"status":"AVAILABLE","source":"ndw"}},{"type":"Feature","geometry":{"type":"Point","coordinates":[4.867642,52.281872]},"properties":{"type":"charge","layer":"passenger","locationId":"9aabb350-6fc3-11ef-bc14-42010aa400b8","name":"TNLP015478","address":"Turfschip 48","city":"Amstelveen","operatorName":"TotalEnergies","maxPowerKw":17,"isMegawatt":false,"status":"AVAILABLE","source":"ndw"}},{"type":"Feature","geometry":{"type":"Point","coordinates":[4.850515,52.295968]},"properties":{"type":"charge","layer":"passenger","locationId":"24deb338-02a4-11eb-82b5-42010a840033","name":"NL, Essenlaan 37, 1185KD, Amstelveen","address":"Essenlaan 37","city":"Amstelveen","operatorName":"Allego","maxPowerKw":0,"isMegawatt":false,"status":"AVAILABLE","source":"ndw"}},{"type":"Feature","geometry":{"type":"Point","coordinates":[4.861656,52.277731]},"properties":{"type":"charge","layer":"passenger","locationId":"5c08a660-e8b5-11ea-812f-42010a840003","name":"NL, Voorplecht 20 1186 WR Amstelveen","address":"Voorplecht 20","city":"Amstelveen","operatorName":"Allego","maxPowerKw":0,"isMegawatt":false,"status":"AVAILABLE","source":"ndw"}},{"type":"Feature","geometry":{"type":"Point","coordinates":[4.867608,52.312178]},"properties":{"type":"charge","layer":"passenger","locationId":"5fb43a5a-4f3c-11e8-9134-42010a840002","name":"NLD, Amstelveen, Brantwijk 88","address":"Brantwijk 88","city":"Amstelveen","operatorName":"Allego","maxPowerKw":0,"isMegawatt":false,"status":"AVAILABLE","source":"ndw"}},{"type":"Feature","geometry":{"type":"Point","coordinates":[4.878614,52.310386]},"properties":{"type":"charge","layer":"passenger","locationId":"5ffcc248-4f3c-11e8-a211-42010a840002","name":"NLD, Amstelveen, Straat van Sicilië 27","address":"Straat van Sicilië 27","city":"Amstelveen","operatorName":"Allego","maxPowerKw":0,"isMegawatt":false,"status":"AVAILABLE","source":"ndw"}},{"type":"Feature","geometry":{"type":"Point","coordinates":[4.859253,52.318835]},"properties":{"type":"charge","layer":"passenger","locationId":"6064a9da-4f3c-11e8-8171-42010a840002","name":"NLD, Amstelveen, Willem van Beijerenlaan 48","address":"Willem van Beijerenlaan 48","city":"Amstelveen","operatorName":"Allego","maxPowerKw":0,"isMegawatt":false,"status":"CHARGING","source":"ndw"}},{"type":"Feature","geometry":{"type":"Point","coordinates":[4.831322,52.278168]},"properties":{"type":"charge","layer":"passenger","locationId":"632b7a84-b1f1-11eb-967b-42010a840003","name":"NL, Guido van Dethlaan 18, 1187TT Amstelveen","address":"Guido van Dethlaan 18","city":"Amstelveen","operatorName":"Allego","maxPowerKw":0,"isMegawatt":false,"status":"AVAILABLE","source":"ndw"}},{"type":"Feature","geometry":{"type":"Point","coordinates":[4.867564,52.318687]},"properties":{"type":"charge","layer":"passenger","locationId":"661f2ff6-dbec-11ee-97cb-42010aa400b8","name":"NLD, Amstelveen, Flakkeestraat 79","address":"Flakkeestraat 79","city":"Amstelveen","operatorName":"Allego","maxPowerKw":0,"isMegawatt":false,"status":"CHARGING","source":"ndw"}},{"type":"Feature","geometry":{"type":"Point","coordinates":[4.840146,52.28907]},"properties":{"type":"charge","layer":"passenger","locationId":"81f1f8c2-123c-11ea-983e-42010a840003","name":"NLD, Amstelveen, Maalderij 32","address":"Maalderij 32","city":"Amstelveen","operatorName":"Allego","maxPowerKw":0,"isMegawatt":false,"status":"CHARGING","source":"ndw"}},{"type":"Feature","geometry":{"type":"Point","coordinates":[4.862092,52.307892]},"properties":{"type":"charge","layer":"passenger","locationId":"adaac400-b1b3-11ea-80ae-42010a840003","name":"NL, Jan Lievensweg 22, 1181 TJ, Amstelveen","address":"Jan Lievensweg 22","city":"Amstelveen","operatorName":"Allego","maxPowerKw":0,"isMegawatt":false,"status":"AVAILABLE","source":"ndw"}},{"type":"Feature","geometry":{"type":"Point","coordinates":[4.875734,52.315634]},"properties":{"type":"charge","layer":"passenger","locationId":"d97d0046-edee-11e8-87ee-42010a840002","name":"NLD, Lizzy Ansinghhof 15, Amstelveen","address":"Lizzy Ansinghhof 15","city":"Amstelveen","operatorName":"Allego","maxPowerKw":0,"isMegawatt":false,"status":"UNAVAILABLE","source":"ndw"}},{"type":"Feature","geometry":{"type":"Point","coordinates":[4.878121,52.31399]},"properties":{"type":"charge","layer":"passenger","locationId":"09303e96-951d-11e8-96f1-42010a840002","name":"NLD, Amstelveen, Belle van Zuylenlaan 31","address":"Belle van Zuylenlaan 31","city":"Amstelveen","operatorName":"Allego","maxPowerKw":0,"isMegawatt":false,"status":"AVAILABLE","source":"ndw"}},{"type":"Feature","geometry":{"type":"Point","coordinates":[4.866134,52.301632]},"properties":{"type":"charge","layer":"passenger","locationId":"159C4BB7-A12E-4AC0-9E0B-76B2A58F6981","name":"Q-Park Amstelveen Handelsplein","address":"Handelsweg 51","city":"Amstelveen","operatorName":"Q-Park Netherlands","maxPowerKw":11,"isMegawatt":false,"status":"AVAILABLE","source":"ndw"}},{"type":"Feature","geometry":{"type":"Point","coordinates":[4.864277,52.309984]},"properties":{"type":"charge","layer":"passenger","locationId":"CF2A3FEB-4A5C-4A2D-8564-A7E2BFDFB818","name":"Eneco eMobility Westfield Mall of the Netherlands - Stadshart Amstelveen - Stadspleingarage -2","address":"Rembrandweg 42 -2","city":"Amstelveen","operatorName":"Eneco","maxPowerKw":22,"isMegawatt":false,"status":"AVAILABLE","source":"ndw"}},{"type":"Feature","geometry":{"type":"Point","coordinates":[4.853261,52.308041]},"properties":{"type":"charge","layer":"passenger","locationId":"5e2c9dc4-5985-4d02-b0a4-f41d65e080f4","name":"Graaf Aelbrechtlaan","address":"Graaf Aelbrechtlaan 39","city":"Amstelveen","operatorName":"Vattenfall InCharge","maxPowerKw":11,"isMegawatt":false,"status":"AVAILABLE","source":"ndw"}},{"type":"Feature","geometry":{"type":"Point","coordinates":[4.875399,52.31345]},"properties":{"type":"charge","layer":"passenger","locationId":"8c0fadb95866b2bea316f51f0b58c705","name":"Kostverlorenhof 59","address":"Kostverlorenhof 59","city":"Amstelveen","operatorName":"Vattenfall InCharge","maxPowerKw":11,"isMegawatt":false,"status":"AVAILABLE","source":"ndw"}},{"type":"Feature","geometry":{"type":"Point","coordinates":[4.863172,52.293085]},"properties":{"type":"charge","layer":"passenger","locationId":"604fc286-4f3c-11e8-a648-42010a840002","name":"NLD, Amstelveen, Maarten Lutherweg 142","address":"Maarten Lutherweg 142","city":"Amstelveen","operatorName":"Allego","maxPowerKw":0,"isMegawatt":false,"status":"AVAILABLE","source":"ndw"}},{"type":"Feature","geometry":{"type":"Point","coordinates":[4.847939,52.299556]},"properties":{"type":"charge","layer":"passenger","locationId":"cd535564-d54e-11eb-9275-42010a840003","name":"NL, Kastanjelaan 2, 1185 KA Amstelveen","address":"Kastanjelaan 2","city":"Amstelveen","operatorName":"Allego","maxPowerKw":0,"isMegawatt":false,"status":"AVAILABLE","source":"ndw"}},{"type":"Feature","geometry":{"type":"Point","coordinates":[4.87391,52.290293]},"properties":{"type":"charge","layer":"passenger","locationId":"9392c4f4-d22e-11f0-adf6-42010aa400b8","name":"TNLP034057","address":"Olympus 16","city":"Amstelveen","operatorName":"TotalEnergies","maxPowerKw":14,"isMegawatt":false,"status":"AVAILABLE","source":"ndw"}},{"type":"Feature","geometry":{"type":"Point","coordinates":[4.867642,52.281872]},"properties":{"type":"charge","layer":"passenger","locationId":"efe7e9ea-ba9c-11f0-9f10-42010aa400b8","name":"TNLP015478","address":"Turfschip 48","city":"Amstelveen","operatorName":"TotalEnergies","maxPowerKw":17,"isMegawatt":false,"status":"AVAILABLE","source":"ndw"}},{"type":"Feature","geometry":{"type":"Point","coordinates":[4.873633,52.30459]},"properties":{"type":"charge","layer":"passenger","locationId":"df156daf-f797-42cb-8869-8471ea55ddb3","name":"TNLP015361","address":"Max Havelaarlaan 87","city":"Amstelveen","operatorName":"TotalEnergies","maxPowerKw":17,"isMegawatt":false,"status":"AVAILABLE","source":"ndw"}},{"type":"Feature","geometry":{"type":"Point","coordinates":[4.825007,52.277845]},"properties":{"type":"charge","layer":"passenger","locationId":"076637ac-14b7-11eb-8556-42010a840033","name":"NL, Loethoelilaan 12, 1187TC Amstelveen","address":"Loethoelilaan 12","city":"Amstelveen","operatorName":"Allego","maxPowerKw":0,"isMegawatt":false,"status":"AVAILABLE","source":"ndw"}},{"type":"Feature","geometry":{"type":"Point","coordinates":[4.865406,52.27571]},"properties":{"type":"charge","layer":"passenger","locationId":"230d1078-c234-11ea-9075-42010a840003","name":"NL, Schutsluis 25, 1186ZD, Amstelveen","address":"Schutsluis 25","city":"Amstelveen","operatorName":"Allego","maxPowerKw":0,"isMegawatt":false,"status":"AVAILABLE","source":"ndw"}},{"type":"Feature","geometry":{"type":"Point","coordinates":[4.878007,52.303741]},"properties":{"type":"charge","layer":"passenger","locationId":"48432534-e7ec-11ea-88a6-42010a840033","name":"NL, Camera Obscuralaan, 9, 1183JT, Amstelveen","address":"Camera Obscuralaan 9","city":"Amstelveen","operatorName":"Allego","maxPowerKw":0,"isMegawatt":false,"status":"AVAILABLE","source":"ndw"}},{"type":"Feature","geometry":{"type":"Point","coordinates":[4.844512,52.309925]},"properties":{"type":"charge","layer":"passenger","locationId":"5e27b9b4-51b6-11e9-80d1-42010a840003","name":"NLD, Amstelveen, Talmastraat 34","address":"Talmastraat 34","city":"Amstelveen","operatorName":"Allego","maxPowerKw":0,"isMegawatt":false,"status":"AVAILABLE","source":"ndw"}},{"type":"Feature","geometry":{"type":"Point","coordinates":[4.818682,52.275761]},"properties":{"type":"charge","layer":"passenger","locationId":"602ade58-4f3c-11e8-af46-42010a840002","name":"NLD, Amstelveen, Jane Addamslaan 79","address":"Jane Addamslaan 79","city":"Amstelveen","operatorName":"Allego","maxPowerKw":0,"isMegawatt":false,"status":"AVAILABLE","source":"ndw"}},{"type":"Feature","geometry":{"type":"Point","coordinates":[4.863098,52.312555]},"properties":{"type":"charge","layer":"passenger","locationId":"87b950da-4f3c-11e8-bf71-42010a840002","name":"NLD, Amstelveen, Rembrandtweg 405","address":"Rembrandtweg 405","city":"Amstelveen","operatorName":"Allego","maxPowerKw":0,"isMegawatt":false,"status":"AVAILABLE","source":"ndw"}},{"type":"Feature","geometry":{"type":"Point","coordinates":[4.832245,52.285578]},"properties":{"type":"charge","layer":"passenger","locationId":"8ba6e790-3b46-11eb-951f-42010a840003","name":"NL, Boy Edgarlaan 10, 1187 HG, Amstelveen","address":"Boy Edgarlaan 10","city":"Amstelveen","operatorName":"Allego","maxPowerKw":0,"isMegawatt":false,"status":"AVAILABLE","source":"ndw"}},{"type":"Feature","geometry":{"type":"Point","coordinates":[4.861858,52.321348]},"properties":{"type":"charge","layer":"passenger","locationId":"d58f427a-67ae-11e9-a031-42010a840003","name":"NLD, Amstelveen, Bos en Vaartlaan 1","address":"Bos en Vaartlaan 1","city":"Amstelveen","operatorName":"Allego","maxPowerKw":0,"isMegawatt":false,"status":"AVAILABLE","source":"ndw"}},{"type":"Feature","geometry":{"type":"Point","coordinates":[4.866973,52.285995]},"properties":{"type":"charge","layer":"passenger","locationId":"cc0ff8f315bb0dfbf8c2faceb50b7a1e","name":"Watercirkel 682","address":"Watercirkel 682","city":"Amstelveen","operatorName":"Vattenfall InCharge","maxPowerKw":11,"isMegawatt":false,"status":"AVAILABLE","source":"ndw"}},{"type":"Feature","geometry":{"type":"Point","coordinates":[4.860683,52.280656]},"properties":{"type":"charge","layer":"passenger","locationId":"57813458-b2b9-11f0-b19a-42010aa400b8","name":"TNLP009073","address":"Jol 222","city":"Amstelveen","operatorName":"TotalEnergies","maxPowerKw":17,"isMegawatt":false,"status":"CHARGING","source":"ndw"}},{"type":"Feature","geometry":{"type":"Point","coordinates":[4.84716,52.29212]},"properties":{"type":"charge","layer":"passenger","locationId":"f8fcd0fa-7bb7-11f0-9d6f-42010aa400b8","name":"TNLP009946","address":"Pruimenlaan 134","city":"Amstelveen","operatorName":"TotalEnergies","maxPowerKw":17,"isMegawatt":false,"status":"CHARGING","source":"ndw"}},{"type":"Feature","geometry":{"type":"Point","coordinates":[4.83486,52.28]},"properties":{"type":"charge","layer":"passenger","locationId":"7afd452e-9425-11ea-a6eb-42010a840fe8","name":"Eneco eMobility Best Western Amstelveen","address":"Grutterij 5","city":"Amstelveen","operatorName":"Eneco","maxPowerKw":22,"isMegawatt":false,"status":"AVAILABLE","source":"ndw"}},{"type":"Feature","geometry":{"type":"Point","coordinates":[4.860253,52.27569]},"properties":{"type":"charge","layer":"passenger","locationId":"a6fbc0aa-ec88-11ee-bb64-42010aa400b8","name":"TNLP008935","address":"Galjoen 2","city":"Amstelveen","operatorName":"TotalEnergies","maxPowerKw":14,"isMegawatt":false,"status":"UNAVAILABLE","source":"ndw"}},{"type":"Feature","geometry":{"type":"Point","coordinates":[4.86996,52.314283]},"properties":{"type":"charge","layer":"passenger","locationId":"ebefd7f3-a7bf-4819-ad94-4052930ea840","name":"Biesbosch","address":"Biesbosch 123","city":"Amstelveen","operatorName":"Vattenfall InCharge","maxPowerKw":11,"isMegawatt":false,"status":"AVAILABLE","source":"ndw"}},{"type":"Feature","geometry":{"type":"Point","coordinates":[4.841599,52.288695]},"properties":{"type":"charge","layer":"passenger","locationId":"6315c1e6c7d95cd07eca26e5","name":"Splinter Beheer station 3","address":"Binderij 1 a","city":"Amstelveen","operatorName":"E-Flux by Road","maxPowerKw":11,"isMegawatt":false,"status":"CHARGING","source":"ndw"}},{"type":"Feature","geometry":{"type":"Point","coordinates":[4.81858,52.27989]},"properties":{"type":"charge","layer":"passenger","locationId":"a205bf28-4f3c-11e8-996d-42010a840002","name":"Shell Recharge NL Heemstede 242 Amstelveen","address":"Heemstede 242","city":"Amstelveen","operatorName":"Ubitricity","maxPowerKw":11,"isMegawatt":false,"status":"CHARGING","source":"ndw"}},{"type":"Feature","geometry":{"type":"Point","coordinates":[4.82311,52.28474]},"properties":{"type":"charge","layer":"passenger","locationId":"a62afa0a-4f3c-11e8-94d2-42010a840002","name":"Shell Recharge NL Luttickduin 56 Amstelveen","address":"Luttickduin 56","city":"Amstelveen","operatorName":"Ubitricity","maxPowerKw":11,"isMegawatt":false,"status":"AVAILABLE","source":"ndw"}},{"type":"Feature","geometry":{"type":"Point","coordinates":[4.858484,52.304354]},"properties":{"type":"charge","layer":"passenger","locationId":"c1a762a4-0c28-11f0-8e55-42010aa400b8","name":"Shell Recharge NL Mr. P.J.M. Aalberselaan 13, Amstelveen","address":"Mr. P.J.M. Aalberselaan 13","city":"Amstelveen","operatorName":"Ubitricity","maxPowerKw":22,"isMegawatt":false,"status":"AVAILABLE","source":"ndw"}},{"type":"Feature","geometry":{"type":"Point","coordinates":[4.833522,52.270476]},"properties":{"type":"charge","layer":"passenger","locationId":"f373a704-efde-11ef-b485-42010aa400b8","name":"Shell Recharge NL Korianderlaan 106, Amstelveen","address":"Korianderlaan 106","city":"Amstelveen","operatorName":"Ubitricity","maxPowerKw":22,"isMegawatt":false,"status":"AVAILABLE","source":"ndw"}},{"type":"Feature","geometry":{"type":"Point","coordinates":[4.845375,52.279551]},"properties":{"type":"charge","layer":"passenger","locationId":"98f61035-954d-4cce-899c-30aba441ab8a","name":"TNLP034281","address":"Doctor Willem Dreesweg 100","city":"Amstelveen","operatorName":"TotalEnergies","maxPowerKw":14,"isMegawatt":false,"status":"AVAILABLE","source":"ndw"}},{"type":"Feature","geometry":{"type":"Point","coordinates":[4.869923,52.29033]},"properties":{"type":"charge","layer":"passenger","locationId":"0579f442-0e50-11ef-bca0-42010aa400b8","name":"TNLP008822","address":"Etna 5","city":"Amstelveen","operatorName":"TotalEnergies","maxPowerKw":14,"isMegawatt":false,"status":"CHARGING","source":"ndw"}},{"type":"Feature","geometry":{"type":"Point","coordinates":[4.847101,52.299967]},"properties":{"type":"charge","layer":"passenger","locationId":"7723e2c0-82ca-11f0-8bbe-42010aa400b8","name":"TNLP008938","address":"Kastanjelaan 13","city":"Amstelveen","operatorName":"TotalEnergies","maxPowerKw":14,"isMegawatt":false,"status":"UNAVAILABLE","source":"ndw"}},{"type":"Feature","geometry":{"type":"Point","coordinates":[4.861271,52.281312]},"properties":{"type":"charge","layer":"passenger","locationId":"NLLOC002634","name":"NLD, Amstelveen, Jol 129","address":"Jol 129","city":"Amstelveen","operatorName":"Allego","maxPowerKw":0,"isMegawatt":false,"status":"AVAILABLE","source":"ndw"}},{"type":"Feature","geometry":{"type":"Point","coordinates":[4.864277,52.309984]},"properties":{"type":"charge","layer":"passenger","locationId":"48206f8e-1187-11f0-84a8-42010aa400b8","name":"Eneco eMobility Westfield Mall of the Netherlands - Stadshart Amstelveen - Stadspleingarage -2","address":"Rembrandweg 42 -2","city":"Amstelveen","operatorName":"Eneco","maxPowerKw":22,"isMegawatt":false,"status":"AVAILABLE","source":"ndw"}},{"type":"Feature","geometry":{"type":"Point","coordinates":[4.804031,52.263478]},"properties":{"type":"charge","layer":"passenger","locationId":"489F26DD-A88E-4B01-AB88-7DF0DDCC3FDB","name":"Eneco eMobility Transdev - Amstelveen - Veilingmeesterweg 1","address":"Veilmeesterweg 1","city":"Amstelveen","operatorName":"Eneco","maxPowerKw":11,"isMegawatt":false,"status":"AVAILABLE","source":"ndw"}},{"type":"Feature","geometry":{"type":"Point","coordinates":[4.873439,52.299524]},"properties":{"type":"charge","layer":"passenger","locationId":"b97302b8-aae4-11f0-b149-42010aa400b8","name":"Shell Recharge NL Faustlaan 33, Amstelveen","address":"Faustlaan 33","city":"Amstelveen","operatorName":"Ubitricity","maxPowerKw":22,"isMegawatt":false,"status":"AVAILABLE","source":"ndw"}},{"type":"Feature","geometry":{"type":"Point","coordinates":[4.859335,52.317967]},"properties":{"type":"charge","layer":"passenger","locationId":"c54e2580-941a-11f0-b400-42010aa400b8","name":"Shell Recharge NL Koen van Oosterwijklaan 32, Amstelveen","address":"Koen van Oosterwijklaan 32","city":"Amstelveen","operatorName":"Ubitricity","maxPowerKw":22,"isMegawatt":false,"status":"AVAILABLE","source":"ndw"}},{"type":"Feature","geometry":{"type":"Point","coordinates":[4.835664,52.274186]},"properties":{"type":"charge","layer":"passenger","locationId":"daebb100-9b00-11ef-8fb0-42010aa400b8","name":"Shell Recharge NL Korianderlaan 1, Amstelveen","address":"Korianderlaan 1","city":"Amstelveen","operatorName":"Ubitricity","maxPowerKw":22,"isMegawatt":false,"status":"CHARGING","source":"ndw"}},{"type":"Feature","geometry":{"type":"Point","coordinates":[4.860695,52.294482]},"properties":{"type":"charge","layer":"passenger","locationId":"24e7faf6-02a4-11eb-98f3-42010a840033","name":"NL, Lindenlaan 585, 01, 1185 LW, Amstelveen","address":"Lindenlaan 585, 01","city":"Amstelveen","operatorName":"Allego","maxPowerKw":0,"isMegawatt":false,"status":"AVAILABLE","source":"ndw"}},{"type":"Feature","geometry":{"type":"Point","coordinates":[4.864314,52.308719]},"properties":{"type":"charge","layer":"passenger","locationId":"5fbb48b8-4f3c-11e8-9c75-42010a840002","name":"NL, Runmoolen 1, 1181 NZ Amstelveen","address":"Runmoolen 1-A","city":"Amstelveen","operatorName":"Allego","maxPowerKw":0,"isMegawatt":false,"status":"AVAILABLE","source":"ndw"}},{"type":"Feature","geometry":{"type":"Point","coordinates":[4.867963,52.283516]},"properties":{"type":"charge","layer":"passenger","locationId":"8851f526-3b46-11eb-812b-42010a840003","name":"NL, Niagara 1, 1186 JN, Amstelveen","address":"Niagara 1","city":"Amstelveen","operatorName":"Allego","maxPowerKw":0,"isMegawatt":false,"status":"CHARGING","source":"ndw"}},{"type":"Feature","geometry":{"type":"Point","coordinates":[4.831637,52.28258]},"properties":{"type":"charge","layer":"passenger","locationId":"bf9b4d9e-8ea4-11e8-8279-42010a840002","name":"NL, Joke Smitlaan 28a, 1187RD, Amstelveen","address":"Joke Smitlaan 28a","city":"Amstelveen","operatorName":"Allego","maxPowerKw":0,"isMegawatt":false,"status":"AVAILABLE","source":"ndw"}},{"type":"Feature","geometry":{"type":"Point","coordinates":[4.853898,52.291651]},"properties":{"type":"charge","layer":"passenger","locationId":"d8342b16-d7e5-11e8-8788-42010a840002","name":"NLD, Amstelveen, Fluweelboomlaan 14 A","address":"Fluweelboomlaan 14 A","city":"Amstelveen","operatorName":"Allego","maxPowerKw":0,"isMegawatt":false,"status":"CHARGING","source":"ndw"}},{"type":"Feature","geometry":{"type":"Point","coordinates":[4.847335,52.302751]},"properties":{"type":"charge","layer":"passenger","locationId":"NLLOC000820","name":"NLD, Amstelveen, Dorpsstraat 32","address":"Dorpsstraat 32","city":"Amstelveen","operatorName":"Allego","maxPowerKw":0,"isMegawatt":false,"status":"CHARGING","source":"ndw"}},{"type":"Feature","geometry":{"type":"Point","coordinates":[4.813385,52.277998]},"properties":{"type":"charge","layer":"passenger","locationId":"d1e30602-ae9d-11ef-b9dd-42010aa400b8","name":"TNLP015185","address":"Drakensteyn 10","city":"Amstelveen","operatorName":"TotalEnergies","maxPowerKw":17,"isMegawatt":false,"status":"AVAILABLE","source":"ndw"}},{"type":"Feature","geometry":{"type":"Point","coordinates":[4.862135,52.28527]},"properties":{"type":"charge","layer":"passenger","locationId":"NLLOC006269","name":"NL, Marne 43, 1186 PC, Amstelveen","address":"Marne 43","city":"Amstelveen","operatorName":"Allego","maxPowerKw":0,"isMegawatt":false,"status":"AVAILABLE","source":"ndw"}},{"type":"Feature","geometry":{"type":"Point","coordinates":[4.861858,52.321348]},"properties":{"type":"charge","layer":"passenger","locationId":"NLLOC003837","name":"NLD, Amstelveen, Bos en Vaartlaan 1","address":"Bos en Vaartlaan 1","city":"Amstelveen","operatorName":"Allego","maxPowerKw":0,"isMegawatt":false,"status":"AVAILABLE","source":"ndw"}},{"type":"Feature","geometry":{"type":"Point","coordinates":[4.8595733,52.2815396]},"properties":{"type":"charge","layer":"passenger","locationId":"1061","name":"Shell Recharge NL Jol 7","address":"Jol 7","city":"Amstelveen","operatorName":"Ubitricity","maxPowerKw":22,"isMegawatt":false,"status":"AVAILABLE","source":"ndw"}},{"type":"Feature","geometry":{"type":"Point","coordinates":[4.846948,52.29288]},"properties":{"type":"charge","layer":"passenger","locationId":"NLLOC009355","name":"NL, Abelenlaan 25, 1185 RT, Amstelveen","address":"Abelenlaan 25","city":"Amstelveen","operatorName":"Allego","maxPowerKw":0,"isMegawatt":false,"status":"AVAILABLE","source":"ndw"}},{"type":"Feature","geometry":{"type":"Point","coordinates":[4.84274,52.30681]},"properties":{"type":"charge","layer":"passenger","locationId":"1c39ffee-90a8-11ef-901b-42010aa400b8","name":"Eneco eMobility KLM - Hoofdkantoor - gebouw 702 & 712","address":"Amsterdamseweg 55","city":"Amstelveen","operatorName":"Eneco","maxPowerKw":11,"isMegawatt":false,"status":"AVAILABLE","source":"ndw"}},{"type":"Feature","geometry":{"type":"Point","coordinates":[4.829812,52.274508]},"properties":{"type":"charge","layer":"passenger","locationId":"3353a406-a23a-11f0-9637-42010aa400b8","name":"TNLP015072","address":"Loethoelilaan 139","city":"Amstelveen","operatorName":"TotalEnergies","maxPowerKw":17,"isMegawatt":false,"status":"AVAILABLE","source":"ndw"}},{"type":"Feature","geometry":{"type":"Point","coordinates":[4.864999,52.300956]},"properties":{"type":"charge","layer":"passenger","locationId":"3c81d98c-f491-11ef-819a-42010aa400b8","name":"Q-Park Amstelveen Buitenplein","address":"Buitenplein 101","city":"Amstelveen","operatorName":"Q-Park Netherlands","maxPowerKw":11,"isMegawatt":false,"status":"AVAILABLE","source":"ndw"}},{"type":"Feature","geometry":{"type":"Point","coordinates":[4.831637,52.28258]},"properties":{"type":"charge","layer":"passenger","locationId":"NLLOC002633","name":"NL, Joke Smitlaan 28a, 1187RD, Amstelveen","address":"Joke Smitlaan 28a","city":"Amstelveen","operatorName":"Allego","maxPowerKw":0,"isMegawatt":false,"status":"AVAILABLE","source":"ndw"}},{"type":"Feature","geometry":{"type":"Point","coordinates":[4.816562,52.276187]},"properties":{"type":"charge","layer":"passenger","locationId":"42bae95a-fbd5-11f0-8b42-42010aa400b8","name":"Shell Recharge NL Jane Addamslaan 105, Amstelveen, [AN null]","address":"Jane Addamslaan 105","city":"Amstelveen","operatorName":"Ubitricity","maxPowerKw":22,"isMegawatt":false,"status":"AVAILABLE","source":"ndw"}},{"type":"Feature","geometry":{"type":"Point","coordinates":[4.845008,52.28016]},"properties":{"type":"charge","layer":"passenger","locationId":"8f1b4880-1d42-11ef-93a6-42010aa400b8","name":"TNLP008407","address":"Dr. Willem Dreesweg 37","city":"Amstelveen","operatorName":"TotalEnergies","maxPowerKw":14,"isMegawatt":false,"status":"UNAVAILABLE","source":"ndw"}},{"type":"Feature","geometry":{"type":"Point","coordinates":[4.85363,52.31042]},"properties":{"type":"charge","layer":"passenger","locationId":"a1eb2f3c-4f3c-11e8-b96a-42010a840002","name":"Shell Recharge NL Jan Benninghstraat 60 Amstelveen","address":"Jan Benninghstraat 60","city":"Amstelveen","operatorName":"Ubitricity","maxPowerKw":11,"isMegawatt":false,"status":"AVAILABLE","source":"ndw"}},{"type":"Feature","geometry":{"type":"Point","coordinates":[4.860545,52.306842]},"properties":{"type":"charge","layer":"passenger","locationId":"NLLOC002665","name":"NLD, Amstelveen, De Ruyschlaan 151","address":"De Ruyschlaan 151","city":"Amstelveen","operatorName":"Allego","maxPowerKw":0,"isMegawatt":false,"status":"AVAILABLE","source":"ndw"}},{"type":"Feature","geometry":{"type":"Point","coordinates":[4.826664,52.273979]},"properties":{"type":"charge","layer":"passenger","locationId":"7378ec96-0da1-4ce6-ba92-88b3c4e71127","name":"TNLP015135","address":"Simon Vestdijklaan 1","city":"Amstelveen","operatorName":"TotalEnergies","maxPowerKw":17,"isMegawatt":false,"status":"AVAILABLE","source":"ndw"}},{"type":"Feature","geometry":{"type":"Point","coordinates":[4.859593,52.303135]},"properties":{"type":"charge","layer":"passenger","locationId":"069f90bc-1187-11f0-a88f-42010aa400b8","name":"Eneco eMobility Westfield Mall of the Netherlands - Stadshart Amstelveen - Schouwburggarage","address":"Rembrandweg 41 1","city":"Amstelveen","operatorName":"Eneco","maxPowerKw":22,"isMegawatt":false,"status":"AVAILABLE","source":"ndw"}},{"type":"Feature","geometry":{"type":"Point","coordinates":[4.874101,52.311539]},"properties":{"type":"charge","layer":"passenger","locationId":"f7fdf835-0253-46ff-84bb-5b06e80076fc","name":"TNLP034027","address":"Westelijk Halfrond 483","city":"Amstelveen","operatorName":"TotalEnergies","maxPowerKw":14,"isMegawatt":false,"status":"AVAILABLE","source":"ndw"}},{"type":"Feature","geometry":{"type":"Point","coordinates":[4.854698,52.31143]},"properties":{"type":"charge","layer":"passenger","locationId":"d2d55bac-bc01-11ef-a4bc-42010aa400b8","name":"Shell Recharge NL Charlotte van Montpensierlaan 32, Amstelveen","address":"Charlotte van Montpensierlaan 32","city":"Amstelveen","operatorName":"Ubitricity","maxPowerKw":22,"isMegawatt":false,"status":"AVAILABLE","source":"ndw"}},{"type":"Feature","geometry":{"type":"Point","coordinates":[4.851221,52.282418]},"properties":{"type":"charge","layer":"passenger","locationId":"6cffe8e2-acbd-45b0-b6b1-7ce8349aecfe","name":"Grote Beer","address":"Grote Beer 189","city":"Amstelveen","operatorName":"Vattenfall InCharge","maxPowerKw":11,"isMegawatt":false,"status":"AVAILABLE","source":"ndw"}},{"type":"Feature","geometry":{"type":"Point","coordinates":[4.880939,52.318488]},"properties":{"type":"charge","layer":"passenger","locationId":"acaa1029755f4a958df9","name":"Fris Vastgoed - Professor W.H. Keesomlaan 1, Amstelveen","address":"Professor W.H. Keesomlaan 1","city":"Amstelveen","operatorName":"Opcharge","maxPowerKw":22,"isMegawatt":false,"status":"AVAILABLE","source":"ndw"}},{"type":"Feature","geometry":{"type":"Point","coordinates":[4.83685,52.290258]},"properties":{"type":"charge","layer":"passenger","locationId":"NLLOC007439","name":"NL, Pastoor Roozenlaan 51, 1187 AM Amstelveen","address":"Pastoor Roozenlaan 51","city":"Amstelveen","operatorName":"Allego","maxPowerKw":0,"isMegawatt":false,"status":"AVAILABLE","source":"ndw"}},{"type":"Feature","geometry":{"type":"Point","coordinates":[4.819965,52.276675]},"properties":{"type":"charge","layer":"passenger","locationId":"4bcc31c0-6747-11eb-8c36-42010a840003","name":"NL, Cannenburgh 51, 1187 DC, Amstelveen","address":"Cannenburgh 51","city":"Amstelveen","operatorName":"Allego","maxPowerKw":0,"isMegawatt":false,"status":"AVAILABLE","source":"ndw"}},{"type":"Feature","geometry":{"type":"Point","coordinates":[4.859619,52.304369]},"properties":{"type":"charge","layer":"passenger","locationId":"5fc94ee0-4f3c-11e8-8803-42010a840002","name":"NLD, Amstelveen, Jonkheer H.A. van Karnebeeklaan 8","address":"Jonkheer H.A. van Karnebeeklaan 8","city":"Amstelveen","operatorName":"Allego","maxPowerKw":0,"isMegawatt":false,"status":"AVAILABLE","source":"ndw"}},{"type":"Feature","geometry":{"type":"Point","coordinates":[4.874488,52.309455]},"properties":{"type":"charge","layer":"passenger","locationId":"b09229be-4f3c-11e8-875a-42010a840002","name":"NLD, Amstelveen, Westelijk Halfrond 22","address":"Westelijk Halfrond 22","city":"Amstelveen","operatorName":"Allego","maxPowerKw":0,"isMegawatt":false,"status":"AVAILABLE","source":"ndw"}},{"type":"Feature","geometry":{"type":"Point","coordinates":[4.857397,52.319101]},"properties":{"type":"charge","layer":"passenger","locationId":"cbb3d78e-949e-11ea-89ce-42010a840003","name":"NL, Amsterdamseweg 506, 1181 BX, Amstelveen","address":"Amsterdamseweg 506","city":"Amstelveen","operatorName":"Allego","maxPowerKw":0,"isMegawatt":false,"status":"AVAILABLE","source":"ndw"}},{"type":"Feature","geometry":{"type":"Point","coordinates":[4.855135,52.309836]},"properties":{"type":"charge","layer":"passenger","locationId":"ce015858-4f3c-11e8-a508-42010a840002","name":"NLD, Amstelveen, Van der Ghiessenstraat 40","address":"Van der Ghiessenstraat 40","city":"Amstelveen","operatorName":"Allego","maxPowerKw":0,"isMegawatt":false,"status":"AVAILABLE","source":"ndw"}},{"type":"Feature","geometry":{"type":"Point","coordinates":[4.865212,52.309088]},"properties":{"type":"charge","layer":"passenger","locationId":"51613a14-ca4c-11f0-bd74-42010aa400b8","name":"TNLP008814","address":"Runmoolen 177","city":"Amstelveen","operatorName":"TotalEnergies","maxPowerKw":14,"isMegawatt":false,"status":"CHARGING","source":"ndw"}},{"type":"Feature","geometry":{"type":"Point","coordinates":[4.867608,52.312178]},"properties":{"type":"charge","layer":"passenger","locationId":"NLLOC000824","name":"NLD, Amstelveen, Brantwijk 88","address":"Brantwijk 88","city":"Amstelveen","operatorName":"Allego","maxPowerKw":0,"isMegawatt":false,"status":"AVAILABLE","source":"ndw"}},{"type":"Feature","geometry":{"type":"Point","coordinates":[4.856972,52.311473]},"properties":{"type":"charge","layer":"passenger","locationId":"c7f044d3372a01937882971dc1beb029","name":"Charlotte van Montpensierlaan 50","address":"Charlotte van Montpensierlaan 50","city":"Amstelveen","operatorName":"Vattenfall InCharge","maxPowerKw":11,"isMegawatt":false,"status":"AVAILABLE","source":"ndw"}},{"type":"Feature","geometry":{"type":"Point","coordinates":[4.865439,52.300553]},"properties":{"type":"charge","layer":"passenger","locationId":"NLLOC002873","name":"NLD, Amstelveen, Meander 787","address":"Meander 787","city":"Amstelveen","operatorName":"Allego","maxPowerKw":0,"isMegawatt":false,"status":"AVAILABLE","source":"ndw"}},{"type":"Feature","geometry":{"type":"Point","coordinates":[4.842008,52.309868]},"properties":{"type":"charge","layer":"passenger","locationId":"359e5abe-a068-11ea-a818-42010a840003","name":"NL, Talmastraat 75, 1182EL, Amstelveen","address":"Talmastraat 75","city":"Amstelveen","operatorName":"Allego","maxPowerKw":0,"isMegawatt":false,"status":"AVAILABLE","source":"ndw"}},{"type":"Feature","geometry":{"type":"Point","coordinates":[4.845279,52.278982]},"properties":{"type":"charge","layer":"passenger","locationId":"NLLOC010970","name":"NL, De hoorn 1, 1188 HG. Amstelveen","address":"De hoorn 1","city":"Amstelveen","operatorName":"Allego","maxPowerKw":0,"isMegawatt":false,"status":"AVAILABLE","source":"ndw"}},{"type":"Feature","geometry":{"type":"Point","coordinates":[4.860683,52.280656]},"properties":{"type":"charge","layer":"passenger","locationId":"684afe84-b6a8-11f0-b00e-42010aa400b8","name":"TNLP009073","address":"Jol 222","city":"Amstelveen","operatorName":"TotalEnergies","maxPowerKw":17,"isMegawatt":false,"status":"AVAILABLE","source":"ndw"}},{"type":"Feature","geometry":{"type":"Point","coordinates":[4.85902,52.321111]},"properties":{"type":"charge","layer":"passenger","locationId":"796de168-ee44-11ef-ae69-42010aa400b8","name":"TNLP015417","address":"Plantsoen Laanhorn 12","city":"Amstelveen","operatorName":"TotalEnergies","maxPowerKw":17,"isMegawatt":false,"status":"AVAILABLE","source":"ndw"}},{"type":"Feature","geometry":{"type":"Point","coordinates":[4.864023,52.306548]},"properties":{"type":"charge","layer":"passenger","locationId":"a02105a6-d098-11f0-8b48-42010aa400b8","name":"TNLP015084","address":"Jan van Goyenlaan 1","city":"Amstelveen","operatorName":"TotalEnergies","maxPowerKw":17,"isMegawatt":false,"status":"CHARGING","source":"ndw"}},{"type":"Feature","geometry":{"type":"Point","coordinates":[4.873633,52.30459]},"properties":{"type":"charge","layer":"passenger","locationId":"dbfcf532-ccae-11f0-903a-42010aa400b8","name":"TNLP015361","address":"Max Havelaarlaan 87","city":"Amstelveen","operatorName":"TotalEnergies","maxPowerKw":17,"isMegawatt":false,"status":"AVAILABLE","source":"ndw"}},{"type":"Feature","geometry":{"type":"Point","coordinates":[4.8193,52.281596]},"properties":{"type":"charge","layer":"passenger","locationId":"5fb1f29c-101e-11e9-8b3f-42010a840003","name":"NLD, Amstelveen, Marshallsingel 26","address":"NLD, Amstelveen, Marshallsingel 26","city":"Amstelveen","operatorName":"Allego","maxPowerKw":0,"isMegawatt":false,"status":"AVAILABLE","source":"ndw"}},{"type":"Feature","geometry":{"type":"Point","coordinates":[4.818243,52.278765]},"properties":{"type":"charge","layer":"passenger","locationId":"7e966074-4f3c-11e8-b971-42010a840002","name":"NLD, Amstelveen, Middachten 1","address":"Middachten 1","city":"Amstelveen","operatorName":"Allego","maxPowerKw":0,"isMegawatt":false,"status":"AVAILABLE","source":"ndw"}},{"type":"Feature","geometry":{"type":"Point","coordinates":[4.835435,52.273528]},"properties":{"type":"charge","layer":"passenger","locationId":"7f95a192-4f3c-11e8-8334-42010a840002","name":"NLD, Amstelveen, Korenbloemlaan 15","address":"Korenbloemlaan 15","city":"Amstelveen","operatorName":"Allego","maxPowerKw":0,"isMegawatt":false,"status":"AVAILABLE","source":"ndw"}},{"type":"Feature","geometry":{"type":"Point","coordinates":[4.820119,52.279224]},"properties":{"type":"charge","layer":"passenger","locationId":"384fbb62-b717-11ee-a91d-42010aa40fc0","name":"TNLP009818","address":"Heemstede 6","city":"Amstelveen","operatorName":"TotalEnergies","maxPowerKw":17,"isMegawatt":false,"status":"AVAILABLE","source":"ndw"}},{"type":"Feature","geometry":{"type":"Point","coordinates":[4.85383,52.298041]},"properties":{"type":"charge","layer":"passenger","locationId":"c2ceecc6-bb05-11ee-b2d1-42010aa40fc0","name":"TNLP015080","address":"Van Weerden Poelmanlaan 1","city":"Amstelveen","operatorName":"TotalEnergies","maxPowerKw":17,"isMegawatt":false,"status":"AVAILABLE","source":"ndw"}},{"type":"Feature","geometry":{"type":"Point","coordinates":[4.859643,52.315829]},"properties":{"type":"charge","layer":"passenger","locationId":"7e7af6fe-4f3c-11e8-98b3-42010a840002","name":"NLD, Amstelveen, Jan van Avesneslaan 20","address":"Jan van Avesneslaan 20","city":"Amstelveen","operatorName":"Allego","maxPowerKw":0,"isMegawatt":false,"status":"AVAILABLE","source":"ndw"}},{"type":"Feature","geometry":{"type":"Point","coordinates":[4.851025,52.307515]},"properties":{"type":"charge","layer":"passenger","locationId":"879df9ba-acfb-11ea-937a-42010a840003","name":"NL, Thorbeckelaan 7, 1181 VN, Amstelveen","address":"Thorbeckelaan 7","city":"Amstelveen","operatorName":"Allego","maxPowerKw":0,"isMegawatt":false,"status":"AVAILABLE","source":"ndw"}},{"type":"Feature","geometry":{"type":"Point","coordinates":[4.823051,52.27649]},"properties":{"type":"charge","layer":"passenger","locationId":"c0ccf61c-4b56-11ee-b6fc-42010aa40fc0","name":"NLD, Amstelveen, Maria Dermoûtlaan 2","address":"Maria Dermoûtlaan 2","city":"Amstelveen","operatorName":"Allego","maxPowerKw":0,"isMegawatt":false,"status":"AVAILABLE","source":"ndw"}},{"type":"Feature","geometry":{"type":"Point","coordinates":[4.865439,52.300553]},"properties":{"type":"charge","layer":"passenger","locationId":"d84efe14-d7e5-11e8-bb7c-42010a840002","name":"NLD, Amstelveen, Meander 787","address":"Meander 787","city":"Amstelveen","operatorName":"Allego","maxPowerKw":0,"isMegawatt":false,"status":"AVAILABLE","source":"ndw"}},{"type":"Feature","geometry":{"type":"Point","coordinates":[4.864506,52.287909]},"properties":{"type":"charge","layer":"passenger","locationId":"ef8f82a4-29fc-11eb-8b00-42010a840003","name":"NL, Rupel 18 1186 LC Amstelveen","address":"Rupel 18","city":"Amstelveen","operatorName":"Allego","maxPowerKw":0,"isMegawatt":false,"status":"AVAILABLE","source":"ndw"}},{"type":"Feature","geometry":{"type":"Point","coordinates":[4.874101,52.311539]},"properties":{"type":"charge","layer":"passenger","locationId":"110dc7da-d554-11f0-93e3-42010aa400b8","name":"TNLP034027","address":"Westelijk Halfrond 483","city":"Amstelveen","operatorName":"TotalEnergies","maxPowerKw":14,"isMegawatt":false,"status":"CHARGING","source":"ndw"}},{"type":"Feature","geometry":{"type":"Point","coordinates":[4.857805,52.311279]},"properties":{"type":"charge","layer":"passenger","locationId":"NLLOC002646","name":"NL, Van der Veerelaan, 30a, 1181RB, Amstelveen","address":"Van der Veerelaan 30a","city":"Amstelveen","operatorName":"Allego","maxPowerKw":0,"isMegawatt":false,"status":"AVAILABLE","source":"ndw"}},{"type":"Feature","geometry":{"type":"Point","coordinates":[4.845735,52.293647]},"properties":{"type":"charge","layer":"passenger","locationId":"0759e6e6-14b7-11eb-a01b-42010a840033","name":"NL, Populierenlaan 133, 1185 SH, Amstelveen","address":"Populierenlaan 133","city":"Amstelveen","operatorName":"Allego","maxPowerKw":0,"isMegawatt":false,"status":"CHARGING","source":"ndw"}},{"type":"Feature","geometry":{"type":"Point","coordinates":[4.829888,52.276966]},"properties":{"type":"charge","layer":"passenger","locationId":"fa93630a-ddcb-11ef-a9be-42010aa400b8","name":"Shell Recharge NL Bertha von Suttnerlaan 90, Amstelveen","address":"Bertha von Suttnerlaan 90","city":"Amstelveen","operatorName":"Ubitricity","maxPowerKw":22,"isMegawatt":false,"status":"AVAILABLE","source":"ndw"}},{"type":"Feature","geometry":{"type":"Point","coordinates":[4.842839,52.285161]},"properties":{"type":"charge","layer":"passenger","locationId":"L_0021381372","name":"Bovenkerkerweg 6-8","address":"Bovenkerkerweg 6-8 6-8","city":"Amstelveen","operatorName":"Tango electric","maxPowerKw":0,"isMegawatt":false,"status":"UNAVAILABLE","source":"ndw"}},{"type":"Feature","geometry":{"type":"Point","coordinates":[4.863275,52.295719]},"properties":{"type":"charge","layer":"passenger","locationId":"NLLOC003509","name":"NLD, Amstelveen, Johannes Calvijnlaan 18","address":"Johannes Calvijnlaan 18","city":"Amstelveen","operatorName":"Allego","maxPowerKw":0,"isMegawatt":false,"status":"AVAILABLE","source":"ndw"}},{"type":"Feature","geometry":{"type":"Point","coordinates":[4.862135,52.28527]},"properties":{"type":"charge","layer":"passenger","locationId":"21a9dd16-6009-11ea-848b-42010a840003","name":"NL, Marne 43, 1186 PC, Amstelveen","address":"Marne 43","city":"Amstelveen","operatorName":"Allego","maxPowerKw":0,"isMegawatt":false,"status":"AVAILABLE","source":"ndw"}},{"type":"Feature","geometry":{"type":"Point","coordinates":[4.865999,52.317273]},"properties":{"type":"charge","layer":"passenger","locationId":"6bcb2250-e3fe-11ea-8b47-42010a840003","name":"NL, Bourgondischelaan 14-36, 1181DD, Amstelveen","address":"Bourgondischelaan 14-36","city":"Amstelveen","operatorName":"Allego","maxPowerKw":0,"isMegawatt":false,"status":"CHARGING","source":"ndw"}},{"type":"Feature","geometry":{"type":"Point","coordinates":[4.847798,52.294523]},"properties":{"type":"charge","layer":"passenger","locationId":"7d85934e-4f3c-11e8-8926-42010a840002","name":"NLD, Amstelveen, Prunuslaan 61","address":"Prunuslaan 61","city":"Amstelveen","operatorName":"Allego","maxPowerKw":0,"isMegawatt":false,"status":"AVAILABLE","source":"ndw"}},{"type":"Feature","geometry":{"type":"Point","coordinates":[4.860779,52.308008]},"properties":{"type":"charge","layer":"passenger","locationId":"878169c2-4f3c-11e8-99c3-42010a840002","name":"NLD, Amstelveen, Graaf Aelbrechtlaan 140","address":"Graaf Aelbrechtlaan 140","city":"Amstelveen","operatorName":"Allego","maxPowerKw":0,"isMegawatt":false,"status":"AVAILABLE","source":"ndw"}},{"type":"Feature","geometry":{"type":"Point","coordinates":[4.837205,52.272763]},"properties":{"type":"charge","layer":"passenger","locationId":"8970c084-4f3c-11e8-a3a3-42010a840002","name":"NLD, Amstelveen, Sint Janskruidlaan 140","address":"Sint Janskruidlaan 140","city":"Amstelveen","operatorName":"Allego","maxPowerKw":0,"isMegawatt":false,"status":"AVAILABLE","source":"ndw"}},{"type":"Feature","geometry":{"type":"Point","coordinates":[4.860027,52.313999]},"properties":{"type":"charge","layer":"passenger","locationId":"b61b8ed0-af56-11ea-b84e-42010a840003","name":"NL, Graaf Willemlaan 30, 1181EG, Amstelveen","address":"Graaf Willemlaan 30","city":"Amstelveen","operatorName":"Allego","maxPowerKw":0,"isMegawatt":false,"status":"AVAILABLE","source":"ndw"}},{"type":"Feature","geometry":{"type":"Point","coordinates":[4.861271,52.281312]},"properties":{"type":"charge","layer":"passenger","locationId":"bfa72434-8ea4-11e8-ab46-42010a840002","name":"NLD, Amstelveen, Jol 129","address":"Jol 129","city":"Amstelveen","operatorName":"Allego","maxPowerKw":0,"isMegawatt":false,"status":"AVAILABLE","source":"ndw"}},{"type":"Feature","geometry":{"type":"Point","coordinates":[4.827495,52.278102]},"properties":{"type":"charge","layer":"passenger","locationId":"e2bfdefe-2682-11e9-a39d-42010a840003","name":"NLD, Amstelveen, Cia van Boortlaan 30","address":"Cia van Boortlaan 30","city":"Amstelveen","operatorName":"Allego","maxPowerKw":0,"isMegawatt":false,"status":"AVAILABLE","source":"ndw"}},{"type":"Feature","geometry":{"type":"Point","coordinates":[4.836463,52.273956]},"properties":{"type":"charge","layer":"passenger","locationId":"e2d7cf56-5a88-11ea-9822-42010a840003","name":"NL, Korianderlaan 11, 1187EE, Amstelveen","address":"Korianderlaan 11","city":"Amstelveen","operatorName":"Allego","maxPowerKw":0,"isMegawatt":false,"status":"AVAILABLE","source":"ndw"}},{"type":"Feature","geometry":{"type":"Point","coordinates":[4.881888,52.308722]},"properties":{"type":"charge","layer":"passenger","locationId":"NLLOC000830","name":"NLD, Amstelveen, Fanny Blankers-Koenlaan 56","address":"Fanny Blankers-Koenlaan 56","city":"Amstelveen","operatorName":"Allego","maxPowerKw":0,"isMegawatt":false,"status":"AVAILABLE","source":"ndw"}},{"type":"Feature","geometry":{"type":"Point","coordinates":[4.857378,52.306665]},"properties":{"type":"charge","layer":"passenger","locationId":"7cf7bbf2a953eb5dd28a6647ddd45549","name":"Meester G. Groen van Prinstererlaan 27","address":"Meester G. Groen van Prinstererlaan 27","city":"Amstelveen","operatorName":"Vattenfall InCharge","maxPowerKw":11,"isMegawatt":false,"status":"AVAILABLE","source":"ndw"}},{"type":"Feature","geometry":{"type":"Point","coordinates":[4.859573,52.28154]},"properties":{"type":"charge","layer":"passenger","locationId":"ef19f46a-40ce-11f0-9694-42010aa400b8","name":"Shell Recharge NL Jol 7, Amstelveen","address":"Jol 7","city":"Amstelveen","operatorName":"Ubitricity","maxPowerKw":22,"isMegawatt":false,"status":"AVAILABLE","source":"ndw"}},{"type":"Feature","geometry":{"type":"Point","coordinates":[4.87391,52.290293]},"properties":{"type":"charge","layer":"passenger","locationId":"5244a967-5b86-4ec1-b232-2a6856baed8b","name":"TNLP034057","address":"Olympus 16","city":"Amstelveen","operatorName":"TotalEnergies","maxPowerKw":14,"isMegawatt":false,"status":"AVAILABLE","source":"ndw"}},{"type":"Feature","geometry":{"type":"Point","coordinates":[4.804031,52.263478]},"properties":{"type":"charge","layer":"passenger","locationId":"941ddbc0-e683-11f0-8f8a-42010aa400b8","name":"Eneco eMobility Transdev - Amstelveen - Veilingmeesterweg 1","address":"Veilmeesterweg 1","city":"Amstelveen","operatorName":"Eneco","maxPowerKw":11,"isMegawatt":false,"status":"AVAILABLE","source":"ndw"}},{"type":"Feature","geometry":{"type":"Point","coordinates":[4.841599,52.288695]},"properties":{"type":"charge","layer":"passenger","locationId":"6315c263f9ac90630ebe7c4a","name":"Splinter Beheer station 1","address":"Binderij 1 a","city":"Amstelveen","operatorName":"E-Flux by Road","maxPowerKw":11,"isMegawatt":false,"status":"CHARGING","source":"ndw"}},{"type":"Feature","geometry":{"type":"Point","coordinates":[4.856464,52.303297]},"properties":{"type":"charge","layer":"passenger","locationId":"B831D51F-C1B2-4970-B9EA-A47D05AF86F8","name":"TNLP009351","address":"Mr. F.A. van Hallweg 85","city":"Amstelveen","operatorName":"TotalEnergies","maxPowerKw":17,"isMegawatt":false,"status":"AVAILABLE","source":"ndw"}},{"type":"Feature","geometry":{"type":"Point","coordinates":[4.824798,52.280491]},"properties":{"type":"charge","layer":"passenger","locationId":"bcf99b20-1efa-11eb-8b9f-42010a840003","name":"Shell Recharge NL Zeelandiahoeve 63, Amstelveen","address":"Zeelandiahoeve 63","city":"Amstelveen","operatorName":"Ubitricity","maxPowerKw":22,"isMegawatt":false,"status":"AVAILABLE","source":"ndw"}},{"type":"Feature","geometry":{"type":"Point","coordinates":[4.850122,52.287277]},"properties":{"type":"charge","layer":"passenger","locationId":"e343f846-5d18-11f0-ba4e-42010aa400b8","name":"Shell Recharge NL Startbaan 12A Amstelveen","address":"Startbaan 12 A","city":"Amstelveen","operatorName":"Ubitricity","maxPowerKw":22,"isMegawatt":false,"status":"CHARGING","source":"ndw"}},{"type":"Feature","geometry":{"type":"Point","coordinates":[4.852745,52.281847]},"properties":{"type":"charge","layer":"passenger","locationId":"NLLOC000821","name":"NLD, Amstelveen, Grote Beer 198","address":"Grote Beer 198-A","city":"Amstelveen","operatorName":"Allego","maxPowerKw":0,"isMegawatt":false,"status":"AVAILABLE","source":"ndw"}},{"type":"Feature","geometry":{"type":"Point","coordinates":[4.88548,52.30031]},"properties":{"type":"charge","layer":"passenger","locationId":"6832c826-2dd9-11f0-92e6-42010aa400b8","name":"Eneco eMobility Oranjestaete - Oranjebaan 13 - Amstelveen","address":"Oranjebaan 13","city":"Amstelveen","operatorName":"Eneco","maxPowerKw":22,"isMegawatt":false,"status":"UNAVAILABLE","source":"ndw"}},{"type":"Feature","geometry":{"type":"Point","coordinates":[4.841599,52.288695]},"properties":{"type":"charge","layer":"passenger","locationId":"6315be59c7d95c045cc933c2","name":"Splinter Beheer station 2","address":"Binderij 1 A","city":"Amstelveen","operatorName":"E-Flux by Road","maxPowerKw":11,"isMegawatt":false,"status":"AVAILABLE","source":"ndw"}},{"type":"Feature","geometry":{"type":"Point","coordinates":[4.874464,52.312661]},"properties":{"type":"charge","layer":"passenger","locationId":"66ffe8bc2f93b3001c4fadb9","name":"NXT 50five - Amstelveen - Eleanor Rooseveltlaan 82 - DC","address":"Eleanor Roosenveltlaan 82","city":"Amstelveen","operatorName":"NXT50Five","maxPowerKw":78,"isMegawatt":false,"status":"AVAILABLE","source":"ndw"}},{"type":"Feature","geometry":{"type":"Point","coordinates":[4.858031,52.301841]},"properties":{"type":"charge","layer":"passenger","locationId":"069c49a8-ee19-11ee-b2c5-42010aa400b8","name":"TNLP015314","address":"Meander 91","city":"Amstelveen","operatorName":"TotalEnergies","maxPowerKw":17,"isMegawatt":false,"status":"CHARGING","source":"ndw"}},{"type":"Feature","geometry":{"type":"Point","coordinates":[4.869193,52.308234]},"properties":{"type":"charge","layer":"passenger","locationId":"1202870a-b717-11ee-b906-42010aa40fc0","name":"TNLP015071","address":"Bijdorp 11","city":"Amstelveen","operatorName":"TotalEnergies","maxPowerKw":17,"isMegawatt":false,"status":"CHARGING","source":"ndw"}},{"type":"Feature","geometry":{"type":"Point","coordinates":[4.874558,52.311562]},"properties":{"type":"charge","layer":"passenger","locationId":"2d784278-b0e9-11ea-b1f4-42010a840003","name":"NL, Westelijk Halfrond 243, 1183 HW, Amstelveen","address":"Westelijk Halfrond 243","city":"Amstelveen","operatorName":"Allego","maxPowerKw":0,"isMegawatt":false,"status":"AVAILABLE","source":"ndw"}},{"type":"Feature","geometry":{"type":"Point","coordinates":[4.8517517,52.2912092]},"properties":{"type":"charge","layer":"passenger","locationId":"2066","name":"Shell Recharge NL Acacialaan 38","address":"Acacialaan 38","city":"Amstelveen","operatorName":"Ubitricity","maxPowerKw":22,"isMegawatt":false,"status":"AVAILABLE","source":"ndw"}},{"type":"Feature","geometry":{"type":"Point","coordinates":[4.857641,52.308414]},"properties":{"type":"charge","layer":"passenger","locationId":"3ef472a6-22ea-11eb-878b-42010a840003","name":"NL, Graaf Aelbrechtlaan 118, 1181 SX Amstelveen","address":"Graaf Aelbrechtlaan 118","city":"Amstelveen","operatorName":"Allego","maxPowerKw":0,"isMegawatt":false,"status":"CHARGING","source":"ndw"}},{"type":"Feature","geometry":{"type":"Point","coordinates":[4.870599,52.308079]},"properties":{"type":"charge","layer":"passenger","locationId":"4bf96d10-782f-11e9-bc79-42010a840003","name":"NLD, Amstelveen, Van Heuven Goedhartlaan 472","address":"Van Heuven Goedhartlaan 472","city":"Amstelveen","operatorName":"Allego","maxPowerKw":0,"isMegawatt":false,"status":"AVAILABLE","source":"ndw"}},{"type":"Feature","geometry":{"type":"Point","coordinates":[4.83486,52.28]},"properties":{"type":"charge","layer":"passenger","locationId":"ADF36FBD-7C09-4FD0-A064-D28202466F51","name":"Eneco eMobility Best Western Amstelveen","address":"Grutterij 5","city":"Amstelveen","operatorName":"Eneco","maxPowerKw":22,"isMegawatt":false,"status":"AVAILABLE","source":"ndw"}},{"type":"Feature","geometry":{"type":"Point","coordinates":[4.865326,52.319645]},"properties":{"type":"charge","layer":"passenger","locationId":"NLLOC001696","name":"NLD, Amstelveen, Catharina van Clevepark 67","address":"Catharina van Clevepark 67","city":"Amstelveen","operatorName":"Allego","maxPowerKw":0,"isMegawatt":false,"status":"AVAILABLE","source":"ndw"}},{"type":"Feature","geometry":{"type":"Point","coordinates":[4.835453,52.275732]},"properties":{"type":"charge","layer":"passenger","locationId":"5ff5f36e-4f3c-11e8-9ab2-42010a840002","name":"NL, Gulderoedelaan 1, 1187 EB Amstelveen","address":"Gulderoedelaan 1","city":"Amstelveen","operatorName":"Allego","maxPowerKw":0,"isMegawatt":false,"status":"AVAILABLE","source":"ndw"}},{"type":"Feature","geometry":{"type":"Point","coordinates":[4.879894,52.314576]},"properties":{"type":"charge","layer":"passenger","locationId":"8d1aebce-4f3c-11e8-938b-42010a840002","name":"NLD, Amstelveen, Jeanne d'Arclaan 8","address":"Jeanne d'Arclaan 8","city":"Amstelveen","operatorName":"Allego","maxPowerKw":0,"isMegawatt":false,"status":"AVAILABLE","source":"ndw"}},{"type":"Feature","geometry":{"type":"Point","coordinates":[4.863986,52.287099]},"properties":{"type":"charge","layer":"passenger","locationId":"cea94bb0-e632-11e9-be2b-42010a840003","name":"NLD, Amstelveen, Wezer 13","address":"Wezer 13","city":"Amstelveen","operatorName":"Allego","maxPowerKw":0,"isMegawatt":false,"status":"AVAILABLE","source":"ndw"}},{"type":"Feature","geometry":{"type":"Point","coordinates":[4.867265,52.305216]},"properties":{"type":"charge","layer":"passenger","locationId":"0c22972e-2ff1-11e9-b86c-42010a840003","name":"NLD, Amstelveen, Burgemeester Haspelslaan 131","address":"Burgemeester Haspelslaan 131","city":"Amstelveen","operatorName":"Allego","maxPowerKw":0,"isMegawatt":false,"status":"CHARGING","source":"ndw"}},{"type":"Feature","geometry":{"type":"Point","coordinates":[4.864314,52.308719]},"properties":{"type":"charge","layer":"passenger","locationId":"NLLOC000823","name":"NL, Runmoolen 1, 1181 NZ Amstelveen","address":"Runmoolen 1-A","city":"Amstelveen","operatorName":"Allego","maxPowerKw":0,"isMegawatt":false,"status":"AVAILABLE","source":"ndw"}},{"type":"Feature","geometry":{"type":"Point","coordinates":[4.8501223,52.2872772]},"properties":{"type":"charge","layer":"passenger","locationId":"1033","name":"Shell Recharge NL Startbaan 12 A","address":"Startbaan 12 A","city":"Amstelveen","operatorName":"Ubitricity","maxPowerKw":22,"isMegawatt":false,"status":"AVAILABLE","source":"ndw"}},{"type":"Feature","geometry":{"type":"Point","coordinates":[4.830404,52.278511]},"properties":{"type":"charge","layer":"passenger","locationId":"76d3bc44-62d1-11e8-a675-42010a840002","name":"NLD, Amstelveen, Frans ter Gastlaan 10, 1187 TN","address":"Frans ter Gastlaan 10","city":"Amstelveen","operatorName":"Allego","maxPowerKw":0,"isMegawatt":false,"status":"AVAILABLE","source":"ndw"}},{"type":"Feature","geometry":{"type":"Point","coordinates":[4.843359,52.279183]},"properties":{"type":"charge","layer":"passenger","locationId":"b0c561f8-4f3c-11e8-b1c6-42010a840002","name":"NLD, Amstelveen, De Nessermolen 45","address":"De Nessermolen 45","city":"Amstelveen","operatorName":"Allego","maxPowerKw":0,"isMegawatt":false,"status":"AVAILABLE","source":"ndw"}},{"type":"Feature","geometry":{"type":"Point","coordinates":[4.86236,52.315317]},"properties":{"type":"charge","layer":"passenger","locationId":"b3a24de8-ab68-11ea-9fe5-42010a840003","name":"NL, Texelstraat 78, 1181ES, Amstelveen","address":"Texelstraat 78","city":"Amstelveen","operatorName":"Allego","maxPowerKw":0,"isMegawatt":false,"status":"CHARGING","source":"ndw"}},{"type":"Feature","geometry":{"type":"Point","coordinates":[4.8407,52.28545]},"properties":{"type":"charge","layer":"passenger","locationId":"5227ADB2-FBBD-4F4E-BBEC-F10A76DEDDBB","name":"Eneco eMobility Canon Europe N.V. - Bovenkerkerweg 59 - Amstelveen","address":"Bovenkerkerweg 59","city":"Amstelveen","operatorName":"Eneco","maxPowerKw":22,"isMegawatt":false,"status":"AVAILABLE","source":"ndw"}},{"type":"Feature","geometry":{"type":"Point","coordinates":[4.870194,52.313684]},"properties":{"type":"charge","layer":"passenger","locationId":"a8bbb710-d5a8-4dc1-965d-b32d9c8a9e1c","name":"TNLP034077","address":"Biesbosch 79","city":"Amstelveen","operatorName":"TotalEnergies","maxPowerKw":14,"isMegawatt":false,"status":"AVAILABLE","source":"ndw"}},{"type":"Feature","geometry":{"type":"Point","coordinates":[4.818867,52.277144]},"properties":{"type":"charge","layer":"passenger","locationId":"NLLOC001097","name":"NLD, Amstelveen, Westhove 462","address":"Westhove 462","city":"Amstelveen","operatorName":"Allego","maxPowerKw":0,"isMegawatt":false,"status":"AVAILABLE","source":"ndw"}},{"type":"Feature","geometry":{"type":"Point","coordinates":[4.830994,52.271401]},"properties":{"type":"charge","layer":"passenger","locationId":"31c525ca-52ad-11ea-bc60-42010a840003","name":"NL, Rozemarijnlaan 20, 1187ek, Amstelveen","address":"Rozemarijnlaan 20","city":"Amstelveen","operatorName":"Allego","maxPowerKw":0,"isMegawatt":false,"status":"AVAILABLE","source":"ndw"}},{"type":"Feature","geometry":{"type":"Point","coordinates":[4.865923,52.285888]},"properties":{"type":"charge","layer":"passenger","locationId":"5f974936-4f3c-11e8-b7f9-42010a840002","name":"NLD, Amstelveen, Arno 33","address":"Arno 33","city":"Amstelveen","operatorName":"Allego","maxPowerKw":0,"isMegawatt":false,"status":"AVAILABLE","source":"ndw"}},{"type":"Feature","geometry":{"type":"Point","coordinates":[4.860541,52.297251]},"properties":{"type":"charge","layer":"passenger","locationId":"5fc24cb2-4f3c-11e8-b3b2-42010a840002","name":"NLD, Amstelveen, Vogelkerslaan 8","address":"Vogelkerslaan 8","city":"Amstelveen","operatorName":"Allego","maxPowerKw":0,"isMegawatt":false,"status":"AVAILABLE","source":"ndw"}},{"type":"Feature","geometry":{"type":"Point","coordinates":[4.865628,52.310627]},"properties":{"type":"charge","layer":"passenger","locationId":"8984d6e6-4f3c-11e8-967c-42010a840002","name":"NLD, Amstelveen, Zonnestein 35","address":"Zonnestein 35","city":"Amstelveen","operatorName":"Allego","maxPowerKw":0,"isMegawatt":false,"status":"AVAILABLE","source":"ndw"}},{"type":"Feature","geometry":{"type":"Point","coordinates":[4.879476,52.316816]},"properties":{"type":"charge","layer":"passenger","locationId":"b3ad01b6-ab68-11ea-850d-42010a840003","name":"NL, Jeanne d'Arclaan 256, 1183 BH, Amstelveen","address":"Jeanne d'Arclaan 256","city":"Amstelveen","operatorName":"Allego","maxPowerKw":0,"isMegawatt":false,"status":"AVAILABLE","source":"ndw"}},{"type":"Feature","geometry":{"type":"Point","coordinates":[4.854267,52.303666]},"properties":{"type":"charge","layer":"passenger","locationId":"b5025c02-9955-11ea-b497-42010a840003","name":"NL, Thorbeckelaan 108, 1181 VS, Amstelveen","address":"Thorbeckelaan 108","city":"Amstelveen","operatorName":"Allego","maxPowerKw":0,"isMegawatt":false,"status":"AVAILABLE","source":"ndw"}},{"type":"Feature","geometry":{"type":"Point","coordinates":[4.851365,52.311179]},"properties":{"type":"charge","layer":"passenger","locationId":"cba9ff5c-949e-11ea-a467-42010a840003","name":"NL, Wolfert van Borsselenweg 91, 1181PH, Amstelveen","address":"Wolfert van Borsselenweg 91","city":"Amstelveen","operatorName":"Allego","maxPowerKw":0,"isMegawatt":false,"status":"AVAILABLE","source":"ndw"}},{"type":"Feature","geometry":{"type":"Point","coordinates":[4.858234,52.279315]},"properties":{"type":"charge","layer":"passenger","locationId":"46cf7b2ed01ccaa0d74557ed1decb922","name":"Praam 216","address":"Praam 216","city":"Amstelveen","operatorName":"Vattenfall InCharge","maxPowerKw":11,"isMegawatt":false,"status":"AVAILABLE","source":"ndw"}},{"type":"Feature","geometry":{"type":"Point","coordinates":[4.880016,52.313395]},"properties":{"type":"charge","layer":"passenger","locationId":"1f13ae4e-a5e9-11ea-b591-42010a840003","name":"NL, Suze Groeneweglaan 9, 1183EK, Amstelveen","address":"Suze Groeneweglaan 9","city":"Amstelveen","operatorName":"Allego","maxPowerKw":0,"isMegawatt":false,"status":"AVAILABLE","source":"ndw"}},{"type":"Feature","geometry":{"type":"Point","coordinates":[4.875751,52.298552]},"properties":{"type":"charge","layer":"passenger","locationId":"NLLOC003004","name":"NLD, Amstelveen, Fideliolaan 123","address":"Fideliolaan 123","city":"Amstelveen","operatorName":"Allego","maxPowerKw":0,"isMegawatt":false,"status":"AVAILABLE","source":"ndw"}},{"type":"Feature","geometry":{"type":"Point","coordinates":[4.866983,52.280884]},"properties":{"type":"charge","layer":"passenger","locationId":"NLLOC000827","name":"NLD, Amstelveen, Turfschip 134","address":"Turfschip 134","city":"Amstelveen","operatorName":"Allego","maxPowerKw":0,"isMegawatt":false,"status":"AVAILABLE","source":"ndw"}},{"type":"Feature","geometry":{"type":"Point","coordinates":[4.83685,52.290258]},"properties":{"type":"charge","layer":"passenger","locationId":"4a791336-e7ec-11ea-9389-42010a840003","name":"NL, Pastoor Roozenlaan 51, 1187 AM Amstelveen","address":"Pastoor Roozenlaan 51","city":"Amstelveen","operatorName":"Allego","maxPowerKw":0,"isMegawatt":false,"status":"AVAILABLE","source":"ndw"}},{"type":"Feature","geometry":{"type":"Point","coordinates":[4.826893,52.286863]},"properties":{"type":"charge","layer":"passenger","locationId":"5fedcb6c-4f3c-11e8-b155-42010a840002","name":"NLD, Amstelveen, Groenendaal 29","address":"Groenendaal 29","city":"Amstelveen","operatorName":"Allego","maxPowerKw":0,"isMegawatt":false,"status":"AVAILABLE","source":"ndw"}},{"type":"Feature","geometry":{"type":"Point","coordinates":[4.859644,52.320568]},"properties":{"type":"charge","layer":"passenger","locationId":"600a4706-4f3c-11e8-91fd-42010a840002","name":"NLD, Amstelveen, Schepenenlaan 3","address":"Schepenenlaan 3","city":"Amstelveen","operatorName":"Allego","maxPowerKw":0,"isMegawatt":false,"status":"AVAILABLE","source":"ndw"}},{"type":"Feature","geometry":{"type":"Point","coordinates":[4.857719,52.291107]},"properties":{"type":"charge","layer":"passenger","locationId":"6011a1a4-4f3c-11e8-8419-42010a840002","name":"NLD, Amstelveen, Sportlaan 350","address":"Sportlaan 350","city":"Amstelveen","operatorName":"Allego","maxPowerKw":0,"isMegawatt":false,"status":"AVAILABLE","source":"ndw"}},{"type":"Feature","geometry":{"type":"Point","coordinates":[4.876258,52.312232]},"properties":{"type":"charge","layer":"passenger","locationId":"6032cb54-4f3c-11e8-b621-42010a840002","name":"NLD, Amstelveen, Kostverlorenhof 2","address":"Kostverlorenhof 2-A1","city":"Amstelveen","operatorName":"Allego","maxPowerKw":0,"isMegawatt":false,"status":"AVAILABLE","source":"ndw"}},{"type":"Feature","geometry":{"type":"Point","coordinates":[4.83358,52.290793]},"properties":{"type":"charge","layer":"passenger","locationId":"60485d0c-4f3c-11e8-893b-42010a840002","name":"NLD, Amstelveen, Aagje Dekenlaan 51","address":"Aagje Dekenlaan 51","city":"Amstelveen","operatorName":"Allego","maxPowerKw":0,"isMegawatt":false,"status":"AVAILABLE","source":"ndw"}},{"type":"Feature","geometry":{"type":"Point","coordinates":[4.844759,52.281474]},"properties":{"type":"charge","layer":"passenger","locationId":"7d6ad6b2-4f3c-11e8-b586-42010a840002","name":"NLD, Amstelveen, Kromoord 14","address":"Kromoord 14","city":"Amstelveen","operatorName":"Allego","maxPowerKw":0,"isMegawatt":false,"status":"AVAILABLE","source":"ndw"}},{"type":"Feature","geometry":{"type":"Point","coordinates":[4.847269,52.298317]},"properties":{"type":"charge","layer":"passenger","locationId":"7ec53b38-4f3c-11e8-ab40-42010a840002","name":"NLD, Amstelveen, Kastanjelaan 34","address":"Kastanjelaan 34","city":"Amstelveen","operatorName":"Allego","maxPowerKw":0,"isMegawatt":false,"status":"CHARGING","source":"ndw"}},{"type":"Feature","geometry":{"type":"Point","coordinates":[4.871336,52.310274]},"properties":{"type":"charge","layer":"passenger","locationId":"7f65542e-4f3c-11e8-a78b-42010a840002","name":"NLD, Amstelveen, Van Heuven Goedhartlaan 739","address":"Van Heuven Goedhartlaan 739","city":"Amstelveen","operatorName":"Allego","maxPowerKw":0,"isMegawatt":false,"status":"AVAILABLE","source":"ndw"}},{"type":"Feature","geometry":{"type":"Point","coordinates":[4.85431,52.304889]},"properties":{"type":"charge","layer":"passenger","locationId":"7f72b7fe-4f3c-11e8-a7db-42010a840002","name":"NLD, Amstelveen, Wibautlaan 45","address":"Wibautlaan 45","city":"Amstelveen","operatorName":"Allego","maxPowerKw":0,"isMegawatt":false,"status":"AVAILABLE","source":"ndw"}},{"type":"Feature","geometry":{"type":"Point","coordinates":[4.828239,52.290287]},"properties":{"type":"charge","layer":"passenger","locationId":"8b71109e-54d3-11e9-8ada-42010a840003","name":"NLD, Amstelveen, Kuifeend 9","address":"Kuifeend 9","city":"Amstelveen","operatorName":"Allego","maxPowerKw":0,"isMegawatt":false,"status":"AVAILABLE","source":"ndw"}},{"type":"Feature","geometry":{"type":"Point","coordinates":[4.864271,52.280243]},"properties":{"type":"charge","layer":"passenger","locationId":"8cd13a9c-29a7-11e9-9796-42010a840003","name":"NLD, Amstelveen, Punter 401","address":"Punter 401","city":"Amstelveen","operatorName":"Allego","maxPowerKw":0,"isMegawatt":false,"status":"AVAILABLE","source":"ndw"}},{"type":"Feature","geometry":{"type":"Point","coordinates":[4.89881,52.30154]},"properties":{"type":"charge","layer":"passenger","locationId":"f9e80edc-d546-11ec-9153-42010a840003","name":"TNLP003553","address":"Amsteldijk Noord 34","city":"Amstelveen","operatorName":"TotalEnergies","maxPowerKw":17,"isMegawatt":false,"status":"UNAVAILABLE","source":"ndw"}},{"type":"Feature","geometry":{"type":"Point","coordinates":[4.84716,52.29212]},"properties":{"type":"charge","layer":"passenger","locationId":"28EE4490-298A-4204-8CBA-9FEC04E234A3","name":"TNLP009946","address":"Pruimenlaan 134","city":"Amstelveen","operatorName":"TotalEnergies","maxPowerKw":17,"isMegawatt":false,"status":"AVAILABLE","source":"ndw"}},{"type":"Feature","geometry":{"type":"Point","coordinates":[4.860477,52.319765]},"properties":{"type":"charge","layer":"passenger","locationId":"D3244BE8-4AA9-4E29-B115-7BD72F5643CC","name":"TNLP008931","address":"Catharina van Clevelaan 50","city":"Amstelveen","operatorName":"TotalEnergies","maxPowerKw":14,"isMegawatt":false,"status":"AVAILABLE","source":"ndw"}},{"type":"Feature","geometry":{"type":"Point","coordinates":[4.867642,52.281872]},"properties":{"type":"charge","layer":"passenger","locationId":"281da713-f7af-4e8a-b1ab-44b09fd32715","name":"TNLP015478","address":"Turfschip 48","city":"Amstelveen","operatorName":"TotalEnergies","maxPowerKw":17,"isMegawatt":false,"status":"AVAILABLE","source":"ndw"}},{"type":"Feature","geometry":{"type":"Point","coordinates":[4.865628,52.310627]},"properties":{"type":"charge","layer":"passenger","locationId":"NLLOC001701","name":"NLD, Amstelveen, Zonnestein 35","address":"Zonnestein 35","city":"Amstelveen","operatorName":"Allego","maxPowerKw":0,"isMegawatt":false,"status":"AVAILABLE","source":"ndw"}},{"type":"Feature","geometry":{"type":"Point","coordinates":[4.874271,52.302007]},"properties":{"type":"charge","layer":"passenger","locationId":"87207207-FD61-49A1-8AD3-5065C4B70E8F","name":"TNLP015026","address":"Bankrashof 90","city":"Amstelveen","operatorName":"TotalEnergies","maxPowerKw":17,"isMegawatt":false,"status":"AVAILABLE","source":"ndw"}},{"type":"Feature","geometry":{"type":"Point","coordinates":[4.844385,52.288849]},"properties":{"type":"charge","layer":"passenger","locationId":"419b6684-7a56-11ed-8e8c-42010aa40fc0","name":"NL, Wimbledonpark 2A, 1185 XN Amstelveen","address":"Wimbledonpark 2A","city":"Amstelveen","operatorName":"Allego","maxPowerKw":0,"isMegawatt":false,"status":"AVAILABLE","source":"ndw"}},{"type":"Feature","geometry":{"type":"Point","coordinates":[4.847064,52.278676]},"properties":{"type":"charge","layer":"passenger","locationId":"60211dd2-4f3c-11e8-9388-42010a840002","name":"NLD, Amstelveen, De Eendracht 72","address":"De Eendracht 72","city":"Amstelveen","operatorName":"Allego","maxPowerKw":0,"isMegawatt":false,"status":"AVAILABLE","source":"ndw"}},{"type":"Feature","geometry":{"type":"Point","coordinates":[4.860131,52.304716]},"properties":{"type":"charge","layer":"passenger","locationId":"631b1b1c-b1f1-11eb-97f6-42010a840003","name":"NL, Jonkheer H.A. van Karnebeeklaan 20, 1181XH, Amstelveen","address":"Jonkheer H.A. van Karnebeeklaan 20","city":"Amstelveen","operatorName":"Allego","maxPowerKw":0,"isMegawatt":false,"status":"AVAILABLE","source":"ndw"}},{"type":"Feature","geometry":{"type":"Point","coordinates":[4.849586,52.297053]},"properties":{"type":"charge","layer":"passenger","locationId":"a7385d42-1041-11ec-9495-42010a840003","name":"NL, Keizer Karelweg 82, 1185HX, Amstelveen","address":"Keizer Karelweg 82","city":"Amstelveen","operatorName":"Allego","maxPowerKw":0,"isMegawatt":false,"status":"AVAILABLE","source":"ndw"}},{"type":"Feature","geometry":{"type":"Point","coordinates":[4.879208,52.303373]},"properties":{"type":"charge","layer":"passenger","locationId":"e44f2516-29fc-11eb-9dfb-42010a840003","name":"NL, Camera Obscuralaan 12 a, 1183JZ, Amstelveen","address":"Camera Obscuralaan 12 a","city":"Amstelveen","operatorName":"Allego","maxPowerKw":0,"isMegawatt":false,"status":"CHARGING","source":"ndw"}},{"type":"Feature","geometry":{"type":"Point","coordinates":[4.847132,52.311211]},"properties":{"type":"charge","layer":"passenger","locationId":"NLLOC007046","name":"NL, Nieuwe Karselaan 4, 1182BR, Amstelveen","address":"Nieuwe Karselaan 4","city":"Amstelveen","operatorName":"Allego","maxPowerKw":0,"isMegawatt":false,"status":"AVAILABLE","source":"ndw"}},{"type":"Feature","geometry":{"type":"Point","coordinates":[4.846948,52.29288]},"properties":{"type":"charge","layer":"passenger","locationId":"24a66a9e-e26c-11ea-9eef-42010a840003","name":"NL, Abelenlaan 25, 1185 RT, Amstelveen","address":"Abelenlaan 25","city":"Amstelveen","operatorName":"Allego","maxPowerKw":0,"isMegawatt":false,"status":"AVAILABLE","source":"ndw"}},{"type":"Feature","geometry":{"type":"Point","coordinates":[4.851876,52.293359]},"properties":{"type":"charge","layer":"passenger","locationId":"416d91a2-22ea-11eb-94e1-42010a840003","name":"NL, Acialaan 2, 1185RE, Amstelveen","address":"Acacialaan 2","city":"Amstelveen","operatorName":"Allego","maxPowerKw":0,"isMegawatt":false,"status":"AVAILABLE","source":"ndw"}},{"type":"Feature","geometry":{"type":"Point","coordinates":[4.822805,52.273504]},"properties":{"type":"charge","layer":"passenger","locationId":"5e7c99fc-4f3c-11e8-b080-42010a840002","name":"NLD, Amstelveen, Renate Rubinsteinlaan 29","address":"Renate Rubinsteinlaan 29","city":"Amstelveen","operatorName":"Allego","maxPowerKw":0,"isMegawatt":false,"status":"AVAILABLE","source":"ndw"}},{"type":"Feature","geometry":{"type":"Point","coordinates":[4.858584,52.308395]},"properties":{"type":"charge","layer":"passenger","locationId":"5fd0f87a-4f3c-11e8-9848-42010a840002","name":"NLD, Amstelveen, Graaf Aelbrechtlaan 128","address":"Graaf Aelbrechtlaan 128","city":"Amstelveen","operatorName":"Allego","maxPowerKw":0,"isMegawatt":false,"status":"AVAILABLE","source":"ndw"}},{"type":"Feature","geometry":{"type":"Point","coordinates":[4.863704,52.303528]},"properties":{"type":"charge","layer":"passenger","locationId":"69753cf2-8fe9-11ea-b305-42010a840003","name":"NL, Govert Flincklaan 1, 1181 XA, Amstelveen","address":"Govert Flincklaan 1","city":"Amstelveen","operatorName":"Allego","maxPowerKw":0,"isMegawatt":false,"status":"AVAILABLE","source":"ndw"}},{"type":"Feature","geometry":{"type":"Point","coordinates":[4.856938,52.282997]},"properties":{"type":"charge","layer":"passenger","locationId":"79b57b74-54d3-11e9-8fe0-42010a840003","name":"NLD, Amstelveen, Voerman 7","address":"Voerman 7","city":"Amstelveen","operatorName":"Allego","maxPowerKw":0,"isMegawatt":false,"status":"AVAILABLE","source":"ndw"}},{"type":"Feature","geometry":{"type":"Point","coordinates":[4.865326,52.319645]},"properties":{"type":"charge","layer":"passenger","locationId":"894045d0-4f3c-11e8-929d-42010a840002","name":"NLD, Amstelveen, Catharina van Clevepark 67","address":"Catharina van Clevepark 67","city":"Amstelveen","operatorName":"Allego","maxPowerKw":0,"isMegawatt":false,"status":"AVAILABLE","source":"ndw"}},{"type":"Feature","geometry":{"type":"Point","coordinates":[4.869621,52.29394]},"properties":{"type":"charge","layer":"passenger","locationId":"897db622-4f3c-11e8-8ccb-42010a840002","name":"NLD, Amstelveen, Laan van de helende meesters 11","address":"Laan van de helende meesters 11","city":"Amstelveen","operatorName":"Allego","maxPowerKw":0,"isMegawatt":false,"status":"CHARGING","source":"ndw"}},{"type":"Feature","geometry":{"type":"Point","coordinates":[4.875751,52.298552]},"properties":{"type":"charge","layer":"passenger","locationId":"c302bb0e-ed25-11e8-91a7-42010a840002","name":"NLD, Amstelveen, Fideliolaan 123","address":"Fideliolaan 123","city":"Amstelveen","operatorName":"Allego","maxPowerKw":0,"isMegawatt":false,"status":"AVAILABLE","source":"ndw"}},{"type":"Feature","geometry":{"type":"Point","coordinates":[4.849491,52.278143]},"properties":{"type":"charge","layer":"passenger","locationId":"d128e9ba-cb17-11f0-8a60-42010aa400b8","name":"TNLP015040","address":"De Vriendschap 1","city":"Amstelveen","operatorName":"TotalEnergies","maxPowerKw":17,"isMegawatt":false,"status":"AVAILABLE","source":"ndw"}},{"type":"Feature","geometry":{"type":"Point","coordinates":[4.863704,52.303528]},"properties":{"type":"charge","layer":"passenger","locationId":"NLLOC007220","name":"NL, Govert Flincklaan 1, 1181 XA, Amstelveen","address":"Govert Flincklaan 1","city":"Amstelveen","operatorName":"Allego","maxPowerKw":0,"isMegawatt":false,"status":"AVAILABLE","source":"ndw"}},{"type":"Feature","geometry":{"type":"Point","coordinates":[4.828039,52.275042]},"properties":{"type":"charge","layer":"passenger","locationId":"0c723ace-9a9e-11e8-8652-42010a840002","name":"NLD, Amstelveen, Paul van Ostaijenlaan 1","address":"Paul van Ostaijenlaan 1","city":"Amstelveen","operatorName":"Allego","maxPowerKw":0,"isMegawatt":false,"status":"AVAILABLE","source":"ndw"}},{"type":"Feature","geometry":{"type":"Point","coordinates":[4.860573,52.279159]},"properties":{"type":"charge","layer":"passenger","locationId":"1770cd48-ba97-11eb-a0be-42010a840003","name":"NL, Praam 245, 1186TV, Amstelveen","address":"Praam 245","city":"Amstelveen","operatorName":"Allego","maxPowerKw":0,"isMegawatt":false,"status":"AVAILABLE","source":"ndw"}},{"type":"Feature","geometry":{"type":"Point","coordinates":[4.844759,52.281474]},"properties":{"type":"charge","layer":"passenger","locationId":"NLLOC001044","name":"NLD, Amstelveen, Kromoord 14","address":"Kromoord 14","city":"Amstelveen","operatorName":"Allego","maxPowerKw":0,"isMegawatt":false,"status":"AVAILABLE","source":"ndw"}},{"type":"Feature","geometry":{"type":"Point","coordinates":[4.819844,52.282295]},"properties":{"type":"charge","layer":"passenger","locationId":"191e64fc-eb54-11e9-972b-42010a840011","name":"NL, Boschplaat 66, 1187KX, Amstelveen","address":"Boschplaat 66","city":"Amstelveen","operatorName":"Allego","maxPowerKw":0,"isMegawatt":false,"status":"AVAILABLE","source":"ndw"}},{"type":"Feature","geometry":{"type":"Point","coordinates":[4.869003,52.28837]},"properties":{"type":"charge","layer":"passenger","locationId":"233ba06e-c234-11ea-8595-42010a840003","name":"NL, Groenhof 285 17, 1186CG Amstelveen","address":"Groenhof 285 17","city":"Amstelveen","operatorName":"Allego","maxPowerKw":0,"isMegawatt":false,"status":"AVAILABLE","source":"ndw"}},{"type":"Feature","geometry":{"type":"Point","coordinates":[4.865966,52.29026]},"properties":{"type":"charge","layer":"passenger","locationId":"41c130c2-9120-11ed-a224-42010aa40fc0","name":"NL, Matterhorn 48, 1186 EC Amstelveen","address":"Matterhorn 48","city":"Amstelveen","operatorName":"Allego","maxPowerKw":0,"isMegawatt":false,"status":"AVAILABLE","source":"ndw"}},{"type":"Feature","geometry":{"type":"Point","coordinates":[4.8233,52.283825]},"properties":{"type":"charge","layer":"passenger","locationId":"5fe6a256-4f3c-11e8-a986-42010a840002","name":"NLD, Amstelveen, Schweitzerlaan 17","address":"Schweitzerlaan 17","city":"Amstelveen","operatorName":"Allego","maxPowerKw":0,"isMegawatt":false,"status":"AVAILABLE","source":"ndw"}},{"type":"Feature","geometry":{"type":"Point","coordinates":[4.87862,52.299998]},"properties":{"type":"charge","layer":"passenger","locationId":"60037da4-4f3c-11e8-aff7-42010a840002","name":"NLD, Amstelveen, Fideliolaan 59","address":"Fideliolaan 59","city":"Amstelveen","operatorName":"Allego","maxPowerKw":0,"isMegawatt":false,"status":"AVAILABLE","source":"ndw"}},{"type":"Feature","geometry":{"type":"Point","coordinates":[4.863275,52.295719]},"properties":{"type":"charge","layer":"passenger","locationId":"b8047786-3bba-11e9-8337-42010a840003","name":"NLD, Amstelveen, Johannes Calvijnlaan 18","address":"Johannes Calvijnlaan 18","city":"Amstelveen","operatorName":"Allego","maxPowerKw":0,"isMegawatt":false,"status":"AVAILABLE","source":"ndw"}},{"type":"Feature","geometry":{"type":"Point","coordinates":[4.844396,52.301612]},"properties":{"type":"charge","layer":"passenger","locationId":"eb2b1dfa-0233-11ea-8a00-42010a840004","name":"NL, Laan Nieuwer Amstel 1, 1182 JR, Amstelveen","address":"Laan Nieuwer Amstel 1","city":"Amstelveen","operatorName":"Allego","maxPowerKw":0,"isMegawatt":false,"status":"CHARGING","source":"ndw"}},{"type":"Feature","geometry":{"type":"Point","coordinates":[4.842788,52.311496]},"properties":{"type":"charge","layer":"passenger","locationId":"fa4e4778-c621-11ea-babf-42010a840003","name":"NL, Oude Karselaan 82, 1182 CT Amstelveen","address":"Oude Karselaan 82","city":"Amstelveen","operatorName":"Allego","maxPowerKw":0,"isMegawatt":false,"status":"AVAILABLE","source":"ndw"}},{"type":"Feature","geometry":{"type":"Point","coordinates":[4.84716,52.29212]},"properties":{"type":"charge","layer":"passenger","locationId":"964efcac-be84-11f0-9739-42010aa400b8","name":"TNLP009946","address":"Pruimenlaan 134","city":"Amstelveen","operatorName":"TotalEnergies","maxPowerKw":17,"isMegawatt":false,"status":"AVAILABLE","source":"ndw"}},{"type":"Feature","geometry":{"type":"Point","coordinates":[4.864023,52.306548]},"properties":{"type":"charge","layer":"passenger","locationId":"2BA45D22-B10E-45C1-BBA4-65280F666FB3","name":"TNLP015084","address":"Jan van Goyenlaan 1","city":"Amstelveen","operatorName":"TotalEnergies","maxPowerKw":17,"isMegawatt":false,"status":"CHARGING","source":"ndw"}},{"type":"Feature","geometry":{"type":"Point","coordinates":[4.902219,52.304895]},"properties":{"type":"charge","layer":"passenger","locationId":"4129364","name":"Laadnet Stichting KNGF Geleidehonden","address":"Amsteldijk Noord 42","city":"Amstelveen","operatorName":"Laadnet","maxPowerKw":22,"isMegawatt":false,"status":"AVAILABLE","source":"ndw"}},{"type":"Feature","geometry":{"type":"Point","coordinates":[4.86901,52.285317]},"properties":{"type":"charge","layer":"passenger","locationId":"NLLOC006068","name":"NL, Ganges 7, 1186 JH, Amstelveen","address":"Ganges 7","city":"Amstelveen","operatorName":"Allego","maxPowerKw":0,"isMegawatt":false,"status":"AVAILABLE","source":"ndw"}},{"type":"Feature","geometry":{"type":"Point","coordinates":[4.854462,52.296846]},"properties":{"type":"charge","layer":"passenger","locationId":"7d787614-4f3c-11e8-8ce5-42010a840002","name":"NLD, Amstelveen, Van Maasdijklaan 12","address":"Van Maasdijklaan 12","city":"Amstelveen","operatorName":"Allego","maxPowerKw":0,"isMegawatt":false,"status":"AVAILABLE","source":"ndw"}},{"type":"Feature","geometry":{"type":"Point","coordinates":[4.899059,52.301247]},"properties":{"type":"charge","layer":"passenger","locationId":"83f8d038-9baa-11ec-acd3-42010a840003","name":"NL, Oostermeerweg 34, 1184 TD Amstelveen","address":"Oostermeerweg 34","city":"Amstelveen","operatorName":"Allego","maxPowerKw":0,"isMegawatt":false,"status":"AVAILABLE","source":"ndw"}},{"type":"Feature","geometry":{"type":"Point","coordinates":[4.862927,52.31808]},"properties":{"type":"charge","layer":"passenger","locationId":"8d2817e0-4f3c-11e8-a3ec-42010a840002","name":"NLD, Amstelveen, Jacob de Graeflaan 24","address":"Jacob de Graeflaan 24","city":"Amstelveen","operatorName":"Allego","maxPowerKw":0,"isMegawatt":false,"status":"AVAILABLE","source":"ndw"}},{"type":"Feature","geometry":{"type":"Point","coordinates":[4.882878,52.305832]},"properties":{"type":"charge","layer":"passenger","locationId":"9bccfa58-8c78-11e8-a9c4-42010a840002","name":"NLD, Amstelveen, Marie Baronlaan 51","address":"Marie Baronlaan 51","city":"Amstelveen","operatorName":"Allego","maxPowerKw":0,"isMegawatt":false,"status":"CHARGING","source":"ndw"}},{"type":"Feature","geometry":{"type":"Point","coordinates":[4.848444,52.296115]},"properties":{"type":"charge","layer":"passenger","locationId":"a2a5b35a-702f-11ea-9f2c-42010a840003","name":"NLD, Amstelveen, Magnolialaan 43","address":"Magnolialaan 43","city":"Amstelveen","operatorName":"Allego","maxPowerKw":0,"isMegawatt":false,"status":"AVAILABLE","source":"ndw"}},{"type":"Feature","geometry":{"type":"Point","coordinates":[4.844902,52.284556]},"properties":{"type":"charge","layer":"passenger","locationId":"b08af02c-4f3c-11e8-a712-42010a840002","name":"NLD, Amstelveen, Chirurgijn 8","address":"Chirurgijn 8","city":"Amstelveen","operatorName":"Allego","maxPowerKw":0,"isMegawatt":false,"status":"AVAILABLE","source":"ndw"}},{"type":"Feature","geometry":{"type":"Point","coordinates":[4.867711,52.321485]},"properties":{"type":"charge","layer":"passenger","locationId":"cd39a36c-d54e-11eb-ae61-42010a840003","name":"NL, Bos en Vaartlaan, 122H, 1181ag, Amstelveen","address":"Bos en Vaartlaan 122H","city":"Amstelveen","operatorName":"Allego","maxPowerKw":0,"isMegawatt":false,"status":"AVAILABLE","source":"ndw"}},{"type":"Feature","geometry":{"type":"Point","coordinates":[4.85504,52.313438]},"properties":{"type":"charge","layer":"passenger","locationId":"e47f5ff0-8354-11ea-90a1-42010a840003","name":"NL, Bella Donna 4, 1181 RM, Amstelveen","address":"Bella Donna 4","city":"Amstelveen","operatorName":"Allego","maxPowerKw":0,"isMegawatt":false,"status":"CHARGING","source":"ndw"}},{"type":"Feature","geometry":{"type":"Point","coordinates":[4.882007,52.307866]},"properties":{"type":"charge","layer":"passenger","locationId":"f4369e3c-aa9f-11ea-9bf2-42010a840003","name":"NL, Lien Gisolflaan 1, 1183 WT, Amstelveen","address":"Lien Gisolflaan 1","city":"Amstelveen","operatorName":"Allego","maxPowerKw":0,"isMegawatt":false,"status":"AVAILABLE","source":"ndw"}},{"type":"Feature","geometry":{"type":"Point","coordinates":[4.877721,52.29271]},"properties":{"type":"charge","layer":"passenger","locationId":"df9d83a0-eaf6-11ee-9a03-42010aa400b8","name":"TNLP008799","address":"Langs de Akker 2","city":"Amstelveen","operatorName":"TotalEnergies","maxPowerKw":14,"isMegawatt":false,"status":"AVAILABLE","source":"ndw"}},{"type":"Feature","geometry":{"type":"Point","coordinates":[4.87102,52.286558]},"properties":{"type":"charge","layer":"passenger","locationId":"0c0421e0-2ff1-11e9-a436-42010a840003","name":"NLD, Amstelveen, Mississippi 29","address":"Mississippi 29","city":"Amstelveen","operatorName":"Allego","maxPowerKw":0,"isMegawatt":false,"status":"AVAILABLE","source":"ndw"}},{"type":"Feature","geometry":{"type":"Point","coordinates":[4.881888,52.308722]},"properties":{"type":"charge","layer":"passenger","locationId":"5fdfcb3e-4f3c-11e8-ba83-42010a840002","name":"NLD, Amstelveen, Fanny Blankers-Koenlaan 56","address":"Fanny Blankers-Koenlaan 56","city":"Amstelveen","operatorName":"Allego","maxPowerKw":0,"isMegawatt":false,"status":"AVAILABLE","source":"ndw"}},{"type":"Feature","geometry":{"type":"Point","coordinates":[4.857635,52.279344]},"properties":{"type":"charge","layer":"passenger","locationId":"6994f694-9eb0-11e9-84e6-42010a840003","name":"NLD, Praam 144, Amstelveen 1186 TM","address":"Praam 144","city":"Amstelveen","operatorName":"Allego","maxPowerKw":0,"isMegawatt":false,"status":"AVAILABLE","source":"ndw"}},{"type":"Feature","geometry":{"type":"Point","coordinates":[4.852092,52.278087]},"properties":{"type":"charge","layer":"passenger","locationId":"8d2eb2bc-4f3c-11e8-a8ab-42010a840002","name":"NLD, Amstelveen, Pallas 1","address":"Pallas 1","city":"Amstelveen","operatorName":"Allego","maxPowerKw":0,"isMegawatt":false,"status":"AVAILABLE","source":"ndw"}},{"type":"Feature","geometry":{"type":"Point","coordinates":[4.850034,52.292172]},"properties":{"type":"charge","layer":"passenger","locationId":"22dcfaa0-8408-11f0-9d15-42010aa400b8","name":"TNLP015146","address":"Appellaan 8","city":"Amstelveen","operatorName":"TotalEnergies","maxPowerKw":17,"isMegawatt":false,"status":"AVAILABLE","source":"ndw"}},{"type":"Feature","geometry":{"type":"Point","coordinates":[4.870194,52.313684]},"properties":{"type":"charge","layer":"passenger","locationId":"892f10e2-cb19-11f0-ae96-42010aa400b8","name":"TNLP034077","address":"Biesbosch 79","city":"Amstelveen","operatorName":"TotalEnergies","maxPowerKw":14,"isMegawatt":false,"status":"AVAILABLE","source":"ndw"}},{"type":"Feature","geometry":{"type":"Point","coordinates":[4.827243,52.276475]},"properties":{"type":"charge","layer":"passenger","locationId":"b9d5b414-b719-11ee-a544-42010aa40fc0","name":"TNLP015074","address":"Ina Boudier-Bakkerlaan 28","city":"Amstelveen","operatorName":"TotalEnergies","maxPowerKw":17,"isMegawatt":false,"status":"AVAILABLE","source":"ndw"}},{"type":"Feature","geometry":{"type":"Point","coordinates":[4.837538,52.27504]},"properties":{"type":"charge","layer":"passenger","locationId":"630c1914-b1f1-11eb-9598-42010a840003","name":"NL, Zilverschoonlaan, 132, 1187EC, Amstelveen","address":"Zilverschoonlaan 132","city":"Amstelveen","operatorName":"Allego","maxPowerKw":0,"isMegawatt":false,"status":"AVAILABLE","source":"ndw"}},{"type":"Feature","geometry":{"type":"Point","coordinates":[4.861295,52.310606]},"properties":{"type":"charge","layer":"passenger","locationId":"74cd92d4-6ad3-11e9-8465-42010a840003","name":"NLD, Amstelveen, Zonnestein 1","address":"Zonnestein 1","city":"Amstelveen","operatorName":"Allego","maxPowerKw":0,"isMegawatt":false,"status":"AVAILABLE","source":"ndw"}},{"type":"Feature","geometry":{"type":"Point","coordinates":[4.827783,52.273682]},"properties":{"type":"charge","layer":"passenger","locationId":"7ebebb3c-4f3c-11e8-a361-42010a840002","name":"NLD, Amstelveen, Herman de Manlaan 1","address":"Herman de Manlaan 1","city":"Amstelveen","operatorName":"Allego","maxPowerKw":0,"isMegawatt":false,"status":"AVAILABLE","source":"ndw"}},{"type":"Feature","geometry":{"type":"Point","coordinates":[4.847414,52.297191]},"properties":{"type":"charge","layer":"passenger","locationId":"f27be4ec-1324-11eb-8028-42010a840033","name":"NL, Kastanjelaan 68, 1185 KC Amstelveen","address":"Kastanjelaan 68","city":"Amstelveen","operatorName":"Allego","maxPowerKw":0,"isMegawatt":false,"status":"AVAILABLE","source":"ndw"}},{"type":"Feature","geometry":{"type":"Point","coordinates":[4.824768,52.286782]},"properties":{"type":"charge","layer":"passenger","locationId":"807adf76-c1af-11f0-9b54-42010aa400b8","name":"TNLP034263","address":"Ockenburgh 44","city":"Amstelveen","operatorName":"TotalEnergies","maxPowerKw":14,"isMegawatt":false,"status":"AVAILABLE","source":"ndw"}},{"type":"Feature","geometry":{"type":"Point","coordinates":[4.813385,52.277998]},"properties":{"type":"charge","layer":"passenger","locationId":"91d374ba-bcf3-11f0-92ed-42010aa400b8","name":"TNLP015185","address":"Drakensteyn 10","city":"Amstelveen","operatorName":"TotalEnergies","maxPowerKw":17,"isMegawatt":false,"status":"AVAILABLE","source":"ndw"}},{"type":"Feature","geometry":{"type":"Point","coordinates":[4.83729,52.273154]},"properties":{"type":"charge","layer":"passenger","locationId":"2bc7d4a4-5764-11ea-a526-42010a840003","name":"NL, Sintjanskruidlaan 88, 1187ED, Amstelveen","address":"Sintjanskruidlaan 88","city":"Amstelveen","operatorName":"Allego","maxPowerKw":0,"isMegawatt":false,"status":"AVAILABLE","source":"ndw"}},{"type":"Feature","geometry":{"type":"Point","coordinates":[4.866983,52.280884]},"properties":{"type":"charge","layer":"passenger","locationId":"5fd8163c-4f3c-11e8-b337-42010a840002","name":"NLD, Amstelveen, Turfschip 134","address":"Turfschip 134","city":"Amstelveen","operatorName":"Allego","maxPowerKw":0,"isMegawatt":false,"status":"AVAILABLE","source":"ndw"}},{"type":"Feature","geometry":{"type":"Point","coordinates":[4.820571,52.278559]},"properties":{"type":"charge","layer":"passenger","locationId":"955714a4-37dc-11ef-8026-42010aa400b8","name":"NLD, Amstelveen, Cannenburgh 2","address":"Cannenburgh 2","city":"Amstelveen","operatorName":"Allego","maxPowerKw":0,"isMegawatt":false,"status":"AVAILABLE","source":"ndw"}},{"type":"Feature","geometry":{"type":"Point","coordinates":[4.86901,52.285317]},"properties":{"type":"charge","layer":"passenger","locationId":"f42add4a-aa9f-11ea-bbf0-42010a840003","name":"NL, Ganges 7, 1186 JH, Amstelveen","address":"Ganges 7","city":"Amstelveen","operatorName":"Allego","maxPowerKw":0,"isMegawatt":false,"status":"AVAILABLE","source":"ndw"}},{"type":"Feature","geometry":{"type":"Point","coordinates":[4.829569,52.27722]},"properties":{"type":"charge","layer":"passenger","locationId":"64f05e02-4163-11ea-bc1a-42010a840003","name":"NL, Bertha Von Suttnerlaan 71, 1187 ST, Amstelveen","address":"Bertha Von Suttnerlaan 71","city":"Amstelveen","operatorName":"Allego","maxPowerKw":0,"isMegawatt":false,"status":"AVAILABLE","source":"ndw"}},{"type":"Feature","geometry":{"type":"Point","coordinates":[4.860819,52.302076]},"properties":{"type":"charge","layer":"passenger","locationId":"6df6b450-a131-11ea-b50f-42010a840003","name":"NL, Meander 435, 1181 WN, Amstelveen","address":"Meander 435","city":"Amstelveen","operatorName":"Allego","maxPowerKw":0,"isMegawatt":false,"status":"AVAILABLE","source":"ndw"}},{"type":"Feature","geometry":{"type":"Point","coordinates":[4.878137,52.309304]},"properties":{"type":"charge","layer":"passenger","locationId":"99361b14-1a45-11eb-b661-42010a840003","name":"NL, Straat van Mozambique 10, 1183 GR Amstelveen","address":"Straat van Mozambique 10","city":"Amstelveen","operatorName":"Allego","maxPowerKw":0,"isMegawatt":false,"status":"AVAILABLE","source":"ndw"}},{"type":"Feature","geometry":{"type":"Point","coordinates":[4.880068,52.305714]},"properties":{"type":"charge","layer":"passenger","locationId":"bd3b5958-2f27-11e9-a8e9-42010a840003","name":"NLD, Amstelveen, Camera Obscuralaan 83","address":"Camera Obscuralaan 83","city":"Amstelveen","operatorName":"Allego","maxPowerKw":0,"isMegawatt":false,"status":"AVAILABLE","source":"ndw"}},{"type":"Feature","geometry":{"type":"Point","coordinates":[4.847472,52.315963]},"properties":{"type":"charge","layer":"passenger","locationId":"d7e56788-ebb2-11e9-9036-42010a840003","name":"NLD, Amstelveen, Prins Bernhardlaan 1","address":"Prins Bernhardlaan 1","city":"Amstelveen","operatorName":"Allego","maxPowerKw":0,"isMegawatt":false,"status":"AVAILABLE","source":"ndw"}},{"type":"Feature","geometry":{"type":"Point","coordinates":[4.860545,52.306842]},"properties":{"type":"charge","layer":"passenger","locationId":"1ee008cc-99d5-11e8-add7-42010a840002","name":"NLD, Amstelveen, De Ruyschlaan 151","address":"De Ruyschlaan 151","city":"Amstelveen","operatorName":"Allego","maxPowerKw":0,"isMegawatt":false,"status":"CHARGING","source":"ndw"}},{"type":"Feature","geometry":{"type":"Point","coordinates":[4.859126,52.320709]},"properties":{"type":"charge","layer":"passenger","locationId":"1f842eda-30ba-11e9-8f42-42010a840003","name":"NLD, Amstelveen, Plantsoen Laanhorn 1","address":"Plantsoen Laanhorn 1","city":"Amstelveen","operatorName":"Allego","maxPowerKw":0,"isMegawatt":false,"status":"AVAILABLE","source":"ndw"}},{"type":"Feature","geometry":{"type":"Point","coordinates":[4.845279,52.278982]},"properties":{"type":"charge","layer":"passenger","locationId":"23205c00-c234-11ea-83e5-42010a840003","name":"NL, De hoorn 1, 1188 HG. Amstelveen","address":"De hoorn 1","city":"Amstelveen","operatorName":"Allego","maxPowerKw":0,"isMegawatt":false,"status":"AVAILABLE","source":"ndw"}},{"type":"Feature","geometry":{"type":"Point","coordinates":[4.854706,52.315505]},"properties":{"type":"charge","layer":"passenger","locationId":"81e736da-123c-11ea-a334-42010a840003","name":"NLD, Amstelveen, Amsterdamseweg 391","address":"Amsterdamseweg 391","city":"Amstelveen","operatorName":"Allego","maxPowerKw":0,"isMegawatt":false,"status":"AVAILABLE","source":"ndw"}},{"type":"Feature","geometry":{"type":"Point","coordinates":[4.855259,52.292963]},"properties":{"type":"charge","layer":"passenger","locationId":"8dc009c4-4f3c-11e8-8170-42010a840002","name":"NL, Lindenlaan 173, 1185 LG, Amstelveen","address":"Lindenlaan 173","city":"Amstelveen","operatorName":"Allego","maxPowerKw":0,"isMegawatt":false,"status":"AVAILABLE","source":"ndw"}},{"type":"Feature","geometry":{"type":"Point","coordinates":[4.857911,52.283538]},"properties":{"type":"charge","layer":"passenger","locationId":"c266297e-c013-11f0-898a-42010aa400b8","name":"TNLP015203","address":"Voerman 14","city":"Amstelveen","operatorName":"TotalEnergies","maxPowerKw":17,"isMegawatt":false,"status":"CHARGING","source":"ndw"}},{"type":"Feature","geometry":{"type":"Point","coordinates":[4.865784,52.296473]},"properties":{"type":"charge","layer":"passenger","locationId":"896350d4-4f3c-11e8-8d7d-42010a840002","name":"NLD, Amstelveen, Kierkegaardstraat 51","address":"Kierkegaardstraat 51-K","city":"Amstelveen","operatorName":"Allego","maxPowerKw":0,"isMegawatt":false,"status":"AVAILABLE","source":"ndw"}},{"type":"Feature","geometry":{"type":"Point","coordinates":[4.853237,52.307966]},"properties":{"type":"charge","layer":"passenger","locationId":"ca2df7a8-eb54-11e9-ba88-42010a840fe0","name":"TNLP015086","address":"Graaf Aelbrechtlaan 39","city":"Amstelveen","operatorName":"TotalEnergies","maxPowerKw":17,"isMegawatt":false,"status":"CHARGING","source":"ndw"}},{"type":"Feature","geometry":{"type":"Point","coordinates":[4.866314,52.276669]},"properties":{"type":"charge","layer":"passenger","locationId":"5f9f21d8-4f3c-11e8-af55-42010a840002","name":"NLD, Amstelveen, Stuwdam 15","address":"Stuwdam 15","city":"Amstelveen","operatorName":"Allego","maxPowerKw":0,"isMegawatt":false,"status":"AVAILABLE","source":"ndw"}},{"type":"Feature","geometry":{"type":"Point","coordinates":[4.868811,52.305258]},"properties":{"type":"charge","layer":"passenger","locationId":"7d64347e-4f3c-11e8-b358-42010a840002","name":"NLD, Amstelveen, Karel Doormanweg 1","address":"Karel Doormanweg 1","city":"Amstelveen","operatorName":"Allego","maxPowerKw":0,"isMegawatt":false,"status":"AVAILABLE","source":"ndw"}},{"type":"Feature","geometry":{"type":"Point","coordinates":[4.864347,52.315701]},"properties":{"type":"charge","layer":"passenger","locationId":"7d7f1262-4f3c-11e8-8c53-42010a840002","name":"NLD, Amstelveen, Vlielandstraat 6","address":"Vlielandstraat 6","city":"Amstelveen","operatorName":"Allego","maxPowerKw":0,"isMegawatt":false,"status":"AVAILABLE","source":"ndw"}},{"type":"Feature","geometry":{"type":"Point","coordinates":[4.832065,52.279041]},