{"type":"FeatureCollection","metadata":{"gemeente":"Assen","slug":"assen","code":"GM0106","generated_at":"2026-06-02T13:19:22.438Z","total_passenger":342,"total_freight":1,"bounds":[6.483947974072229,52.93251576524228,6.6326464754719785,53.06175868078959],"operators":["Allego","DAEN Mobility","E-Flux by Road","EQUANS","Eneco","Fastned","IPCharging","Laadnet","Opcharge","PowerGo","Shell Recharge","Spirii","Tango electric","Tesla","Valk Energy","Vattenfall InCharge"]},"features":[{"type":"Feature","geometry":{"type":"Point","coordinates":[6.507149,53.003476]},"properties":{"type":"charge","layer":"passenger","locationId":"91145305","name":"Equans Groningen Drenthe Hazelaarhof 73","address":"Hazelaarhof 73","city":"Assen","operatorName":"EQUANS","maxPowerKw":0,"isMegawatt":false,"status":"AVAILABLE","source":"ndw"}},{"type":"Feature","geometry":{"type":"Point","coordinates":[6.554293,52.999709]},"properties":{"type":"charge","layer":"passenger","locationId":"NLLOC012523","name":"NL, Einthovenstraat 12, 9402CB, Assen","address":"Einthovenstraat 12","city":"Assen","operatorName":"Allego","maxPowerKw":0,"isMegawatt":false,"status":"UNAVAILABLE","source":"ndw"}},{"type":"Feature","geometry":{"type":"Point","coordinates":[6.59074,53.01874]},"properties":{"type":"charge","layer":"passenger","locationId":"91448264","name":"Equans Groningen Drenthe Tarwehullen 56","address":"Tarwehullen 56","city":"Assen","operatorName":"EQUANS","maxPowerKw":0,"isMegawatt":false,"status":"AVAILABLE","source":"ndw"}},{"type":"Feature","geometry":{"type":"Point","coordinates":[6.58925,53.01884]},"properties":{"type":"charge","layer":"passenger","locationId":"91145029","name":"Equans Groningen Drenthe Weidebeemd 77","address":"Weidebeemd 77","city":"Assen","operatorName":"EQUANS","maxPowerKw":0,"isMegawatt":false,"status":"AVAILABLE","source":"ndw"}},{"type":"Feature","geometry":{"type":"Point","coordinates":[6.589879,53.010933]},"properties":{"type":"charge","layer":"passenger","locationId":"9c1c19b8-90a8-11ef-9b3f-42010aa400b8","name":"Basic-Fit 1201 Assen Nijverheidsweg (PowerGo)","address":"Nijverheidsweg 1","city":"Assen","operatorName":"PowerGo","maxPowerKw":0,"isMegawatt":false,"status":"AVAILABLE","source":"ndw"}},{"type":"Feature","geometry":{"type":"Point","coordinates":[6.57953,52.98846]},"properties":{"type":"charge","layer":"passenger","locationId":"91145021","name":"Equans Groningen Drenthe Dotterbloemstraat 41","address":"Dotterbloemstraat 41","city":"Assen","operatorName":"EQUANS","maxPowerKw":0,"isMegawatt":false,"status":"AVAILABLE","source":"ndw"}},{"type":"Feature","geometry":{"type":"Point","coordinates":[6.569804,52.986776]},"properties":{"type":"charge","layer":"passenger","locationId":"NLLOC016089","name":"NL, Anemoonstraat 151, 9404 RE Assen","address":"Anemoonstraat 151","city":"Assen","operatorName":"Allego","maxPowerKw":0,"isMegawatt":false,"status":"AVAILABLE","source":"ndw"}},{"type":"Feature","geometry":{"type":"Point","coordinates":[6.532647,53.002691]},"properties":{"type":"charge","layer":"passenger","locationId":"91246417","name":"Equans Groningen Drenthe Mien Ruysweg 10 A17","address":"Mien Ruysweg 10 A17","city":"Assen","operatorName":"EQUANS","maxPowerKw":0,"isMegawatt":false,"status":"AVAILABLE","source":"ndw"}},{"type":"Feature","geometry":{"type":"Point","coordinates":[6.561209,52.992863]},"properties":{"type":"charge","layer":"passenger","locationId":"OST23P0069_0062_0","name":"OST23P0069_0062_0","address":"Torenlaan 18","city":"Assen","operatorName":"IPCharging","maxPowerKw":0,"isMegawatt":false,"status":"AVAILABLE","source":"ndw"}},{"type":"Feature","geometry":{"type":"Point","coordinates":[6.589879,53.0109329]},"properties":{"type":"charge","layer":"passenger","locationId":"23613","name":"Basic-Fit 1201 Assen Nijverheidsweg (PowerGo)","address":"Nijverheidsweg 1","city":"Assen","operatorName":"PowerGo","maxPowerKw":0,"isMegawatt":false,"status":"AVAILABLE","source":"ndw"}},{"type":"Feature","geometry":{"type":"Point","coordinates":[6.560816,52.997963]},"properties":{"type":"charge","layer":"passenger","locationId":"OST23P0069_0022_1","name":"OST23P0069_0022_1","address":"Neptunusplein 16","city":"Assen","operatorName":"IPCharging","maxPowerKw":0,"isMegawatt":false,"status":"AVAILABLE","source":"ndw"}},{"type":"Feature","geometry":{"type":"Point","coordinates":[6.555857,53.001436]},"properties":{"type":"charge","layer":"passenger","locationId":"91145257","name":"Equans Groningen Drenthe Thorbeckelaan 72 TO","address":"Thorbeckelaan 72","city":"Assen","operatorName":"EQUANS","maxPowerKw":0,"isMegawatt":false,"status":"AVAILABLE","source":"ndw"}},{"type":"Feature","geometry":{"type":"Point","coordinates":[6.558039,52.99719]},"properties":{"type":"charge","layer":"passenger","locationId":"NLLOC024858","name":"NL, Burgemeester de Dreuplein 108, 9401 CM Assen","address":"Burgemeester de Dreuplein 108","city":"Assen","operatorName":"Allego","maxPowerKw":0,"isMegawatt":false,"status":"AVAILABLE","source":"ndw"}},{"type":"Feature","geometry":{"type":"Point","coordinates":[6.541243,53.007679]},"properties":{"type":"charge","layer":"passenger","locationId":"340e31ac-6290-11eb-9081-42010a840003","name":"NL, Amstelstraat 259, 9406 TW Assen","address":"Amstelstraat 295","city":"Assen","operatorName":"Allego","maxPowerKw":0,"isMegawatt":false,"status":"AVAILABLE","source":"ndw"}},{"type":"Feature","geometry":{"type":"Point","coordinates":[6.555064,53.003465]},"properties":{"type":"charge","layer":"passenger","locationId":"7cb48814-82b3-11f0-bfb1-42010aa400b8","name":"NL, Talmastraat 43, 9402 HB Assen","address":"Talmastraat 43","city":"Assen","operatorName":"Allego","maxPowerKw":0,"isMegawatt":false,"status":"AVAILABLE","source":"ndw"}},{"type":"Feature","geometry":{"type":"Point","coordinates":[6.562787,52.99695]},"properties":{"type":"charge","layer":"passenger","locationId":"250a01ae-ef6a-11ed-af3f-42010aa40fc0","name":"NL, Oude Molenstraat 40-A, 9401 DD Assen","address":"Oude Molenstraat 40-A","city":"Assen","operatorName":"Allego","maxPowerKw":0,"isMegawatt":false,"status":"AVAILABLE","source":"ndw"}},{"type":"Feature","geometry":{"type":"Point","coordinates":[6.571987,52.988201]},"properties":{"type":"charge","layer":"passenger","locationId":"03001cbe-e054-11eb-acff-42010a840003","name":"NL, Lodewijk Napoleonplein 2, 9404 RS Assen","address":"Lodewijk Napoleonplein 2","city":"Assen","operatorName":"Allego","maxPowerKw":0,"isMegawatt":false,"status":"AVAILABLE","source":"ndw"}},{"type":"Feature","geometry":{"type":"Point","coordinates":[6.576242,52.992278]},"properties":{"type":"charge","layer":"passenger","locationId":"7d91a94c-bb21-11ea-9b59-42010a840003","name":"NL, Oosterpark 92, 9404 BK, Assen","address":"Oosterpark 92","city":"Assen","operatorName":"Allego","maxPowerKw":0,"isMegawatt":false,"status":"AVAILABLE","source":"ndw"}},{"type":"Feature","geometry":{"type":"Point","coordinates":[6.552964,52.997548]},"properties":{"type":"charge","layer":"passenger","locationId":"defdaee6-61fc-11ec-a592-42010a840003","name":"NL, Mr. P.J. Troelstralaan 214, 9406 BE Assen","address":"Mr. P.J. Troelstralaan 214","city":"Assen","operatorName":"Allego","maxPowerKw":0,"isMegawatt":false,"status":"AVAILABLE","source":"ndw"}},{"type":"Feature","geometry":{"type":"Point","coordinates":[6.576272,53.028572]},"properties":{"type":"charge","layer":"passenger","locationId":"2664180","name":"Laadnet Dronabas BV","address":"Zwedenlaan 3","city":"Assen","operatorName":"Laadnet","maxPowerKw":22,"isMegawatt":false,"status":"AVAILABLE","source":"ndw"}},{"type":"Feature","geometry":{"type":"Point","coordinates":[6.561498,53.002929]},"properties":{"type":"charge","layer":"passenger","locationId":"0a9d670e-e8f8-11eb-8d53-42010a840003","name":"NL, Thorbeckelaan 2, 9402ER Assen","address":"Thorbeckelaan 2","city":"Assen","operatorName":"Allego","maxPowerKw":0,"isMegawatt":false,"status":"AVAILABLE","source":"ndw"}},{"type":"Feature","geometry":{"type":"Point","coordinates":[6.556817,53.006473]},"properties":{"type":"charge","layer":"passenger","locationId":"687ea82c-7d48-11eb-b4cf-42010a840003","name":"NL, Mensingestraat 15, 9402RP, Assen","address":"Mensingestraat 15","city":"Assen","operatorName":"Allego","maxPowerKw":0,"isMegawatt":false,"status":"AVAILABLE","source":"ndw"}},{"type":"Feature","geometry":{"type":"Point","coordinates":[6.556966,53.015812]},"properties":{"type":"charge","layer":"passenger","locationId":"80dd1458-937b-11ed-a77a-42010aa40fc0","name":"NL, Wolvenveen 3, 9407 HK Assen","address":"Wolvenveen 3","city":"Assen","operatorName":"Allego","maxPowerKw":0,"isMegawatt":false,"status":"AVAILABLE","source":"ndw"}},{"type":"Feature","geometry":{"type":"Point","coordinates":[6.565121,52.995488]},"properties":{"type":"charge","layer":"passenger","locationId":"f72f5f3c-86b5-11eb-ae60-42010a840003","name":"NL, Menning 1, 9401 AK Assen","address":"Menning 1","city":"Assen","operatorName":"Allego","maxPowerKw":0,"isMegawatt":false,"status":"AVAILABLE","source":"ndw"}},{"type":"Feature","geometry":{"type":"Point","coordinates":[6.569315,52.990216]},"properties":{"type":"charge","layer":"passenger","locationId":"ceb84374-fc35-11ec-81b6-42010aa40fc4","name":"Eneco eMobility NS Overcingellaan 7B Assen","address":"Overcingellaan 7B","city":"Assen","operatorName":"Eneco","maxPowerKw":22,"isMegawatt":false,"status":"AVAILABLE","source":"ndw"}},{"type":"Feature","geometry":{"type":"Point","coordinates":[6.559169,52.997786]},"properties":{"type":"charge","layer":"passenger","locationId":"OST23P0069_0025_0","name":"OST23P0069_0025_0","address":"Apollopad 72","city":"Assen","operatorName":"IPCharging","maxPowerKw":0,"isMegawatt":false,"status":"AVAILABLE","source":"ndw"}},{"type":"Feature","geometry":{"type":"Point","coordinates":[6.559169,52.997786]},"properties":{"type":"charge","layer":"passenger","locationId":"OST23P0069_0025_1","name":"OST23P0069_0025_1","address":"Apollopad 72","city":"Assen","operatorName":"IPCharging","maxPowerKw":0,"isMegawatt":false,"status":"AVAILABLE","source":"ndw"}},{"type":"Feature","geometry":{"type":"Point","coordinates":[6.54383,53.016058]},"properties":{"type":"charge","layer":"passenger","locationId":"0a744450-74fb-11ee-8de3-42010aa40fc0","name":"Fastned Zeyerveen","address":"Zeyerveen, A28","city":"Assen","operatorName":"Fastned","maxPowerKw":300,"isMegawatt":false,"status":"AVAILABLE","source":"ndw"}},{"type":"Feature","geometry":{"type":"Point","coordinates":[6.513192,52.994718]},"properties":{"type":"charge","layer":"passenger","locationId":"0e1c3b16-eea1-11ed-861c-42010aa40fc0","name":"NL, Uranusstraat 27, 9405 PK Assen","address":"Uranusstraat 27","city":"Assen","operatorName":"Allego","maxPowerKw":0,"isMegawatt":false,"status":"AVAILABLE","source":"ndw"}},{"type":"Feature","geometry":{"type":"Point","coordinates":[6.54613,52.97822]},"properties":{"type":"charge","layer":"passenger","locationId":"91243793","name":"Equans Groningen Drenthe Boskamp 5","address":"Boskamp 5","city":"Assen","operatorName":"EQUANS","maxPowerKw":0,"isMegawatt":false,"status":"AVAILABLE","source":"ndw"}},{"type":"Feature","geometry":{"type":"Point","coordinates":[6.585433,53.009735]},"properties":{"type":"charge","layer":"passenger","locationId":"5cd90562-d40d-11ed-9225-42010aa40fc0","name":"Shell Recharge Stelmakerstraat 32","address":"Stelmakerstraat 32","city":"Assen","operatorName":"Shell Recharge","maxPowerKw":0,"isMegawatt":false,"status":"AVAILABLE","source":"ndw"}},{"type":"Feature","geometry":{"type":"Point","coordinates":[6.55575,53.02218]},"properties":{"type":"charge","layer":"passenger","locationId":"50884","name":"Fastned Peelerveld","address":"Peelerveld","city":"Ter Aard","operatorName":"Fastned","maxPowerKw":300,"isMegawatt":false,"status":"AVAILABLE","source":"ndw"}},{"type":"Feature","geometry":{"type":"Point","coordinates":[6.589879,53.010933]},"properties":{"type":"charge","layer":"passenger","locationId":"9c1c19b8-90a8-11ef-9b3f-42010aa400b8","name":"Basic-Fit 1201 Assen Nijverheidsweg (PowerGo)","address":"Nijverheidsweg 1","city":"Assen","operatorName":"PowerGo","maxPowerKw":0,"isMegawatt":false,"status":"AVAILABLE","source":"ndw"}},{"type":"Feature","geometry":{"type":"Point","coordinates":[6.569222,52.989441]},"properties":{"type":"charge","layer":"passenger","locationId":"0072ddc0-c082-11f0-8153-42010aa400b8","name":"Tango Assen 1-2","address":"Overcingellaan 9","city":"Assen","operatorName":"Tango electric","maxPowerKw":300,"isMegawatt":false,"status":"AVAILABLE","source":"ndw"}},{"type":"Feature","geometry":{"type":"Point","coordinates":[6.56117,53.0173]},"properties":{"type":"charge","layer":"passenger","locationId":"91145035","name":"Equans Groningen Drenthe Scharmbarg 26","address":"Scharmbarg 26","city":"Assen","operatorName":"EQUANS","maxPowerKw":0,"isMegawatt":false,"status":"AVAILABLE","source":"ndw"}},{"type":"Feature","geometry":{"type":"Point","coordinates":[6.55163,53.00682]},"properties":{"type":"charge","layer":"passenger","locationId":"91145011","name":"Equans Groningen Drenthe Schultestraat 7","address":"Schultestraat 7","city":"Assen","operatorName":"EQUANS","maxPowerKw":0,"isMegawatt":false,"status":"AVAILABLE","source":"ndw"}},{"type":"Feature","geometry":{"type":"Point","coordinates":[6.57904,53.02677]},"properties":{"type":"charge","layer":"passenger","locationId":"0dc951be-51a0-11ee-842c-42010aa40fc0","name":"Eneco eMobility Broekhuis Assen autoschade","address":"Duitslandlaan 6","city":"Assen","operatorName":"Eneco","maxPowerKw":22,"isMegawatt":false,"status":"AVAILABLE","source":"ndw"}},{"type":"Feature","geometry":{"type":"Point","coordinates":[6.58446,53.01549]},"properties":{"type":"charge","layer":"passenger","locationId":"91401072","name":"Equans Groningen Drenthe Muddegoorn 20","address":"Muddegoorn 20","city":"Assen","operatorName":"EQUANS","maxPowerKw":0,"isMegawatt":false,"status":"AVAILABLE","source":"ndw"}},{"type":"Feature","geometry":{"type":"Point","coordinates":[6.556488,52.972029]},"properties":{"type":"charge","layer":"passenger","locationId":"3804315","name":"Laadnet Cegelec Infra BV - Assen","address":"Korenmaat 4","city":"Assen","operatorName":"Laadnet","maxPowerKw":22,"isMegawatt":false,"status":"AVAILABLE","source":"ndw"}},{"type":"Feature","geometry":{"type":"Point","coordinates":[6.548472,53.004421]},"properties":{"type":"charge","layer":"passenger","locationId":"3cb45e5c-c82f-11ec-8034-42010a840003","name":"NL, Zuidenveld 41, 9406 LH Assen","address":"Zuidenveld 41","city":"Assen","operatorName":"Allego","maxPowerKw":0,"isMegawatt":false,"status":"AVAILABLE","source":"ndw"}},{"type":"Feature","geometry":{"type":"Point","coordinates":[6.579365,52.988408]},"properties":{"type":"charge","layer":"passenger","locationId":"409912c0-db3c-11ee-af7f-42010aa40fc0","name":"NL, Dotterbloemstraat 41, 9404GG, Assen","address":"Dotterbloemstraat 41","city":"Assen","operatorName":"Allego","maxPowerKw":0,"isMegawatt":false,"status":"AVAILABLE","source":"ndw"}},{"type":"Feature","geometry":{"type":"Point","coordinates":[6.562916,52.989838]},"properties":{"type":"charge","layer":"passenger","locationId":"7d072a24-82b3-11f0-b619-42010aa400b8","name":"NL, Prinses Beatrixstraat 73, 9401 NX Assen","address":"Prinses Beatrixstraat 73","city":"Assen","operatorName":"Allego","maxPowerKw":0,"isMegawatt":false,"status":"AVAILABLE","source":"ndw"}},{"type":"Feature","geometry":{"type":"Point","coordinates":[6.581646,52.985117]},"properties":{"type":"charge","layer":"passenger","locationId":"904c009e-d264-11ec-9259-42010a840003","name":"NL, Speenkruidstraat 177, 9404 HH Assen","address":"Speenkruidstraat 177","city":"Assen","operatorName":"Allego","maxPowerKw":0,"isMegawatt":false,"status":"AVAILABLE","source":"ndw"}},{"type":"Feature","geometry":{"type":"Point","coordinates":[6.536593,52.99822]},"properties":{"type":"charge","layer":"passenger","locationId":"ba09c2bc-3acc-11eb-ac19-42010a840003","name":"NL, Stroom 4, 9406 ES Assen","address":"Stroom 4","city":"Assen","operatorName":"Allego","maxPowerKw":0,"isMegawatt":false,"status":"AVAILABLE","source":"ndw"}},{"type":"Feature","geometry":{"type":"Point","coordinates":[6.50856,52.998303]},"properties":{"type":"charge","layer":"passenger","locationId":"d5e60dc6-a332-11ed-8f68-42010aa40fc0","name":"NL, Dilletuin 2, 9408 AB Assen","address":"Dilletuin 2","city":"Assen","operatorName":"Allego","maxPowerKw":0,"isMegawatt":false,"status":"AVAILABLE","source":"ndw"}},{"type":"Feature","geometry":{"type":"Point","coordinates":[6.548496,53.001447]},"properties":{"type":"charge","layer":"passenger","locationId":"e48bca5a-02a3-11eb-9c0c-42010a840033","name":"NL, Nobellaan 285, 9406 AK, Assen","address":"Nobellaan 285","city":"Assen","operatorName":"Allego","maxPowerKw":0,"isMegawatt":false,"status":"AVAILABLE","source":"ndw"}},{"type":"Feature","geometry":{"type":"Point","coordinates":[6.577135,52.98635]},"properties":{"type":"charge","layer":"passenger","locationId":"NLLOC011819","name":"NL, Brunelstraat 77, 9404KD Assen","address":"Brunelstraat 77","city":"Assen","operatorName":"Allego","maxPowerKw":0,"isMegawatt":false,"status":"CHARGING","source":"ndw"}},{"type":"Feature","geometry":{"type":"Point","coordinates":[6.56902,52.9943]},"properties":{"type":"charge","layer":"passenger","locationId":"91220180","name":"Equans Groningen Drenthe Oranjestraat 37","address":"Oranjestraat 37","city":"Assen","operatorName":"EQUANS","maxPowerKw":0,"isMegawatt":false,"status":"AVAILABLE","source":"ndw"}},{"type":"Feature","geometry":{"type":"Point","coordinates":[6.547242,53.008707]},"properties":{"type":"charge","layer":"passenger","locationId":"1a15bee6-e440-11eb-be03-42010a840003","name":"NL, Rijnstraat 2, 9406SE Assen","address":"Rijnstraat 2","city":"Assen","operatorName":"Allego","maxPowerKw":0,"isMegawatt":false,"status":"AVAILABLE","source":"ndw"}},{"type":"Feature","geometry":{"type":"Point","coordinates":[6.547278,52.992707]},"properties":{"type":"charge","layer":"passenger","locationId":"NLLOC014694","name":"NL, Witterstraat 42, 9401SH, Assen","address":"Witterstraat 42","city":"Assen","operatorName":"Allego","maxPowerKw":0,"isMegawatt":false,"status":"AVAILABLE","source":"ndw"}},{"type":"Feature","geometry":{"type":"Point","coordinates":[6.556766,52.993913]},"properties":{"type":"charge","layer":"passenger","locationId":"0f6d0f60-0f36-11eb-a0ed-42010a840033","name":"NL, Vaart N.Z. 38, 9401 GN. Assen","address":"Vaart N.Z. 38","city":"Assen","operatorName":"Allego","maxPowerKw":0,"isMegawatt":false,"status":"CHARGING","source":"ndw"}},{"type":"Feature","geometry":{"type":"Point","coordinates":[6.563693,52.991431]},"properties":{"type":"charge","layer":"passenger","locationId":"1a7e9242-c4cc-11eb-a8d6-42010a840003","name":"NL, Oosterhoutstraat 7, 9401NA Assen","address":"Oosterhoutstraat 7","city":"Assen","operatorName":"Allego","maxPowerKw":0,"isMegawatt":false,"status":"AVAILABLE","source":"ndw"}},{"type":"Feature","geometry":{"type":"Point","coordinates":[6.54372,53.01602]},"properties":{"type":"charge","layer":"passenger","locationId":"50862","name":"Fastned Zeyerveen","address":"Verzorgingsplaats Zeijerveen 2","city":"Assen","operatorName":"Fastned","maxPowerKw":300,"isMegawatt":false,"status":"AVAILABLE","source":"ndw"}},{"type":"Feature","geometry":{"type":"Point","coordinates":[6.542175,53.001785]},"properties":{"type":"charge","layer":"passenger","locationId":"55de7e52-3439-11eb-b002-42010a840003","name":"NL, van der Scheerstraat 99, 9406 JM Assen","address":"van der Scheerstraat 99","city":"Assen","operatorName":"Allego","maxPowerKw":0,"isMegawatt":false,"status":"AVAILABLE","source":"ndw"}},{"type":"Feature","geometry":{"type":"Point","coordinates":[6.555778,52.992433]},"properties":{"type":"charge","layer":"passenger","locationId":"eca3a730-95db-11ed-8c24-42010aa40fc0","name":"NL, Prinses Irenestraat 3, 9401 HH Assen","address":"Prinses Irenestraat 3","city":"Assen","operatorName":"Allego","maxPowerKw":0,"isMegawatt":false,"status":"AVAILABLE","source":"ndw"}},{"type":"Feature","geometry":{"type":"Point","coordinates":[6.541598,52.984766]},"properties":{"type":"charge","layer":"passenger","locationId":"bb226d770dc242a4b293","name":"Hotel de Bonte Wever Assen","address":"Stadsbroek 17","city":"Assen","operatorName":"Opcharge","maxPowerKw":22,"isMegawatt":false,"status":"AVAILABLE","source":"ndw"}},{"type":"Feature","geometry":{"type":"Point","coordinates":[6.55575,53.02218]},"properties":{"type":"charge","layer":"passenger","locationId":"256e5206-d1a0-11f0-874d-42010aa400b8","name":"Fastned Peelerveld","address":"Peelerveld","city":"Ter Aard","operatorName":"Fastned","maxPowerKw":300,"isMegawatt":false,"status":"AVAILABLE","source":"ndw"}},{"type":"Feature","geometry":{"type":"Point","coordinates":[6.572056,53.025421]},"properties":{"type":"charge","layer":"passenger","locationId":"a8597e10-a772-11ef-b035-42010aa400b8","name":"Circle K Assen inz Messchenveld","address":"Peelo 22 A","city":"Assen","operatorName":"Spirii","maxPowerKw":0,"isMegawatt":false,"status":"AVAILABLE","source":"ndw"}},{"type":"Feature","geometry":{"type":"Point","coordinates":[6.55098,52.99825]},"properties":{"type":"charge","layer":"passenger","locationId":"91460133","name":"Equans Groningen Drenthe Kochstraat 2","address":"Kochstraat 2","city":"Assen","operatorName":"EQUANS","maxPowerKw":0,"isMegawatt":false,"status":"AVAILABLE","source":"ndw"}},{"type":"Feature","geometry":{"type":"Point","coordinates":[6.594195,53.014353]},"properties":{"type":"charge","layer":"passenger","locationId":"NLLOC022199","name":"NL, Briljantstoep 29, 9403 SC Assen","address":"Briljantstoep 29","city":"Assen","operatorName":"Allego","maxPowerKw":0,"isMegawatt":false,"status":"AVAILABLE","source":"ndw"}},{"type":"Feature","geometry":{"type":"Point","coordinates":[6.57124,53.00783]},"properties":{"type":"charge","layer":"passenger","locationId":"51a2d852-5565-11ed-9766-42010aa4004d","name":"Eneco eMobility Broekhuis Volvo Assen","address":"Industrieweg 42","city":"Assen","operatorName":"Eneco","maxPowerKw":22,"isMegawatt":false,"status":"AVAILABLE","source":"ndw"}},{"type":"Feature","geometry":{"type":"Point","coordinates":[6.57904,53.02677]},"properties":{"type":"charge","layer":"passenger","locationId":"F8C81B38-F2B6-4ABF-A903-A3E8B852FA07","name":"Eneco eMobility Broekhuis Assen autoschade","address":"Duitslandlaan 6","city":"Assen","operatorName":"Eneco","maxPowerKw":22,"isMegawatt":false,"status":"AVAILABLE","source":"ndw"}},{"type":"Feature","geometry":{"type":"Point","coordinates":[6.56356,53.02516]},"properties":{"type":"charge","layer":"passenger","locationId":"04b71162-fc36-11ec-8df9-42010aa40003","name":"Eneco eMobility Amerikaweg 18 Assen","address":"Amerikaweg 18","city":"Assen","operatorName":"Eneco","maxPowerKw":0,"isMegawatt":false,"status":"UNAVAILABLE","source":"ndw"}},{"type":"Feature","geometry":{"type":"Point","coordinates":[6.568529,53.026171]},"properties":{"type":"charge","layer":"passenger","locationId":"923434","name":"DAE-NL-2000112_P01","address":"Amerikaweg 3","city":"Assen","operatorName":"DAEN Mobility","maxPowerKw":22,"isMegawatt":false,"status":"AVAILABLE","source":"ndw"}},{"type":"Feature","geometry":{"type":"Point","coordinates":[6.54115,52.99065]},"properties":{"type":"charge","layer":"passenger","locationId":"515b5e06-ee46-11ef-bfd1-42010aa400b8","name":"Equans Groningen Drenthe Balkenweg 3A","address":"Balkenweg 3A","city":"Assen","operatorName":"EQUANS","maxPowerKw":0,"isMegawatt":false,"status":"AVAILABLE","source":"ndw"}},{"type":"Feature","geometry":{"type":"Point","coordinates":[6.54388,53.010843]},"properties":{"type":"charge","layer":"passenger","locationId":"83ab8078-cda8-11ec-bb3d-42010a840003","name":"Equans Groningen Drenthe IJselstraat 61","address":"IJselstraat 61","city":"Assen","operatorName":"EQUANS","maxPowerKw":0,"isMegawatt":false,"status":"AVAILABLE","source":"ndw"}},{"type":"Feature","geometry":{"type":"Point","coordinates":[6.508187,52.999009]},"properties":{"type":"charge","layer":"passenger","locationId":"bab486e0-425e-11f0-92be-42010aa400b8","name":"Equans Groningen Drenthe Aletta Jacobsweg 4e","address":"Aletta Jacobsweg 4e","city":"Assen","operatorName":"EQUANS","maxPowerKw":0,"isMegawatt":false,"status":"AVAILABLE","source":"ndw"}},{"type":"Feature","geometry":{"type":"Point","coordinates":[6.530026,52.98521]},"properties":{"type":"charge","layer":"passenger","locationId":"530a37b2-b489-11ec-9202-42010a840003","name":"Equans Groningen Drenthe De Wouden 113","address":"De Wouden 113","city":"Assen","operatorName":"EQUANS","maxPowerKw":0,"isMegawatt":false,"status":"AVAILABLE","source":"ndw"}},{"type":"Feature","geometry":{"type":"Point","coordinates":[6.5731,52.995113]},"properties":{"type":"charge","layer":"passenger","locationId":"a26fc4f4-b05f-11f0-8d64-42010aa400b8","name":"Equans Groningen Drenthe Steendijk 2","address":"Steendijk 2","city":"Assen","operatorName":"EQUANS","maxPowerKw":0,"isMegawatt":false,"status":"AVAILABLE","source":"ndw"}},{"type":"Feature","geometry":{"type":"Point","coordinates":[6.547402,53.002413]},"properties":{"type":"charge","layer":"passenger","locationId":"dee14670-31d8-11f0-8eac-42010aa400b8","name":"Equans Groningen Drenthe Talmastraat 107","address":"Talmastraat 107","city":"Assen","operatorName":"EQUANS","maxPowerKw":0,"isMegawatt":false,"status":"AVAILABLE","source":"ndw"}},{"type":"Feature","geometry":{"type":"Point","coordinates":[6.558039,52.99719]},"properties":{"type":"charge","layer":"passenger","locationId":"8b9a3c7a-3b46-11eb-94c4-42010a840003","name":"NL, Burgemeester de Dreuplein 108, 9401 CM Assen","address":"Burgemeester de Dreuplein 108","city":"Assen","operatorName":"Allego","maxPowerKw":0,"isMegawatt":false,"status":"AVAILABLE","source":"ndw"}},{"type":"Feature","geometry":{"type":"Point","coordinates":[6.524687,52.992511]},"properties":{"type":"charge","layer":"passenger","locationId":"69afbdd6a59b7c858b2f0b4a","name":"Van der Valk - Assen - Charging Stations","address":"Balkenweg 1","city":"Assen","operatorName":"Valk Energy","maxPowerKw":150,"isMegawatt":false,"status":"AVAILABLE","source":"ndw"}},{"type":"Feature","geometry":{"type":"Point","coordinates":[6.56356,53.02516]},"properties":{"type":"charge","layer":"passenger","locationId":"4940E084-8CFD-4B53-89AB-B1810EE93BEF","name":"Eneco eMobility Amerikaweg 18 Assen","address":"Amerikaweg 18","city":"Assen","operatorName":"Eneco","maxPowerKw":0,"isMegawatt":false,"status":"CHARGING","source":"ndw"}},{"type":"Feature","geometry":{"type":"Point","coordinates":[6.577135,52.98635]},"properties":{"type":"charge","layer":"passenger","locationId":"37241ba6-cf03-11eb-81a2-42010a840003","name":"NL, Brunelstraat 77, 9404KD Assen","address":"Brunelstraat 77","city":"Assen","operatorName":"Allego","maxPowerKw":0,"isMegawatt":false,"status":"AVAILABLE","source":"ndw"}},{"type":"Feature","geometry":{"type":"Point","coordinates":[6.562007,53.017218]},"properties":{"type":"charge","layer":"passenger","locationId":"41bb2642-22ea-11eb-8527-42010a840003","name":"NL, Scharmbarg 27, 9407JP Assen","address":"Scharmbarg 27","city":"Assen","operatorName":"Allego","maxPowerKw":0,"isMegawatt":false,"status":"CHARGING","source":"ndw"}},{"type":"Feature","geometry":{"type":"Point","coordinates":[6.587093,53.02209]},"properties":{"type":"charge","layer":"passenger","locationId":"4b790bcc-81ea-11f0-b262-42010aa400b8","name":"NL, Boerhoorndreef 119, 9403 KC Assen","address":"Boerhoorndreef 119","city":"Assen","operatorName":"Allego","maxPowerKw":0,"isMegawatt":false,"status":"AVAILABLE","source":"ndw"}},{"type":"Feature","geometry":{"type":"Point","coordinates":[6.580022,52.991965]},"properties":{"type":"charge","layer":"passenger","locationId":"50c5003c-74dc-11ec-af1b-42010a840003","name":"NL, Roerdompstraat 21, 9404 EG Assen","address":"Roerdompstraat 21","city":"Assen","operatorName":"Allego","maxPowerKw":0,"isMegawatt":false,"status":"AVAILABLE","source":"ndw"}},{"type":"Feature","geometry":{"type":"Point","coordinates":[6.537895,52.979043]},"properties":{"type":"charge","layer":"passenger","locationId":"NLLOC022204","name":"NL, Kennemerland 65, 9405 LC Assen","address":"Kennemerland 65","city":"Assen","operatorName":"Allego","maxPowerKw":0,"isMegawatt":false,"status":"AVAILABLE","source":"ndw"}},{"type":"Feature","geometry":{"type":"Point","coordinates":[6.506229,53.008965]},"properties":{"type":"charge","layer":"passenger","locationId":"34cca906-5f6c-11f0-8027-42010aa400b8","name":"Equans Groningen Drenthe Boslelie 37","address":"Boslelie 37","city":"Assen","operatorName":"EQUANS","maxPowerKw":0,"isMegawatt":false,"status":"AVAILABLE","source":"ndw"}},{"type":"Feature","geometry":{"type":"Point","coordinates":[6.581646,52.985117]},"properties":{"type":"charge","layer":"passenger","locationId":"NLLOC024144","name":"NL, Speenkruidstraat 177, 9404 HH Assen","address":"Speenkruidstraat 177","city":"Assen","operatorName":"Allego","maxPowerKw":0,"isMegawatt":false,"status":"AVAILABLE","source":"ndw"}},{"type":"Feature","geometry":{"type":"Point","coordinates":[6.56218,53.01358]},"properties":{"type":"charge","layer":"passenger","locationId":"91145061","name":"Equans Groningen Drenthe Ruiterakker 55","address":"Ruiterakker 55","city":"Assen","operatorName":"EQUANS","maxPowerKw":0,"isMegawatt":false,"status":"AVAILABLE","source":"ndw"}},{"type":"Feature","geometry":{"type":"Point","coordinates":[6.57076,52.974201]},"properties":{"type":"charge","layer":"passenger","locationId":"0bfebdc2-8dfd-11ed-a6cc-42010aa40fc0","name":"NL, Krulzoom 48, 9404 MB, Assen","address":"Krulzoom 48","city":"Assen","operatorName":"Allego","maxPowerKw":0,"isMegawatt":false,"status":"AVAILABLE","source":"ndw"}},{"type":"Feature","geometry":{"type":"Point","coordinates":[6.513787,53.002878]},"properties":{"type":"charge","layer":"passenger","locationId":"2d0badae-a663-11ec-9b2e-42010a840003","name":"NL, Moerbeistraat 58, 9408BC, Assen","address":"Moerbeistraat 58","city":"Assen","operatorName":"Allego","maxPowerKw":0,"isMegawatt":false,"status":"AVAILABLE","source":"ndw"}},{"type":"Feature","geometry":{"type":"Point","coordinates":[6.558394,53.020105]},"properties":{"type":"charge","layer":"passenger","locationId":"4af07ab4-81ea-11f0-b3cb-42010aa400b8","name":"NL, Iemstukken 19, 9407 KH Assen","address":"Iemstukken 19","city":"Assen","operatorName":"Allego","maxPowerKw":0,"isMegawatt":false,"status":"CHARGING","source":"ndw"}},{"type":"Feature","geometry":{"type":"Point","coordinates":[6.583534,53.020148]},"properties":{"type":"charge","layer":"passenger","locationId":"80af3236-8c69-11ed-a17c-42010aa40fc0","name":"NL, Boerhoorndreef 23, 9403 KB Assen","address":"Boerhoorndreef 23","city":"Assen","operatorName":"Allego","maxPowerKw":0,"isMegawatt":false,"status":"AVAILABLE","source":"ndw"}},{"type":"Feature","geometry":{"type":"Point","coordinates":[6.511409,53.000098]},"properties":{"type":"charge","layer":"passenger","locationId":"9fa6728a-b66a-11ea-8f60-42010a840003","name":"NL, Westerwal, 30, 9408MS, Assen","address":"Westerwal 30","city":"Assen","operatorName":"Allego","maxPowerKw":0,"isMegawatt":false,"status":"AVAILABLE","source":"ndw"}},{"type":"Feature","geometry":{"type":"Point","coordinates":[6.51337,53.00896]},"properties":{"type":"charge","layer":"passenger","locationId":"91460146","name":"Equans Groningen Drenthe Bosviool 13","address":"Bosviool 13","city":"Assen","operatorName":"EQUANS","maxPowerKw":0,"isMegawatt":false,"status":"AVAILABLE","source":"ndw"}},{"type":"Feature","geometry":{"type":"Point","coordinates":[6.55945,52.988139]},"properties":{"type":"charge","layer":"passenger","locationId":"NLLOC027036","name":"NL, Beilerstraat 139, 9401 PJ Assen","address":"Beilerstraat 139","city":"Assen","operatorName":"Allego","maxPowerKw":0,"isMegawatt":false,"status":"AVAILABLE","source":"ndw"}},{"type":"Feature","geometry":{"type":"Point","coordinates":[6.51252,53.006077]},"properties":{"type":"charge","layer":"passenger","locationId":"811ce852-d57b-11ed-a0db-42010aa40fc0","name":"NL, Stedelaan 16, 9408 HE Assen","address":"Stedelaan 16","city":"Assen","operatorName":"Allego","maxPowerKw":0,"isMegawatt":false,"status":"AVAILABLE","source":"ndw"}},{"type":"Feature","geometry":{"type":"Point","coordinates":[6.537895,52.979043]},"properties":{"type":"charge","layer":"passenger","locationId":"de69bd58-cd27-11ec-b1a9-42010a840003","name":"NL, Kennemerland 65, 9405 LC Assen","address":"Kennemerland 65","city":"Assen","operatorName":"Allego","maxPowerKw":0,"isMegawatt":false,"status":"CHARGING","source":"ndw"}},{"type":"Feature","geometry":{"type":"Point","coordinates":[6.564325,53.011614]},"properties":{"type":"charge","layer":"passenger","locationId":"91145260","name":"Equans Groningen Drenthe Smetanalaan 452","address":"Smetanalaan 452","city":"Assen","operatorName":"EQUANS","maxPowerKw":0,"isMegawatt":false,"status":"AVAILABLE","source":"ndw"}},{"type":"Feature","geometry":{"type":"Point","coordinates":[6.513192,52.994718]},"properties":{"type":"charge","layer":"passenger","locationId":"NLLOC022210","name":"NL, Uranusstraat 27, 9405 PK Assen","address":"Uranusstraat 27","city":"Assen","operatorName":"Allego","maxPowerKw":0,"isMegawatt":false,"status":"AVAILABLE","source":"ndw"}},{"type":"Feature","geometry":{"type":"Point","coordinates":[6.569222,52.989441]},"properties":{"type":"charge","layer":"passenger","locationId":"695eb2a6-3f08-401c-ad8b-45e06e4ab428","name":"Tango Assen 1-2","address":"Overcingellaan 9","city":"Assen","operatorName":"Tango electric","maxPowerKw":300,"isMegawatt":false,"status":"UNAVAILABLE","source":"ndw"}},{"type":"Feature","geometry":{"type":"Point","coordinates":[6.562787,52.99695]},"properties":{"type":"charge","layer":"passenger","locationId":"NLLOC026789","name":"NL, Oude Molenstraat 40-A, 9401 DD Assen","address":"Oude Molenstraat 40-A","city":"Assen","operatorName":"Allego","maxPowerKw":0,"isMegawatt":false,"status":"AVAILABLE","source":"ndw"}},{"type":"Feature","geometry":{"type":"Point","coordinates":[6.568408,53.015868]},"properties":{"type":"charge","layer":"passenger","locationId":"2c4334b4-a663-11ec-b716-42010a840003","name":"NL, Woerdes 1, 9407 CK Assen","address":"Woerdes 1","city":"Assen","operatorName":"Allego","maxPowerKw":0,"isMegawatt":false,"status":"AVAILABLE","source":"ndw"}},{"type":"Feature","geometry":{"type":"Point","coordinates":[6.568171,53.019905]},"properties":{"type":"charge","layer":"passenger","locationId":"39811714-ac71-11eb-a777-42010a840003","name":"NL, Groenkampen, 198, 9407RH, Assen","address":"Groenkampen 198","city":"Assen","operatorName":"Allego","maxPowerKw":0,"isMegawatt":false,"status":"AVAILABLE","source":"ndw"}},{"type":"Feature","geometry":{"type":"Point","coordinates":[6.592365,53.00584]},"properties":{"type":"charge","layer":"passenger","locationId":"7fea8310-92b2-11ed-a23d-42010aa40fc0","name":"NL, Van Doornestraat 5, 9403 AN Assen","address":"Van Doornestraat 5","city":"Assen","operatorName":"Allego","maxPowerKw":0,"isMegawatt":false,"status":"AVAILABLE","source":"ndw"}},{"type":"Feature","geometry":{"type":"Point","coordinates":[6.594424,53.023298]},"properties":{"type":"charge","layer":"passenger","locationId":"997a4f2a-d329-11ec-a1cc-42010a840003","name":"NL, Eekhoornslag 110, 9403 XZ Assen","address":"Eekhoornslag 110","city":"Assen","operatorName":"Allego","maxPowerKw":0,"isMegawatt":false,"status":"AVAILABLE","source":"ndw"}},{"type":"Feature","geometry":{"type":"Point","coordinates":[6.532962,52.98337]},"properties":{"type":"charge","layer":"passenger","locationId":"9fb166c2-b66a-11ea-aa70-42010a840003","name":"NL, Het Sticht 56, 9405 NR, Assen","address":"Het Sticht 56","city":"Assen","operatorName":"Allego","maxPowerKw":0,"isMegawatt":false,"status":"AVAILABLE","source":"ndw"}},{"type":"Feature","geometry":{"type":"Point","coordinates":[6.574203,52.993962]},"properties":{"type":"charge","layer":"passenger","locationId":"NLLOC013586","name":"NL, Buizerdstraat 10, 9404BL, Assen","address":"Buizerdstraat 10","city":"Assen","operatorName":"Allego","maxPowerKw":0,"isMegawatt":false,"status":"AVAILABLE","source":"ndw"}},{"type":"Feature","geometry":{"type":"Point","coordinates":[6.530026,52.98521]},"properties":{"type":"charge","layer":"passenger","locationId":"91145320","name":"Equans Groningen Drenthe De Wouden 113","address":"De Wouden 113","city":"Assen","operatorName":"EQUANS","maxPowerKw":0,"isMegawatt":false,"status":"AVAILABLE","source":"ndw"}},{"type":"Feature","geometry":{"type":"Point","coordinates":[6.546175,52.978266]},"properties":{"type":"charge","layer":"passenger","locationId":"0f0d1512-a15a-11ec-9de4-42010a840003","name":"NL, Boskamp 5, 9405 NN Assen","address":"Boskamp 5","city":"Assen","operatorName":"Allego","maxPowerKw":0,"isMegawatt":false,"status":"AVAILABLE","source":"ndw"}},{"type":"Feature","geometry":{"type":"Point","coordinates":[6.546781,52.996887]},"properties":{"type":"charge","layer":"passenger","locationId":"15b3bdce-ce3a-11eb-9b2b-42010a840003","name":"NL, van Heuven Goedhartlaan 57, 9406CD, Assen","address":"van Heuven Goedhartlaan 57","city":"Assen","operatorName":"Allego","maxPowerKw":0,"isMegawatt":false,"status":"AVAILABLE","source":"ndw"}},{"type":"Feature","geometry":{"type":"Point","coordinates":[6.539084,52.996654]},"properties":{"type":"charge","layer":"passenger","locationId":"1cce7bdc-267b-11ec-95d9-42010a840003","name":"NL, Zwin 17, 9406EV, Assen","address":"Zwin 17","city":"Assen","operatorName":"Allego","maxPowerKw":0,"isMegawatt":false,"status":"CHARGING","source":"ndw"}},{"type":"Feature","geometry":{"type":"Point","coordinates":[6.513383,53.008929]},"properties":{"type":"charge","layer":"passenger","locationId":"2d548d5a-0c82-11ed-855e-42010aa40fc0","name":"NL, Bosviool 13, 9408 DJ Assen","address":"Bosviool 13","city":"Assen","operatorName":"Allego","maxPowerKw":0,"isMegawatt":false,"status":"AVAILABLE","source":"ndw"}},{"type":"Feature","geometry":{"type":"Point","coordinates":[6.520355,52.99619]},"properties":{"type":"charge","layer":"passenger","locationId":"44079336-38ed-11eb-8ba9-42010a840003","name":"NL, Balkendwarsweg 3, 9405 PT Assen","address":"Balkendwarsweg 3","city":"Assen","operatorName":"Allego","maxPowerKw":0,"isMegawatt":false,"status":"AVAILABLE","source":"ndw"}},{"type":"Feature","geometry":{"type":"Point","coordinates":[6.566851,53.001119]},"properties":{"type":"charge","layer":"passenger","locationId":"7fae762c-92b2-11ed-97b0-42010aa40fc0","name":"NL, Huygensstraat 15, 9402 NL Assen","address":"Huygensstraat 15","city":"Assen","operatorName":"Allego","maxPowerKw":0,"isMegawatt":false,"status":"AVAILABLE","source":"ndw"}},{"type":"Feature","geometry":{"type":"Point","coordinates":[6.51153,53.00009]},"properties":{"type":"charge","layer":"passenger","locationId":"91145026","name":"Equans Groningen Drenthe Westerwal 30","address":"Westerwal 30","city":"Assen","operatorName":"EQUANS","maxPowerKw":0,"isMegawatt":false,"status":"AVAILABLE","source":"ndw"}},{"type":"Feature","geometry":{"type":"Point","coordinates":[6.512222,52.99952]},"properties":{"type":"charge","layer":"passenger","locationId":"91145445","name":"Equans Groningen Drenthe Gildestraat 1","address":"Gildestraat 1","city":"Assen","operatorName":"EQUANS","maxPowerKw":0,"isMegawatt":false,"status":"AVAILABLE","source":"ndw"}},{"type":"Feature","geometry":{"type":"Point","coordinates":[6.565324,53.006166]},"properties":{"type":"charge","layer":"passenger","locationId":"658c0bb8-a7ea-11ed-9e59-42010aa40fc0","name":"NL, Sweelinckplein 19, 9402 TV Assen","address":"Sweelinckplein 19","city":"Assen","operatorName":"Allego","maxPowerKw":0,"isMegawatt":false,"status":"AVAILABLE","source":"ndw"}},{"type":"Feature","geometry":{"type":"Point","coordinates":[6.594195,53.014353]},"properties":{"type":"charge","layer":"passenger","locationId":"d504c374-c765-11ec-a326-42010a840003","name":"NL, Briljantstoep 29, 9403 SC Assen","address":"Briljantstoep 29","city":"Assen","operatorName":"Allego","maxPowerKw":0,"isMegawatt":false,"status":"AVAILABLE","source":"ndw"}},{"type":"Feature","geometry":{"type":"Point","coordinates":[6.587089,53.014564]},"properties":{"type":"charge","layer":"passenger","locationId":"e57b9c24-95db-11ed-a673-42010aa40fc0","name":"NL, Roegoorn 81, 9403 NT Assen","address":"Roegoorn 81","city":"Assen","operatorName":"Allego","maxPowerKw":0,"isMegawatt":false,"status":"AVAILABLE","source":"ndw"}},{"type":"Feature","geometry":{"type":"Point","coordinates":[6.556766,52.993913]},"properties":{"type":"charge","layer":"passenger","locationId":"NLLOC007783","name":"NL, Vaart N.Z. 38, 9401 GN. Assen","address":"Vaart N.Z. 38","city":"Assen","operatorName":"Allego","maxPowerKw":0,"isMegawatt":false,"status":"AVAILABLE","source":"ndw"}},{"type":"Feature","geometry":{"type":"Point","coordinates":[6.573541,52.990338]},"properties":{"type":"charge","layer":"passenger","locationId":"bf825de4-a5d1-11ee-8417-42010aa40fc0","name":"Equans Groningen Drenthe Violenstraat 22","address":"Violenstraat 22","city":"Assen","operatorName":"EQUANS","maxPowerKw":0,"isMegawatt":false,"status":"AVAILABLE","source":"ndw"}},{"type":"Feature","geometry":{"type":"Point","coordinates":[6.58353,53.02019]},"properties":{"type":"charge","layer":"passenger","locationId":"80af3236-8c69-11ed-a17c-42010aa40fc0","name":"Equans Groningen Drenthe Boerhoorndreef 33","address":"Boerhoorndreef 33","city":"Assen","operatorName":"EQUANS","maxPowerKw":0,"isMegawatt":false,"status":"AVAILABLE","source":"ndw"}},{"type":"Feature","geometry":{"type":"Point","coordinates":[6.546415,52.973646]},"properties":{"type":"charge","layer":"passenger","locationId":"cb40c890-39b5-11eb-a55a-42010a840003","name":"NL, De Haar, 9400XX, Assen","address":"De Haar","city":"Assen","operatorName":"Allego","maxPowerKw":0,"isMegawatt":false,"status":"AVAILABLE","source":"ndw"}},{"type":"Feature","geometry":{"type":"Point","coordinates":[6.587476,53.019576]},"properties":{"type":"charge","layer":"passenger","locationId":"72e411a8-a3fc-11ed-a71e-42010aa40fc0","name":"NL, Ruskenbeemd 4, 9403 MP Assen","address":"Ruskenbeemd 4","city":"Assen","operatorName":"Allego","maxPowerKw":0,"isMegawatt":false,"status":"AVAILABLE","source":"ndw"}},{"type":"Feature","geometry":{"type":"Point","coordinates":[6.543895,53.010918]},"properties":{"type":"charge","layer":"passenger","locationId":"83ab8078-cda8-11ec-bb3d-42010a840003","name":"NL, IJselstraat 61, 9404 TP Assen","address":"IJselstraat 61","city":"Assen","operatorName":"Allego","maxPowerKw":0,"isMegawatt":false,"status":"AVAILABLE","source":"ndw"}},{"type":"Feature","geometry":{"type":"Point","coordinates":[6.569116,52.996882]},"properties":{"type":"charge","layer":"passenger","locationId":"436f73ee-ba58-11ea-a21f-42010a840003","name":"NL, Paul Krugerstraat 1-B, 9401AG Assen (laadpaal 2)","address":"Paul Krugerstraat 1-B","city":"Assen","operatorName":"Allego","maxPowerKw":0,"isMegawatt":false,"status":"CHARGING","source":"ndw"}},{"type":"Feature","geometry":{"type":"Point","coordinates":[6.547278,52.992707]},"properties":{"type":"charge","layer":"passenger","locationId":"941164a6-c33a-11eb-8062-42010a840003","name":"NL, Witterstraat 42, 9401SH, Assen","address":"Witterstraat 42","city":"Assen","operatorName":"Allego","maxPowerKw":0,"isMegawatt":false,"status":"AVAILABLE","source":"ndw"}},{"type":"Feature","geometry":{"type":"Point","coordinates":[6.593458,53.019727]},"properties":{"type":"charge","layer":"passenger","locationId":"ef3c8e82-29fc-11eb-b2b3-42010a840003","name":"NL, Marterslag 19, 9403 XT Assen","address":"Marterslag 19","city":"Assen","operatorName":"Allego","maxPowerKw":0,"isMegawatt":false,"status":"AVAILABLE","source":"ndw"}},{"type":"Feature","geometry":{"type":"Point","coordinates":[6.548496,53.001447]},"properties":{"type":"charge","layer":"passenger","locationId":"NLLOC007198","name":"NL, Nobellaan 285, 9406 AK, Assen","address":"Nobellaan 285","city":"Assen","operatorName":"Allego","maxPowerKw":0,"isMegawatt":false,"status":"AVAILABLE","source":"ndw"}},{"type":"Feature","geometry":{"type":"Point","coordinates":[6.572622,53.01816]},"properties":{"type":"charge","layer":"passenger","locationId":"08e43de8-ddf4-11eb-a4e4-42010a840003","name":"NL, Martin Luther Kingweg 1, 9407 RC Assen","address":"Martin Luther Kingweg 1","city":"Assen","operatorName":"Allego","maxPowerKw":0,"isMegawatt":false,"status":"UNAVAILABLE","source":"ndw"}},{"type":"Feature","geometry":{"type":"Point","coordinates":[6.527751,52.992271]},"properties":{"type":"charge","layer":"passenger","locationId":"daeca8b6-61c6-11eb-9622-42010a840003","name":"NL, Lauwers 17, 9405BL, Assen","address":"Lauwers 17","city":"Assen","operatorName":"Allego","maxPowerKw":0,"isMegawatt":false,"status":"CHARGING","source":"ndw"}},{"type":"Feature","geometry":{"type":"Point","coordinates":[6.554293,52.999709]},"properties":{"type":"charge","layer":"passenger","locationId":"55ecc318-3439-11eb-a31a-42010a840003","name":"NL, Einthovenstraat 12, 9402CB, Assen","address":"Einthovenstraat 12","city":"Assen","operatorName":"Allego","maxPowerKw":0,"isMegawatt":false,"status":"AVAILABLE","source":"ndw"}},{"type":"Feature","geometry":{"type":"Point","coordinates":[6.57648,52.99831]},"properties":{"type":"charge","layer":"passenger","locationId":"8e2c6d2c-48a8-11f0-9418-42010aa400b8","name":"Equans Groningen Drenthe Jozef Israelsweg 24","address":"Jozef Israelsweg 24","city":"Assen","operatorName":"EQUANS","maxPowerKw":0,"isMegawatt":false,"status":"AVAILABLE","source":"ndw"}},{"type":"Feature","geometry":{"type":"Point","coordinates":[6.569881,52.993908]},"properties":{"type":"charge","layer":"passenger","locationId":"0621ecb0-a5d2-11ee-9b36-42010aa40fc0","name":"Equans Groningen Drenthe Oranjestraat 116","address":"Oranjestraat 116","city":"Assen","operatorName":"EQUANS","maxPowerKw":0,"isMegawatt":false,"status":"CHARGING","source":"ndw"}},{"type":"Feature","geometry":{"type":"Point","coordinates":[6.54613,52.97822]},"properties":{"type":"charge","layer":"passenger","locationId":"0f0d1512-a15a-11ec-9de4-42010a840003","name":"Equans Groningen Drenthe Boskamp 5","address":"Boskamp 5","city":"Assen","operatorName":"EQUANS","maxPowerKw":0,"isMegawatt":false,"status":"AVAILABLE","source":"ndw"}},{"type":"Feature","geometry":{"type":"Point","coordinates":[6.54947,52.997027]},"properties":{"type":"charge","layer":"passenger","locationId":"6148f4c4-da77-11ee-8205-42010aa40fc0","name":"Equans Groningen Drenthe Marconistraat 20","address":"Marconistraat 20","city":"Assen","operatorName":"EQUANS","maxPowerKw":0,"isMegawatt":false,"status":"AVAILABLE","source":"ndw"}},{"type":"Feature","geometry":{"type":"Point","coordinates":[6.50406,53.00399]},"properties":{"type":"charge","layer":"passenger","locationId":"72797732-a55f-11f0-9f78-42010aa400b8","name":"Equans Groningen Drenthe De Boomgaard 48","address":"De Boomgaard 48","city":"Assen","operatorName":"EQUANS","maxPowerKw":0,"isMegawatt":false,"status":"AVAILABLE","source":"ndw"}},{"type":"Feature","geometry":{"type":"Point","coordinates":[6.552301,52.997168]},"properties":{"type":"charge","layer":"passenger","locationId":"a03fffa6-2936-11f0-8a89-42010aa400b8","name":"Equans Groningen Drenthe Mr. P.J. Troelstralaan 313","address":"Mr. J.P. Troelstralaan 313","city":"Assen","operatorName":"EQUANS","maxPowerKw":0,"isMegawatt":false,"status":"AVAILABLE","source":"ndw"}},{"type":"Feature","geometry":{"type":"Point","coordinates":[6.580431,52.994494]},"properties":{"type":"charge","layer":"passenger","locationId":"bd2e72f6-2d27-11f0-80f2-42010aa400b8","name":"Equans Groningen Drenthe Gerard Doustraat 41","address":"Gerard Doustraat 41","city":"Assen","operatorName":"EQUANS","maxPowerKw":0,"isMegawatt":false,"status":"AVAILABLE","source":"ndw"}},{"type":"Feature","geometry":{"type":"Point","coordinates":[6.527701,52.992244]},"properties":{"type":"charge","layer":"passenger","locationId":"daeca8b6-61c6-11eb-9622-42010a840003","name":"Equans Groningen Drenthe Lauwers 17","address":"Lauwers 17","city":"Assen","operatorName":"EQUANS","maxPowerKw":0,"isMegawatt":false,"status":"AVAILABLE","source":"ndw"}},{"type":"Feature","geometry":{"type":"Point","coordinates":[6.555857,53.001436]},"properties":{"type":"charge","layer":"passenger","locationId":"ea6940cc-31df-11f0-bf63-42010aa400b8","name":"Equans Groningen Drenthe Thorbeckelaan 72 TO","address":"Thorbeckelaan 72","city":"Assen","operatorName":"EQUANS","maxPowerKw":0,"isMegawatt":false,"status":"AVAILABLE","source":"ndw"}},{"type":"Feature","geometry":{"type":"Point","coordinates":[6.545207,52.984668]},"properties":{"type":"charge","layer":"passenger","locationId":"6ae6116a-f4ea-11ed-91fe-42010aa40fc0","name":"NL, Stadsbroek 11, 9405 BK Assen","address":"Stadsbroek 11","city":"Assen","operatorName":"Allego","maxPowerKw":0,"isMegawatt":false,"status":"CHARGING","source":"ndw"}},{"type":"Feature","geometry":{"type":"Point","coordinates":[6.591144,53.013491]},"properties":{"type":"charge","layer":"passenger","locationId":"9eed6be6-a721-11ed-afde-42010aa40fc0","name":"NL, Saffierstoep 92, 9403RV, Assen","address":"Saffierstoep 92","city":"Assen","operatorName":"Allego","maxPowerKw":0,"isMegawatt":false,"status":"AVAILABLE","source":"ndw"}},{"type":"Feature","geometry":{"type":"Point","coordinates":[6.54947,52.997027]},"properties":{"type":"charge","layer":"passenger","locationId":"91145019","name":"Equans Groningen Drenthe Marconistraat 20","address":"Marconistraat 20","city":"Assen","operatorName":"EQUANS","maxPowerKw":0,"isMegawatt":false,"status":"AVAILABLE","source":"ndw"}},{"type":"Feature","geometry":{"type":"Point","coordinates":[6.580022,52.991965]},"properties":{"type":"charge","layer":"passenger","locationId":"NLLOC020288","name":"NL, Roerdompstraat 21, 9404 EG Assen","address":"Roerdompstraat 21","city":"Assen","operatorName":"Allego","maxPowerKw":0,"isMegawatt":false,"status":"AVAILABLE","source":"ndw"}},{"type":"Feature","geometry":{"type":"Point","coordinates":[6.572056,53.025421]},"properties":{"type":"charge","layer":"passenger","locationId":"32406","name":"Circle K Assen inz Messchenveld","address":"Peelo 22 A","city":"Assen","operatorName":"Spirii","maxPowerKw":0,"isMegawatt":false,"status":"AVAILABLE","source":"ndw"}},{"type":"Feature","geometry":{"type":"Point","coordinates":[6.5109,53.003283]},"properties":{"type":"charge","layer":"passenger","locationId":"0f79c0de-0f36-11eb-9ee2-42010a840033","name":"NL, Perenstraat 14, 9408AZ, Assen","address":"Perenstraat 14","city":"Assen","operatorName":"Allego","maxPowerKw":0,"isMegawatt":false,"status":"CHARGING","source":"ndw"}},{"type":"Feature","geometry":{"type":"Point","coordinates":[6.566543,52.994616]},"properties":{"type":"charge","layer":"passenger","locationId":"OST22P0081_0017_0","name":"OST22P0081_0017_0","address":"Noordersingel 33","city":"Assen","operatorName":"IPCharging","maxPowerKw":0,"isMegawatt":false,"status":"AVAILABLE","source":"ndw"}},{"type":"Feature","geometry":{"type":"Point","coordinates":[6.53009,52.985205]},"properties":{"type":"charge","layer":"passenger","locationId":"530a37b2-b489-11ec-9202-42010a840003","name":"NL, De Wouden 308, 9405 HW Assen","address":"De Wouden 308","city":"Assen","operatorName":"Allego","maxPowerKw":0,"isMegawatt":false,"status":"AVAILABLE","source":"ndw"}},{"type":"Feature","geometry":{"type":"Point","coordinates":[6.580945,53.017544]},"properties":{"type":"charge","layer":"passenger","locationId":"80b80c86-9412-11eb-bfb0-42010a840003","name":"NL, Deelheugte, 34, 9403HC, Assen","address":"Deelheugte 34","city":"Assen","operatorName":"Allego","maxPowerKw":0,"isMegawatt":false,"status":"AVAILABLE","source":"ndw"}},{"type":"Feature","geometry":{"type":"Point","coordinates":[6.510285,53.005627]},"properties":{"type":"charge","layer":"passenger","locationId":"0659aaea-d006-11ec-9c48-42010a840003","name":"NL, Stedehof 35, 9408 HH Assen","address":"Stedehof 35","city":"Assen","operatorName":"Allego","maxPowerKw":0,"isMegawatt":false,"status":"AVAILABLE","source":"ndw"}},{"type":"Feature","geometry":{"type":"Point","coordinates":[6.571347,53.012296]},"properties":{"type":"charge","layer":"passenger","locationId":"68f7463dcfdd6dfb52141c7c","name":"Borgstee 's station","address":"Borgstee 3","city":"Assen","operatorName":"E-Flux by Road","maxPowerKw":11,"isMegawatt":false,"status":"AVAILABLE","source":"ndw"}},{"type":"Feature","geometry":{"type":"Point","coordinates":[6.561738,52.998104]},"properties":{"type":"charge","layer":"passenger","locationId":"00ffdf58-c22d-11ef-acce-42010aa400b8","name":"NL, Stelling 13, 9401 VA Assen","address":"Stelling 13","city":"Assen","operatorName":"Allego","maxPowerKw":0,"isMegawatt":false,"status":"CHARGING","source":"ndw"}},{"type":"Feature","geometry":{"type":"Point","coordinates":[6.569804,52.986776]},"properties":{"type":"charge","layer":"passenger","locationId":"242bd9c6-32d6-11ec-bf6f-42010a840003","name":"NL, Anemoonstraat 151, 9404 RE Assen","address":"Anemoonstraat 151","city":"Assen","operatorName":"Allego","maxPowerKw":0,"isMegawatt":false,"status":"AVAILABLE","source":"ndw"}},{"type":"Feature","geometry":{"type":"Point","coordinates":[6.55945,52.988139]},"properties":{"type":"charge","layer":"passenger","locationId":"48bb26f6-8ba0-11ed-8399-42010aa40fc0","name":"NL, Beilerstraat 139, 9401 PJ Assen","address":"Beilerstraat 139","city":"Assen","operatorName":"Allego","maxPowerKw":0,"isMegawatt":false,"status":"AVAILABLE","source":"ndw"}},{"type":"Feature","geometry":{"type":"Point","coordinates":[6.574203,52.993962]},"properties":{"type":"charge","layer":"passenger","locationId":"6093c984-5e0d-11ec-99ce-42010a840003","name":"NL, Buizerdstraat 10, 9404BL, Assen","address":"Buizerdstraat 10","city":"Assen","operatorName":"Allego","maxPowerKw":0,"isMegawatt":false,"status":"AVAILABLE","source":"ndw"}},{"type":"Feature","geometry":{"type":"Point","coordinates":[6.578933,52.996153]},"properties":{"type":"charge","layer":"passenger","locationId":"66ebf7e8-35c8-11eb-a4cb-42010a840003","name":"NL, Het Palet 2, 9403CM Assen","address":"Het Palet 2","city":"Assen","operatorName":"Allego","maxPowerKw":0,"isMegawatt":false,"status":"CHARGING","source":"ndw"}},{"type":"Feature","geometry":{"type":"Point","coordinates":[6.568417,52.974194]},"properties":{"type":"charge","layer":"passenger","locationId":"7135f268-a9d6-11ea-bd91-42010a840003","name":"NL, Pronkridder 2, 9404 MC, Assen","address":"Pronkridder 2","city":"Assen","operatorName":"Allego","maxPowerKw":0,"isMegawatt":false,"status":"AVAILABLE","source":"ndw"}},{"type":"Feature","geometry":{"type":"Point","coordinates":[6.504007,53.004171]},"properties":{"type":"charge","layer":"passenger","locationId":"74a9168a-3691-11eb-b3e1-42010a840003","name":"NL, De Boomgaard 46, 9408JB Assen","address":"De Boomgaard 46","city":"Assen","operatorName":"Allego","maxPowerKw":0,"isMegawatt":false,"status":"AVAILABLE","source":"ndw"}},{"type":"Feature","geometry":{"type":"Point","coordinates":[6.561344,53.006808]},"properties":{"type":"charge","layer":"passenger","locationId":"cf7030ae-4875-11ea-b1a7-42010a840003","name":"NL, Peter van Anrooystraat 23, 9402 TR, Assen","address":"Peter van Anrooystraat 23","city":"Assen","operatorName":"Allego","maxPowerKw":0,"isMegawatt":false,"status":"AVAILABLE","source":"ndw"}},{"type":"Feature","geometry":{"type":"Point","coordinates":[6.563591,52.997744]},"properties":{"type":"charge","layer":"passenger","locationId":"e670204c-3c0e-11eb-9a96-42010a840003","name":"NL, Zaagmolen 20, 9401BS, Assen","address":"Zaagmolen 20","city":"Assen","operatorName":"Allego","maxPowerKw":0,"isMegawatt":false,"status":"AVAILABLE","source":"ndw"}},{"type":"Feature","geometry":{"type":"Point","coordinates":[6.554448,52.990399]},"properties":{"type":"charge","layer":"passenger","locationId":"75a72438-ee47-11ef-91d5-42010aa400b8","name":"Equans Groningen Drenthe Bellevue 19","address":"Bellevue 19","city":"Assen","operatorName":"EQUANS","maxPowerKw":0,"isMegawatt":false,"status":"AVAILABLE","source":"ndw"}},{"type":"Feature","geometry":{"type":"Point","coordinates":[6.54236,53.001857]},"properties":{"type":"charge","layer":"passenger","locationId":"55de7e52-3439-11eb-b002-42010a840003","name":"Equans Groningen Drenthe Lesturgeonstraat 16","address":"Lesturgeonstraat 16","city":"Assen","operatorName":"EQUANS","maxPowerKw":0,"isMegawatt":false,"status":"AVAILABLE","source":"ndw"}},{"type":"Feature","geometry":{"type":"Point","coordinates":[6.568579,52.97414]},"properties":{"type":"charge","layer":"passenger","locationId":"7135f268-a9d6-11ea-bd91-42010a840003","name":"Equans Groningen Drenthe Pronkridder 1 A","address":"Pronkridder 1 A","city":"Assen","operatorName":"EQUANS","maxPowerKw":0,"isMegawatt":false,"status":"AVAILABLE","source":"ndw"}},{"type":"Feature","geometry":{"type":"Point","coordinates":[6.5791,53.01872]},"properties":{"type":"charge","layer":"passenger","locationId":"7530c706-2454-11ef-8aea-42010aa400b8","name":"Equans Groningen Drenthe Kiepheugte 20","address":"Kiepheugte 20","city":"Assen","operatorName":"EQUANS","maxPowerKw":0,"isMegawatt":false,"status":"AVAILABLE","source":"ndw"}},{"type":"Feature","geometry":{"type":"Point","coordinates":[6.531777,52.984125]},"properties":{"type":"charge","layer":"passenger","locationId":"23060d5e-17ee-11f0-ae25-42010aa400b8","name":"Equans Groningen Drenthe De Wouden 104","address":"De Wouden 104","city":"Assen","operatorName":"EQUANS","maxPowerKw":0,"isMegawatt":false,"status":"AVAILABLE","source":"ndw"}},{"type":"Feature","geometry":{"type":"Point","coordinates":[6.572388,53.018494]},"properties":{"type":"charge","layer":"passenger","locationId":"2736db7c-3b4f-11f0-b620-42010aa400b8","name":"Equans Groningen Drenthe Martin Luther Kingweg 11A","address":"Martin Luther Kingweg 11A","city":"Assen","operatorName":"EQUANS","maxPowerKw":0,"isMegawatt":false,"status":"AVAILABLE","source":"ndw"}},{"type":"Feature","geometry":{"type":"Point","coordinates":[6.56117,53.0173]},"properties":{"type":"charge","layer":"passenger","locationId":"42cb1b3a-db3f-11ee-bafd-42010aa40fc0","name":"Equans Groningen Drenthe Scharmbarg 26","address":"Scharmbarg 26","city":"Assen","operatorName":"EQUANS","maxPowerKw":0,"isMegawatt":false,"status":"AVAILABLE","source":"ndw"}},{"type":"Feature","geometry":{"type":"Point","coordinates":[6.559508,53.000441]},"properties":{"type":"charge","layer":"passenger","locationId":"7a273844-a5ce-11ee-83d7-42010aa40fc0","name":"Equans Groningen Drenthe Molenstraat 147","address":"Molenstraat 147","city":"Assen","operatorName":"EQUANS","maxPowerKw":0,"isMegawatt":false,"status":"CHARGING","source":"ndw"}},{"type":"Feature","geometry":{"type":"Point","coordinates":[6.56218,53.01358]},"properties":{"type":"charge","layer":"passenger","locationId":"7b6970cc-e7d3-11ee-be7d-42010aa400b8","name":"Equans Groningen Drenthe Ruiterakker 55","address":"Ruiterakker 55","city":"Assen","operatorName":"EQUANS","maxPowerKw":0,"isMegawatt":false,"status":"AVAILABLE","source":"ndw"}},{"type":"Feature","geometry":{"type":"Point","coordinates":[6.53181,52.99013]},"properties":{"type":"charge","layer":"passenger","locationId":"20be04ba-e0be-11ee-9d70-42010aa400b8","name":"Equans Groningen Drenthe Oldambtstraat 24","address":"Oldambtstraat 24","city":"Assen","operatorName":"EQUANS","maxPowerKw":0,"isMegawatt":false,"status":"AVAILABLE","source":"ndw"}},{"type":"Feature","geometry":{"type":"Point","coordinates":[6.512578,53.001314]},"properties":{"type":"charge","layer":"passenger","locationId":"2e63583c-a5d0-11ee-a804-42010aa40fc0","name":"Equans Groningen Drenthe Noorderplantsoen 27","address":"Noorderplantsoen 27","city":"Assen","operatorName":"EQUANS","maxPowerKw":0,"isMegawatt":false,"status":"AVAILABLE","source":"ndw"}},{"type":"Feature","geometry":{"type":"Point","coordinates":[6.555738,53.005649]},"properties":{"type":"charge","layer":"passenger","locationId":"602e7f40-6d98-11f0-862b-42010aa400b8","name":"Equans Groningen Drenthe Oosterbroekstraat 3","address":"Oosterbroekstraat 3","city":"Assen","operatorName":"EQUANS","maxPowerKw":0,"isMegawatt":false,"status":"AVAILABLE","source":"ndw"}},{"type":"Feature","geometry":{"type":"Point","coordinates":[6.5958,53.02476]},"properties":{"type":"charge","layer":"passenger","locationId":"caf2ed50-d5bb-11ee-b82c-42010aa40fc0","name":"Equans Groningen Drenthe Fuutmesschen 14","address":"Fuutmesschen 14","city":"Assen","operatorName":"EQUANS","maxPowerKw":0,"isMegawatt":false,"status":"AVAILABLE","source":"ndw"}},{"type":"Feature","geometry":{"type":"Point","coordinates":[6.561109,53.002611]},"properties":{"type":"charge","layer":"passenger","locationId":"f32f3396-40cc-11f0-8dcd-42010aa400b8","name":"Equans Groningen Drenthe Thorbeckelaan 2d","address":"Thorbeckelaan 2d","city":"Assen","operatorName":"EQUANS","maxPowerKw":0,"isMegawatt":false,"status":"AVAILABLE","source":"ndw"}},{"type":"Feature","geometry":{"type":"Point","coordinates":[6.568918,53.019032]},"properties":{"type":"charge","layer":"passenger","locationId":"2a5fe024-f94a-11ef-8dac-42010aa400b8","name":"Equans Groningen Drenthe Groenkampen 1","address":"Groenkampen 1","city":"Assen","operatorName":"EQUANS","maxPowerKw":0,"isMegawatt":false,"status":"AVAILABLE","source":"ndw"}},{"type":"Feature","geometry":{"type":"Point","coordinates":[6.584241,53.018146]},"properties":{"type":"charge","layer":"passenger","locationId":"95377f5e-3f33-11eb-8b4b-42010a840003","name":"Equans Groningen Drenthe Kleuvenstee 74","address":"Kleuvenstee 74","city":"Assen","operatorName":"EQUANS","maxPowerKw":0,"isMegawatt":false,"status":"AVAILABLE","source":"ndw"}},{"type":"Feature","geometry":{"type":"Point","coordinates":[6.56902,52.9943]},"properties":{"type":"charge","layer":"passenger","locationId":"a2416636-b05f-11f0-81c0-42010aa400b8","name":"Equans Groningen Drenthe Oranjestraat 37","address":"Oranjestraat 37","city":"Assen","operatorName":"EQUANS","maxPowerKw":0,"isMegawatt":false,"status":"AVAILABLE","source":"ndw"}},{"type":"Feature","geometry":{"type":"Point","coordinates":[6.565093,52.995467]},"properties":{"type":"charge","layer":"passenger","locationId":"f72f5f3c-86b5-11eb-ae60-42010a840003","name":"Equans Groningen Drenthe Noordersingel 25D1","address":"Noordersingel 25D1","city":"Assen","operatorName":"EQUANS","maxPowerKw":0,"isMegawatt":false,"status":"AVAILABLE","source":"ndw"}},{"type":"Feature","geometry":{"type":"Point","coordinates":[6.570823,52.974212]},"properties":{"type":"charge","layer":"passenger","locationId":"0bfebdc2-8dfd-11ed-a6cc-42010aa40fc0","name":"Equans Groningen Drenthe Krulzoom 48","address":"Krulzoom 48","city":"Assen","operatorName":"EQUANS","maxPowerKw":0,"isMegawatt":false,"status":"CHARGING","source":"ndw"}},{"type":"Feature","geometry":{"type":"Point","coordinates":[6.53233,52.98626]},"properties":{"type":"charge","layer":"passenger","locationId":"334505e0-2455-11ef-be5b-42010aa400b8","name":"Equans Groningen Drenthe Salland 144","address":"Salland 144","city":"Assen","operatorName":"EQUANS","maxPowerKw":0,"isMegawatt":false,"status":"AVAILABLE","source":"ndw"}},{"type":"Feature","geometry":{"type":"Point","coordinates":[6.531526,52.988468]},"properties":{"type":"charge","layer":"passenger","locationId":"442470fc-da73-11ee-b515-42010aa40fc0","name":"Equans Groningen Drenthe Fivelingostraat 17","address":"Fivelingostraat 17","city":"Assen","operatorName":"EQUANS","maxPowerKw":0,"isMegawatt":false,"status":"AVAILABLE","source":"ndw"}},{"type":"Feature","geometry":{"type":"Point","coordinates":[6.554843,53.017262]},"properties":{"type":"charge","layer":"passenger","locationId":"6f1a9b14-3a55-11ef-b319-42010aa400b8","name":"Equans Groningen Drenthe Boekweitveld 10","address":"Boekweitveld 10","city":"Assen","operatorName":"EQUANS","maxPowerKw":0,"isMegawatt":false,"status":"AVAILABLE","source":"ndw"}},{"type":"Feature","geometry":{"type":"Point","coordinates":[6.5603,52.99068]},"properties":{"type":"charge","layer":"passenger","locationId":"a20e64ca-b05f-11f0-bc87-42010aa400b8","name":"Equans Groningen Drenthe Wilhelminastraat 41","address":"Wilhelminastraat 41","city":"Assen","operatorName":"EQUANS","maxPowerKw":0,"isMegawatt":false,"status":"AVAILABLE","source":"ndw"}},{"type":"Feature","geometry":{"type":"Point","coordinates":[6.54806,53.00538]},"properties":{"type":"charge","layer":"passenger","locationId":"a299e770-b05f-11f0-be61-42010aa400b8","name":"Equans Groningen Drenthe Zuidenveld 51","address":"Zuidenveld 51","city":"Assen","operatorName":"EQUANS","maxPowerKw":0,"isMegawatt":false,"status":"AVAILABLE","source":"ndw"}},{"type":"Feature","geometry":{"type":"Point","coordinates":[6.55163,53.00682]},"properties":{"type":"charge","layer":"passenger","locationId":"deeeb59a-a5ce-11ee-a117-42010aa40fc0","name":"Equans Groningen Drenthe Schultestraat 7","address":"Schultestraat 7","city":"Assen","operatorName":"EQUANS","maxPowerKw":0,"isMegawatt":false,"status":"AVAILABLE","source":"ndw"}},{"type":"Feature","geometry":{"type":"Point","coordinates":[6.55127,53.00499]},"properties":{"type":"charge","layer":"passenger","locationId":"e516d190-dacf-11f0-8561-42010aa400b8","name":"Equans Groningen Drenthe de Klenckestraat 4A","address":"de Klenckestraat 4A","city":"Assen","operatorName":"EQUANS","maxPowerKw":0,"isMegawatt":false,"status":"AVAILABLE","source":"ndw"}},{"type":"Feature","geometry":{"type":"Point","coordinates":[6.540738,53.005283]},"properties":{"type":"charge","layer":"passenger","locationId":"059e7ba8-d006-11ec-b69f-42010a840003","name":"NL, Dommelstraat 24, 9406 RN Assen","address":"Dommelstraat 24","city":"Assen","operatorName":"Allego","maxPowerKw":0,"isMegawatt":false,"status":"CHARGING","source":"ndw"}},{"type":"Feature","geometry":{"type":"Point","coordinates":[6.564671,53.011309]},"properties":{"type":"charge","layer":"passenger","locationId":"8b8d18ec-3b46-11eb-a52b-42010a840003","name":"NL, Smetanalaan 212, 9402XK Assen","address":"Smetanalaan 212","city":"Assen","operatorName":"Allego","maxPowerKw":0,"isMegawatt":false,"status":"CHARGING","source":"ndw"}},{"type":"Feature","geometry":{"type":"Point","coordinates":[6.58438,53.017999]},"properties":{"type":"charge","layer":"passenger","locationId":"95377f5e-3f33-11eb-8b4b-42010a840003","name":"NL, Kleuvenstee 96, 9403 LS Assen","address":"Kleuvenstee 96","city":"Assen","operatorName":"Allego","maxPowerKw":0,"isMegawatt":false,"status":"AVAILABLE","source":"ndw"}},{"type":"Feature","geometry":{"type":"Point","coordinates":[6.58249,53.01468]},"properties":{"type":"charge","layer":"passenger","locationId":"38580e18-db41-11ee-abab-42010aa40fc0","name":"Equans Groningen Drenthe Roegoorn 3A","address":"Roegoorn 3A","city":"Assen","operatorName":"EQUANS","maxPowerKw":0,"isMegawatt":false,"status":"AVAILABLE","source":"ndw"}},{"type":"Feature","geometry":{"type":"Point","coordinates":[6.557273,52.990171]},"properties":{"type":"charge","layer":"passenger","locationId":"1a05e124-e440-11eb-a1a0-42010a840003","name":"NL, Hertenkamp, 2, 9401HL, Assen","address":"Hertenkamp 2","city":"Assen","operatorName":"Allego","maxPowerKw":0,"isMegawatt":false,"status":"AVAILABLE","source":"ndw"}},{"type":"Feature","geometry":{"type":"Point","coordinates":[6.516068,52.999891]},"properties":{"type":"charge","layer":"passenger","locationId":"9ed2157e-5ddd-11f0-a657-42010aa400b8","name":"Equans Groningen Drenthe Oostergracht 27","address":"Oostergracht 27","city":"Assen","operatorName":"EQUANS","maxPowerKw":0,"isMegawatt":false,"status":"AVAILABLE","source":"ndw"}},{"type":"Feature","geometry":{"type":"Point","coordinates":[6.512578,53.001314]},"properties":{"type":"charge","layer":"passenger","locationId":"91145022","name":"Equans Groningen Drenthe Noorderplantsoen 27","address":"Noorderplantsoen 27","city":"Assen","operatorName":"EQUANS","maxPowerKw":0,"isMegawatt":false,"status":"AVAILABLE","source":"ndw"}},{"type":"Feature","geometry":{"type":"Point","coordinates":[6.547242,53.008707]},"properties":{"type":"charge","layer":"passenger","locationId":"NLLOC011832","name":"NL, Rijnstraat 2, 9406SE Assen","address":"Rijnstraat 2","city":"Assen","operatorName":"Allego","maxPowerKw":0,"isMegawatt":false,"status":"AVAILABLE","source":"ndw"}},{"type":"Feature","geometry":{"type":"Point","coordinates":[6.562946,53.008786]},"properties":{"type":"charge","layer":"passenger","locationId":"b99a9824-a5d1-11ee-9200-42010aa40fc0","name":"Equans Groningen Drenthe Mozartplaats 55","address":"Mozartplaats 55","city":"Assen","operatorName":"EQUANS","maxPowerKw":0,"isMegawatt":false,"status":"AVAILABLE","source":"ndw"}},{"type":"Feature","geometry":{"type":"Point","coordinates":[6.587093,53.02209]},"properties":{"type":"charge","layer":"passenger","locationId":"NLLOC022196","name":"NL, Boerhoorndreef 119, 9403 KC Assen","address":"Boerhoorndreef 119","city":"Assen","operatorName":"Allego","maxPowerKw":0,"isMegawatt":false,"status":"AVAILABLE","source":"ndw"}},{"type":"Feature","geometry":{"type":"Point","coordinates":[6.507149,53.003476]},"properties":{"type":"charge","layer":"passenger","locationId":"26cc93c0-d2c7-11ef-80ad-42010aa400b8","name":"Equans Groningen Drenthe Hazelaarhof 73","address":"Hazelaarhof 73","city":"Assen","operatorName":"EQUANS","maxPowerKw":0,"isMegawatt":false,"status":"AVAILABLE","source":"ndw"}},{"type":"Feature","geometry":{"type":"Point","coordinates":[6.564325,53.011614]},"properties":{"type":"charge","layer":"passenger","locationId":"84bc3444-e27c-11ef-9fdd-42010aa400b8","name":"Equans Groningen Drenthe Smetanalaan 452","address":"Smetanalaan 452","city":"Assen","operatorName":"EQUANS","maxPowerKw":0,"isMegawatt":false,"status":"AVAILABLE","source":"ndw"}},{"type":"Feature","geometry":{"type":"Point","coordinates":[6.523788,52.999315]},"properties":{"type":"charge","layer":"passenger","locationId":"a9a25bde-74a9-11f0-b150-42010aa400b8","name":"Equans Groningen Drenthe De Hoogspanningsweg 2","address":"De Hoogspanningsweg 2","city":"Assen","operatorName":"EQUANS","maxPowerKw":0,"isMegawatt":false,"status":"AVAILABLE","source":"ndw"}},{"type":"Feature","geometry":{"type":"Point","coordinates":[6.57648,52.99831]},"properties":{"type":"charge","layer":"passenger","locationId":"91145423","name":"Equans Groningen Drenthe Jozef Israelsweg 24","address":"Jozef Israelsweg 24","city":"Assen","operatorName":"EQUANS","maxPowerKw":0,"isMegawatt":false,"status":"AVAILABLE","source":"ndw"}},{"type":"Feature","geometry":{"type":"Point","coordinates":[6.57868,52.99758]},"properties":{"type":"charge","layer":"passenger","locationId":"7244c352-a55f-11f0-8d5e-42010aa400b8","name":"Equans Groningen Drenthe Mesdagstraat 30","address":"Mesdagstraat 30","city":"Assen","operatorName":"EQUANS","maxPowerKw":0,"isMegawatt":false,"status":"UNAVAILABLE","source":"ndw"}},{"type":"Feature","geometry":{"type":"Point","coordinates":[6.512222,52.99952]},"properties":{"type":"charge","layer":"passenger","locationId":"8e94681e-425e-11f0-b83f-42010aa400b8","name":"Equans Groningen Drenthe Gildestraat 1","address":"Gildestraat 1","city":"Assen","operatorName":"EQUANS","maxPowerKw":0,"isMegawatt":false,"status":"AVAILABLE","source":"ndw"}},{"type":"Feature","geometry":{"type":"Point","coordinates":[6.51549,53.00444]},"properties":{"type":"charge","layer":"passenger","locationId":"e6fff520-2452-11ef-9271-42010aa400b8","name":"Equans Groningen Drenthe Papayapad 50","address":"Papayapad 50","city":"Assen","operatorName":"EQUANS","maxPowerKw":0,"isMegawatt":false,"status":"AVAILABLE","source":"ndw"}},{"type":"Feature","geometry":{"type":"Point","coordinates":[6.51153,53.00009]},"properties":{"type":"charge","layer":"passenger","locationId":"9fa6728a-b66a-11ea-8f60-42010a840003","name":"Equans Groningen Drenthe Westerwal 30","address":"Westerwal 30","city":"Assen","operatorName":"EQUANS","maxPowerKw":0,"isMegawatt":false,"status":"AVAILABLE","source":"ndw"}},{"type":"Feature","geometry":{"type":"Point","coordinates":[6.541404,53.009324]},"properties":{"type":"charge","layer":"passenger","locationId":"d7d52b2e-e27f-11ef-a0f3-42010aa400b8","name":"Equans Groningen Drenthe IJselstraat 109","address":"IJselstraat 109","city":"Assen","operatorName":"EQUANS","maxPowerKw":0,"isMegawatt":false,"status":"AVAILABLE","source":"ndw"}},{"type":"Feature","geometry":{"type":"Point","coordinates":[6.532647,53.002691]},"properties":{"type":"charge","layer":"passenger","locationId":"f00998a4-bc29-11f0-be0b-42010aa400b8","name":"Equans Groningen Drenthe Mien Ruysweg 10 A17","address":"Mien Ruysweg 10 A17","city":"Assen","operatorName":"EQUANS","maxPowerKw":0,"isMegawatt":false,"status":"AVAILABLE","source":"ndw"}},{"type":"Feature","geometry":{"type":"Point","coordinates":[6.57953,52.98846]},"properties":{"type":"charge","layer":"passenger","locationId":"409912c0-db3c-11ee-af7f-42010aa40fc0","name":"Equans Groningen Drenthe Dotterbloemstraat 41","address":"Dotterbloemstraat 41","city":"Assen","operatorName":"EQUANS","maxPowerKw":0,"isMegawatt":false,"status":"CHARGING","source":"ndw"}},{"type":"Feature","geometry":{"type":"Point","coordinates":[6.55268,53.00826]},"properties":{"type":"charge","layer":"passenger","locationId":"73fef9ee-ee47-11ef-bea8-42010aa400b8","name":"Equans Groningen Drenthe Zwartwatersweg 196","address":"Zwartwatersweg 196","city":"Assen","operatorName":"EQUANS","maxPowerKw":0,"isMegawatt":false,"status":"AVAILABLE","source":"ndw"}},{"type":"Feature","geometry":{"type":"Point","coordinates":[6.552121,53.000166]},"properties":{"type":"charge","layer":"passenger","locationId":"7d27f72e-8207-11f0-9747-42010aa400b8","name":"Equans Groningen Drenthe Thorbeckelaan 194","address":"Thorbeckelaan 194","city":"Assen","operatorName":"EQUANS","maxPowerKw":0,"isMegawatt":false,"status":"CHARGING","source":"ndw"}},{"type":"Feature","geometry":{"type":"Point","coordinates":[6.592379,53.005814]},"properties":{"type":"charge","layer":"passenger","locationId":"7fea8310-92b2-11ed-a23d-42010aa40fc0","name":"Equans Groningen Drenthe Van Doornestraat 5","address":"Van Doornestraat 5","city":"Assen","operatorName":"EQUANS","maxPowerKw":0,"isMegawatt":false,"status":"AVAILABLE","source":"ndw"}},{"type":"Feature","geometry":{"type":"Point","coordinates":[6.556886,52.99679]},"properties":{"type":"charge","layer":"passenger","locationId":"26475f2c-277b-11ef-874e-42010aa400b8","name":"Equans Groningen Drenthe Kanaalstraat 51","address":"Kanaalstraat 51","city":"Assen","operatorName":"EQUANS","maxPowerKw":0,"isMegawatt":false,"status":"AVAILABLE","source":"ndw"}},{"type":"Feature","geometry":{"type":"Point","coordinates":[6.53594,52.98184]},"properties":{"type":"charge","layer":"passenger","locationId":"39baa3a8-2455-11ef-9b97-42010aa400b8","name":"Equans Groningen Drenthe De Vallei 22","address":"De Vallei 22","city":"Assen","operatorName":"EQUANS","maxPowerKw":0,"isMegawatt":false,"status":"AVAILABLE","source":"ndw"}},{"type":"Feature","geometry":{"type":"Point","coordinates":[6.516188,53.001188]},"properties":{"type":"charge","layer":"passenger","locationId":"60f2512a-a5d2-11ee-bf21-42010aa40fc0","name":"Equans Groningen Drenthe Oosterwal 10","address":"Oosterwal 10","city":"Assen","operatorName":"EQUANS","maxPowerKw":0,"isMegawatt":false,"status":"AVAILABLE","source":"ndw"}},{"type":"Feature","geometry":{"type":"Point","coordinates":[6.562592,52.990134]},"properties":{"type":"charge","layer":"passenger","locationId":"e9a61354-40cb-11f0-8321-42010aa400b8","name":"Equans Groningen Drenthe Prinses Beatrixstraat 47","address":"Prinses Beatrixstraat 47","city":"Assen","operatorName":"EQUANS","maxPowerKw":0,"isMegawatt":false,"status":"AVAILABLE","source":"ndw"}},{"type":"Feature","geometry":{"type":"Point","coordinates":[6.560816,52.997963]},"properties":{"type":"charge","layer":"passenger","locationId":"OST23P0069_0022_0","name":"OST23P0069_0022_0","address":"Neptunusplein 16","city":"Assen","operatorName":"IPCharging","maxPowerKw":0,"isMegawatt":false,"status":"AVAILABLE","source":"ndw"}},{"type":"Feature","geometry":{"type":"Point","coordinates":[6.59575,53.02471]},"properties":{"type":"charge","layer":"passenger","locationId":"91145050","name":"Equans Groningen Drenthe Fuutmesschen 14","address":"Fuutmesschen 14","city":"Assen","operatorName":"EQUANS","maxPowerKw":0,"isMegawatt":false,"status":"AVAILABLE","source":"ndw"}},{"type":"Feature","geometry":{"type":"Point","coordinates":[6.531518,53.001951]},"properties":{"type":"charge","layer":"passenger","locationId":"64465b4118541d0012f1410f","name":"Kozijn Beheer Nederland's station","address":"Mien Ruysweg 44","city":"Assen","operatorName":"E-Flux by Road","maxPowerKw":11,"isMegawatt":false,"status":"AVAILABLE","source":"ndw"}},{"type":"Feature","geometry":{"type":"Point","coordinates":[6.552964,52.997548]},"properties":{"type":"charge","layer":"passenger","locationId":"NLLOC018821","name":"NL, Mr. P.J. Troelstralaan 214, 9406 BE Assen","address":"Mr. P.J. Troelstralaan 214","city":"Assen","operatorName":"Allego","maxPowerKw":0,"isMegawatt":false,"status":"AVAILABLE","source":"ndw"}},{"type":"Feature","geometry":{"type":"Point","coordinates":[6.57124,53.00783]},"properties":{"type":"charge","layer":"passenger","locationId":"1BA09F5F-5DAA-40C4-822A-999C764B4FCC","name":"Eneco eMobility Broekhuis Volvo Assen","address":"Industrieweg 42","city":"Assen","operatorName":"Eneco","maxPowerKw":22,"isMegawatt":false,"status":"AVAILABLE","source":"ndw"}},{"type":"Feature","geometry":{"type":"Point","coordinates":[6.5791,53.01872]},"properties":{"type":"charge","layer":"passenger","locationId":"91145099","name":"Equans Groningen Drenthe Kiepheugte 20","address":"Kiepheugte 20","city":"Assen","operatorName":"EQUANS","maxPowerKw":0,"isMegawatt":false,"status":"AVAILABLE","source":"ndw"}},{"type":"Feature","geometry":{"type":"Point","coordinates":[6.557352,52.995392]},"properties":{"type":"charge","layer":"passenger","locationId":"OST22P0097_0018_0","name":"OST22P0097_0018_0","address":"Weiersstraat 1","city":"Assen","operatorName":"IPCharging","maxPowerKw":0,"isMegawatt":false,"status":"AVAILABLE","source":"ndw"}},{"type":"Feature","geometry":{"type":"Point","coordinates":[6.569881,52.993908]},"properties":{"type":"charge","layer":"passenger","locationId":"91145010","name":"Equans Groningen Drenthe Oranjestraat 116","address":"Oranjestraat 116","city":"Assen","operatorName":"EQUANS","maxPowerKw":0,"isMegawatt":false,"status":"AVAILABLE","source":"ndw"}},{"type":"Feature","geometry":{"type":"Point","coordinates":[6.600419,53.014139]},"properties":{"type":"charge","layer":"passenger","locationId":"61e673d3834957141f484418","name":"K87","address":"Koraalstoep 87","city":"Assen","operatorName":"E-Flux by Road","maxPowerKw":11,"isMegawatt":false,"status":"CHARGING","source":"ndw"}},{"type":"Feature","geometry":{"type":"Point","coordinates":[6.568529,53.026171]},"properties":{"type":"charge","layer":"passenger","locationId":"923433","name":"DAE-NL-2000110_P02","address":"Amerikaweg 3","city":"Assen","operatorName":"DAEN Mobility","maxPowerKw":22,"isMegawatt":false,"status":"AVAILABLE","source":"ndw"}},{"type":"Feature","geometry":{"type":"Point","coordinates":[6.563138,53.020313]},"properties":{"type":"charge","layer":"passenger","locationId":"61d54a8e-a5d2-11ee-b2f7-42010aa40fc0","name":"Equans Groningen Drenthe Tiendlanden 14","address":"Tiendlanden 14","city":"Assen","operatorName":"EQUANS","maxPowerKw":0,"isMegawatt":false,"status":"AVAILABLE","source":"ndw"}},{"type":"Feature","geometry":{"type":"Point","coordinates":[6.582508,53.001369]},"properties":{"type":"charge","layer":"passenger","locationId":"6349d952-a3cd-11f0-bb24-42010aa400b8","name":"Equans Groningen Drenthe Dr. A.F. Philipsweg 47","address":"Dr. A.F. Philipsweg 47","city":"Assen","operatorName":"EQUANS","maxPowerKw":0,"isMegawatt":false,"status":"AVAILABLE","source":"ndw"}},{"type":"Feature","geometry":{"type":"Point","coordinates":[6.592379,53.005814]},"properties":{"type":"charge","layer":"passenger","locationId":"91145550","name":"Equans Groningen Drenthe Van Doornestraat 5","address":"Van Doornestraat 5","city":"Assen","operatorName":"EQUANS","maxPowerKw":0,"isMegawatt":false,"status":"AVAILABLE","source":"ndw"}},{"type":"Feature","geometry":{"type":"Point","coordinates":[6.58925,53.01884]},"properties":{"type":"charge","layer":"passenger","locationId":"824f26c8-db3c-11ee-822c-42010aa40fc0","name":"Equans Groningen Drenthe Weidebeemd 77","address":"Weidebeemd 77","city":"Assen","operatorName":"EQUANS","maxPowerKw":0,"isMegawatt":false,"status":"AVAILABLE","source":"ndw"}},{"type":"Feature","geometry":{"type":"Point","coordinates":[6.509673,53.001203]},"properties":{"type":"charge","layer":"passenger","locationId":"b9a56eac-6f29-11f0-9dd7-42010aa400b8","name":"Equans Groningen Drenthe Laurierpark 116","address":"Laurierpark 116","city":"Assen","operatorName":"EQUANS","maxPowerKw":0,"isMegawatt":false,"status":"AVAILABLE","source":"ndw"}},{"type":"Feature","geometry":{"type":"Point","coordinates":[6.569116,52.996882]},"properties":{"type":"charge","layer":"passenger","locationId":"NLLOC007254","name":"NL, Paul Krugerstraat 1-B, 9401AG Assen (laadpaal 2)","address":"Paul Krugerstraat 1-B","city":"Assen","operatorName":"Allego","maxPowerKw":0,"isMegawatt":false,"status":"AVAILABLE","source":"ndw"}},{"type":"Feature","geometry":{"type":"Point","coordinates":[6.560816,52.997963]},"properties":{"type":"charge","layer":"passenger","locationId":"OST23P0069_0022_2","name":"OST23P0069_0022_2","address":"Neptunusplein 16","city":"Assen","operatorName":"IPCharging","maxPowerKw":0,"isMegawatt":false,"status":"AVAILABLE","source":"ndw"}},{"type":"Feature","geometry":{"type":"Point","coordinates":[6.571781,53.008512]},"properties":{"type":"charge","layer":"passenger","locationId":"60b73cbee4ecbcc4f569d732","name":"Industrieweg 44A","address":"Industrieweg 44A","city":"Assen","operatorName":"E-Flux by Road","maxPowerKw":22,"isMegawatt":false,"status":"AVAILABLE","source":"ndw"}},{"type":"Feature","geometry":{"type":"Point","coordinates":[6.561498,53.002929]},"properties":{"type":"charge","layer":"passenger","locationId":"NLLOC011836","name":"NL, Thorbeckelaan 2, 9402ER Assen","address":"Thorbeckelaan 2","city":"Assen","operatorName":"Allego","maxPowerKw":0,"isMegawatt":false,"status":"AVAILABLE","source":"ndw"}},{"type":"Feature","geometry":{"type":"Point","coordinates":[6.568408,53.015868]},"properties":{"type":"charge","layer":"passenger","locationId":"NLLOC019147","name":"NL, Woerdes 1, 9407 CK Assen","address":"Woerdes 1","city":"Assen","operatorName":"Allego","maxPowerKw":0,"isMegawatt":false,"status":"AVAILABLE","source":"ndw"}},{"type":"Feature","geometry":{"type":"Point","coordinates":[6.58351,52.98556]},"properties":{"type":"charge","layer":"passenger","locationId":"72a6b9a4-a55f-11f0-9beb-42010aa400b8","name":"Equans Groningen Drenthe Speenkruidstraat 31","address":"Speenkruidstraat 31","city":"Assen","operatorName":"EQUANS","maxPowerKw":0,"isMegawatt":false,"status":"AVAILABLE","source":"ndw"}},{"type":"Feature","geometry":{"type":"Point","coordinates":[6.571305,52.990883]},"properties":{"type":"charge","layer":"passenger","locationId":"8e4fd992-42e5-11f0-91b9-42010aa400b8","name":"Equans Groningen Drenthe Oosterparallelweg 20","address":"Oosterparallelweg 20","city":"Assen","operatorName":"EQUANS","maxPowerKw":0,"isMegawatt":false,"status":"AVAILABLE","source":"ndw"}},{"type":"Feature","geometry":{"type":"Point","coordinates":[6.564181,53.004152]},"properties":{"type":"charge","layer":"passenger","locationId":"923085","name":"DAE_NL_2000939","address":"De Gaarde 27","city":"Assen","operatorName":"DAEN Mobility","maxPowerKw":11,"isMegawatt":false,"status":"AVAILABLE","source":"ndw"}},{"type":"Feature","geometry":{"type":"Point","coordinates":[6.513787,53.002878]},"properties":{"type":"charge","layer":"passenger","locationId":"NLLOC021599","name":"NL, Moerbeistraat 58, 9408BC, Assen","address":"Moerbeistraat 58","city":"Assen","operatorName":"Allego","maxPowerKw":0,"isMegawatt":false,"status":"AVAILABLE","source":"ndw"}},{"type":"Feature","geometry":{"type":"Point","coordinates":[6.545207,52.984668]},"properties":{"type":"charge","layer":"passenger","locationId":"NLLOC022197","name":"NL, Stadsbroek 11, 9405 BK Assen","address":"Stadsbroek 11","city":"Assen","operatorName":"Allego","maxPowerKw":0,"isMegawatt":false,"status":"CHARGING","source":"ndw"}},{"type":"Feature","geometry":{"type":"Point","coordinates":[6.557273,52.990171]},"properties":{"type":"charge","layer":"passenger","locationId":"NLLOC015215","name":"NL, Hertenkamp, 2, 9401HL, Assen","address":"Hertenkamp 2","city":"Assen","operatorName":"Allego","maxPowerKw":0,"isMegawatt":false,"status":"AVAILABLE","source":"ndw"}},{"type":"Feature","geometry":{"type":"Point","coordinates":[6.546781,52.996887]},"properties":{"type":"charge","layer":"passenger","locationId":"NLLOC015542","name":"NL, van Heuven Goedhartlaan 57, 9406CD, Assen","address":"van Heuven Goedhartlaan 57","city":"Assen","operatorName":"Allego","maxPowerKw":0,"isMegawatt":false,"status":"AVAILABLE","source":"ndw"}},{"type":"Feature","geometry":{"type":"Point","coordinates":[6.536593,52.99822]},"properties":{"type":"charge","layer":"passenger","locationId":"NLLOC007203","name":"NL, Stroom 4, 9406 ES Assen","address":"Stroom 4","city":"Assen","operatorName":"Allego","maxPowerKw":0,"isMegawatt":false,"status":"AVAILABLE","source":"ndw"}},{"type":"Feature","geometry":{"type":"Point","coordinates":[6.572346,52.980608]},"properties":{"type":"charge","layer":"passenger","locationId":"682ee652ee68d7e4b9f1cf8c","name":"GGZ Dennenweg 9, Assen: Trafostation 2","address":"Dennenweg 9","city":"Assen","operatorName":"E-Flux by Road","maxPowerKw":22,"isMegawatt":false,"status":"AVAILABLE","source":"ndw"}},{"type":"Feature","geometry":{"type":"Point","coordinates":[6.54236,53.001857]},"properties":{"type":"charge","layer":"passenger","locationId":"91145553","name":"Equans Groningen Drenthe Lesturgeonstraat 16","address":"Lesturgeonstraat 16","city":"Assen","operatorName":"EQUANS","maxPowerKw":0,"isMegawatt":false,"status":"AVAILABLE","source":"ndw"}},{"type":"Feature","geometry":{"type":"Point","coordinates":[6.546415,52.973646]},"properties":{"type":"charge","layer":"passenger","locationId":"NLLOC011822","name":"NL, De Haar, 9400XX, Assen","address":"De Haar","city":"Assen","operatorName":"Allego","maxPowerKw":0,"isMegawatt":false,"status":"AVAILABLE","source":"ndw"}},{"type":"Feature","geometry":{"type":"Point","coordinates":[6.576242,52.992278]},"properties":{"type":"charge","layer":"passenger","locationId":"NLLOC010456","name":"NL, Oosterpark 92, 9404 BK, Assen","address":"Oosterpark 92","city":"Assen","operatorName":"Allego","maxPowerKw":0,"isMegawatt":false,"status":"AVAILABLE","source":"ndw"}},{"type":"Feature","geometry":{"type":"Point","coordinates":[6.554843,53.017262]},"properties":{"type":"charge","layer":"passenger","locationId":"91145127","name":"Equans Groningen Drenthe Boekweitveld 10","address":"Boekweitveld 10","city":"Assen","operatorName":"EQUANS","maxPowerKw":0,"isMegawatt":false,"status":"AVAILABLE","source":"ndw"}},{"type":"Feature","geometry":{"type":"Point","coordinates":[6.557352,52.995392]},"properties":{"type":"charge","layer":"passenger","locationId":"OST22P0097_0018_1","name":"OST22P0097_0018_1","address":"Weiersstraat 1","city":"Assen","operatorName":"IPCharging","maxPowerKw":0,"isMegawatt":false,"status":"AVAILABLE","source":"ndw"}},{"type":"Feature","geometry":{"type":"Point","coordinates":[6.532962,52.98337]},"properties":{"type":"charge","layer":"passenger","locationId":"NLLOC007281","name":"NL, Het Sticht 56, 9405 NR, Assen","address":"Het Sticht 56","city":"Assen","operatorName":"Allego","maxPowerKw":0,"isMegawatt":false,"status":"AVAILABLE","source":"ndw"}},{"type":"Feature","geometry":{"type":"Point","coordinates":[6.572622,53.01816]},"properties":{"type":"charge","layer":"passenger","locationId":"NLLOC011829","name":"NL, Martin Luther Kingweg 1, 9407 RC Assen","address":"Martin Luther Kingweg 1","city":"Assen","operatorName":"Allego","maxPowerKw":0,"isMegawatt":false,"status":"AVAILABLE","source":"ndw"}},{"type":"Feature","geometry":{"type":"Point","coordinates":[6.593458,53.019727]},"properties":{"type":"charge","layer":"passenger","locationId":"NLLOC011807","name":"NL, Marterslag 19, 9403 XT Assen","address":"Marterslag 19","city":"Assen","operatorName":"Allego","maxPowerKw":0,"isMegawatt":false,"status":"AVAILABLE","source":"ndw"}},{"type":"Feature","geometry":{"type":"Point","coordinates":[6.504007,53.004171]},"properties":{"type":"charge","layer":"passenger","locationId":"NLLOC011817","name":"NL, De Boomgaard 46, 9408JB Assen","address":"De Boomgaard 46","city":"Assen","operatorName":"Allego","maxPowerKw":0,"isMegawatt":false,"status":"AVAILABLE","source":"ndw"}},{"type":"Feature","geometry":{"type":"Point","coordinates":[6.523788,52.999315]},"properties":{"type":"charge","layer":"passenger","locationId":"91145384","name":"Equans Groningen Drenthe De Hoogspanningsweg 2","address":"De Hoogspanningsweg 2","city":"Assen","operatorName":"EQUANS","maxPowerKw":0,"isMegawatt":false,"status":"AVAILABLE","source":"ndw"}},{"type":"Feature","geometry":{"type":"Point","coordinates":[6.568579,52.97414]},"properties":{"type":"charge","layer":"passenger","locationId":"91145104","name":"Equans Groningen Drenthe Pronkridder 1 A","address":"Pronkridder 1 A","city":"Assen","operatorName":"EQUANS","maxPowerKw":0,"isMegawatt":false,"status":"AVAILABLE","source":"ndw"}},{"type":"Feature","geometry":{"type":"Point","coordinates":[6.570823,52.974212]},"properties":{"type":"charge","layer":"passenger","locationId":"91145542","name":"Equans Groningen Drenthe Krulzoom 48","address":"Krulzoom 48","city":"Assen","operatorName":"EQUANS","maxPowerKw":0,"isMegawatt":false,"status":"AVAILABLE","source":"ndw"}},{"type":"Feature","geometry":{"type":"Point","coordinates":[6.5109,53.003283]},"properties":{"type":"charge","layer":"passenger","locationId":"NLLOC006705","name":"NL, Perenstraat 14, 9408AZ, Assen","address":"Perenstraat 14","city":"Assen","operatorName":"Allego","maxPowerKw":0,"isMegawatt":false,"status":"AVAILABLE","source":"ndw"}},{"type":"Feature","geometry":{"type":"Point","coordinates":[6.578933,52.996153]},"properties":{"type":"charge","layer":"passenger","locationId":"NLLOC011827","name":"NL, Het Palet 2, 9403CM Assen","address":"Het Palet 2","city":"Assen","operatorName":"Allego","maxPowerKw":0,"isMegawatt":false,"status":"AVAILABLE","source":"ndw"}},{"type":"Feature","geometry":{"type":"Point","coordinates":[6.52728,52.98594]},"properties":{"type":"charge","layer":"passenger","locationId":"91387416","name":"Equans Groningen Drenthe Schakelhof 1","address":"Schakelhof 1","city":"Assen","operatorName":"EQUANS","maxPowerKw":0,"isMegawatt":false,"status":"UNAVAILABLE","source":"ndw"}},{"type":"Feature","geometry":{"type":"Point","coordinates":[6.566498,52.99723]},"properties":{"type":"charge","layer":"passenger","locationId":"OST22P0081_0025_1","name":"OST22P0081_0025_1","address":"Kloekhorststraat 26","city":"Assen","operatorName":"IPCharging","maxPowerKw":0,"isMegawatt":false,"status":"AVAILABLE","source":"ndw"}},{"type":"Feature","geometry":{"type":"Point","coordinates":[6.580945,53.017544]},"properties":{"type":"charge","layer":"passenger","locationId":"NLLOC014569","name":"NL, Deelheugte, 34, 9403HC, Assen","address":"Deelheugte 34","city":"Assen","operatorName":"Allego","maxPowerKw":0,"isMegawatt":false,"status":"AVAILABLE","source":"ndw"}},{"type":"Feature","geometry":{"type":"Point","coordinates":[6.565093,52.995467]},"properties":{"type":"charge","layer":"passenger","locationId":"91145437","name":"Equans Groningen Drenthe Noordersingel 25D1","address":"Noordersingel 25D1","city":"Assen","operatorName":"EQUANS","maxPowerKw":0,"isMegawatt":false,"status":"AVAILABLE","source":"ndw"}},{"type":"Feature","geometry":{"type":"Point","coordinates":[6.587089,53.014564]},"properties":{"type":"charge","layer":"passenger","locationId":"NLLOC022207","name":"NL, Roegoorn 81, 9403 NT Assen","address":"Roegoorn 81","city":"Assen","operatorName":"Allego","maxPowerKw":0,"isMegawatt":false,"status":"AVAILABLE","source":"ndw"}},{"type":"Feature","geometry":{"type":"Point","coordinates":[6.571987,52.988201]},"properties":{"type":"charge","layer":"passenger","locationId":"NLLOC017537","name":"NL, Lodewijk Napoleonplein 2, 9404 RS Assen","address":"Lodewijk Napoleonplein 2","city":"Assen","operatorName":"Allego","maxPowerKw":0,"isMegawatt":false,"status":"AVAILABLE","source":"ndw"}},{"type":"Feature","geometry":{"type":"Point","coordinates":[6.594424,53.023298]},"properties":{"type":"charge","layer":"passenger","locationId":"NLLOC024142","name":"NL, Eekhoornslag 110, 9403 XZ Assen","address":"Eekhoornslag 110","city":"Assen","operatorName":"Allego","maxPowerKw":0,"isMegawatt":false,"status":"AVAILABLE","source":"ndw"}},{"type":"Feature","geometry":{"type":"Point","coordinates":[6.552121,53.000166]},"properties":{"type":"charge","layer":"passenger","locationId":"91145453","name":"Equans Groningen Drenthe Thorbeckelaan 194","address":"Thorbeckelaan 194","city":"Assen","operatorName":"EQUANS","maxPowerKw":0,"isMegawatt":false,"status":"AVAILABLE","source":"ndw"}},{"type":"Feature","geometry":{"type":"Point","coordinates":[6.582508,53.001369]},"properties":{"type":"charge","layer":"passenger","locationId":"91193661","name":"Equans Groningen Drenthe Dr. A.F. Philipsweg 47","address":"Dr. A.F. Philipsweg 47","city":"Assen","operatorName":"EQUANS","maxPowerKw":0,"isMegawatt":false,"status":"AVAILABLE","source":"ndw"}},{"type":"Feature","geometry":{"type":"Point","coordinates":[6.508187,52.999009]},"properties":{"type":"charge","layer":"passenger","locationId":"91145443","name":"Equans Groningen Drenthe Aletta Jacobsweg 4e","address":"Aletta Jacobsweg 4e","city":"Assen","operatorName":"EQUANS","maxPowerKw":0,"isMegawatt":false,"status":"AVAILABLE","source":"ndw"}},{"type":"Feature","geometry":{"type":"Point","coordinates":[6.565324,53.006166]},"properties":{"type":"charge","layer":"passenger","locationId":"NLLOC019262","name":"NL, Sweelinckplein 19, 9402 TV Assen","address":"Sweelinckplein 19","city":"Assen","operatorName":"Allego","maxPowerKw":0,"isMegawatt":false,"status":"AVAILABLE","source":"ndw"}},{"type":"Feature","geometry":{"type":"Point","coordinates":[6.5603,52.99068]},"properties":{"type":"charge","layer":"passenger","locationId":"91220172","name":"Equans Groningen Drenthe Wilhelminastraat 41","address":"Wilhelminastraat 41","city":"Assen","operatorName":"EQUANS","maxPowerKw":0,"isMegawatt":false,"status":"AVAILABLE","source":"ndw"}},{"type":"Feature","geometry":{"type":"Point","coordinates":[6.591144,53.013491]},"properties":{"type":"charge","layer":"passenger","locationId":"NLLOC026993","name":"NL, Saffierstoep 92, 9403RV, Assen","address":"Saffierstoep 92","city":"Assen","operatorName":"Allego","maxPowerKw":0,"isMegawatt":false,"status":"AVAILABLE","source":"ndw"}},{"type":"Feature","geometry":{"type":"Point","coordinates":[6.558394,53.020105]},"properties":{"type":"charge","layer":"passenger","locationId":"NLLOC024143","name":"NL, Iemstukken 19, 9407 KH Assen","address":"Iemstukken 19","city":"Assen","operatorName":"Allego","maxPowerKw":0,"isMegawatt":false,"status":"AVAILABLE","source":"ndw"}},{"type":"Feature","geometry":{"type":"Point","coordinates":[6.587476,53.019576]},"properties":{"type":"charge","layer":"passenger","locationId":"NLLOC027119","name":"NL, Ruskenbeemd 4, 9403 MP Assen","address":"Ruskenbeemd 4","city":"Assen","operatorName":"Allego","maxPowerKw":0,"isMegawatt":false,"status":"AVAILABLE","source":"ndw"}},{"type":"Feature","geometry":{"type":"Point","coordinates":[6.555064,53.003465]},"properties":{"type":"charge","layer":"passenger","locationId":"NLLOC022212","name":"NL, Talmastraat 43, 9402 HB Assen","address":"Talmastraat 43","city":"Assen","operatorName":"Allego","maxPowerKw":0,"isMegawatt":false,"status":"AVAILABLE","source":"ndw"}},{"type":"Feature","geometry":{"type":"Point","coordinates":[6.562946,53.008786]},"properties":{"type":"charge","layer":"passenger","locationId":"91145013","name":"Equans Groningen Drenthe Mozartplaats 55","address":"Mozartplaats 55","city":"Assen","operatorName":"EQUANS","maxPowerKw":0,"isMegawatt":false,"status":"AVAILABLE","source":"ndw"}},{"type":"Feature","geometry":{"type":"Point","coordinates":[6.53594,52.98184]},"properties":{"type":"charge","layer":"passenger","locationId":"91145092","name":"Equans Groningen Drenthe De Vallei 22","address":"De Vallei 22","city":"Assen","operatorName":"EQUANS","maxPowerKw":0,"isMegawatt":false,"status":"AVAILABLE","source":"ndw"}},{"type":"Feature","geometry":{"type":"Point","coordinates":[6.557933,52.991235]},"properties":{"type":"charge","layer":"passenger","locationId":"665700b7ff63e4001c2be4a6","name":"Gymnasium 1825 Charge Station I","address":"Dr. Nassaulaan  5","city":"Assen","operatorName":"E-Flux by Road","maxPowerKw":11,"isMegawatt":false,"status":"AVAILABLE","source":"ndw"}},{"type":"Feature","geometry":{"type":"Point","coordinates":[6.5613,53.00681]},"properties":{"type":"charge","layer":"passenger","locationId":"91358072","name":"Equans Groningen Drenthe Peter van Anrooystraat 23","address":"Peter van Anrooystraat 23","city":"Assen","operatorName":"EQUANS","maxPowerKw":0,"isMegawatt":false,"status":"AVAILABLE","source":"ndw"}},{"type":"Feature","geometry":{"type":"Point","coordinates":[6.55127,53.00499]},"properties":{"type":"charge","layer":"passenger","locationId":"91298594","name":"Equans Groningen Drenthe de Klenckestraat 4A","address":"de Klenckestraat 4A","city":"Assen","operatorName":"EQUANS","maxPowerKw":0,"isMegawatt":false,"status":"AVAILABLE","source":"ndw"}},{"type":"Feature","geometry":{"type":"Point","coordinates":[6.50406,53.00399]},"properties":{"type":"charge","layer":"passenger","locationId":"91204142","name":"Equans Groningen Drenthe De Boomgaard 48","address":"De Boomgaard 48","city":"Assen","operatorName":"EQUANS","maxPowerKw":0,"isMegawatt":false,"status":"AVAILABLE","source":"ndw"}},{"type":"Feature","geometry":{"type":"Point","coordinates":[6.571305,52.990883]},"properties":{"type":"charge","layer":"passenger","locationId":"91145440","name":"Equans Groningen Drenthe Oosterparallelweg 20","address":"Oosterparallelweg 20","city":"Assen","operatorName":"EQUANS","maxPowerKw":0,"isMegawatt":false,"status":"AVAILABLE","source":"ndw"}},{"type":"Feature","geometry":{"type":"Point","coordinates":[6.555738,53.005649]},"properties":{"type":"charge","layer":"passenger","locationId":"91145564","name":"Equans Groningen Drenthe Oosterbroekstraat 3","address":"Oosterbroekstraat 3","city":"Assen","operatorName":"EQUANS","maxPowerKw":0,"isMegawatt":false,"status":"AVAILABLE","source":"ndw"}},{"type":"Feature","geometry":{"type":"Point","coordinates":[6.539084,52.996654]},"properties":{"type":"charge","layer":"passenger","locationId":"NLLOC017065","name":"NL, Zwin 17, 9406EV, Assen","address":"Zwin 17","city":"Assen","operatorName":"Allego","maxPowerKw":0,"isMegawatt":false,"status":"AVAILABLE","source":"ndw"}},{"type":"Feature","geometry":{"type":"Point","coordinates":[6.54115,52.99065]},"properties":{"type":"charge","layer":"passenger","locationId":"91145224","name":"Equans Groningen Drenthe Balkenweg 3A","address":"Balkenweg 3A","city":"Assen","operatorName":"EQUANS","maxPowerKw":0,"isMegawatt":false,"status":"AVAILABLE","source":"ndw"}},{"type":"Feature","geometry":{"type":"Point","coordinates":[6.563138,53.020313]},"properties":{"type":"charge","layer":"passenger","locationId":"91145017","name":"Equans Groningen Drenthe Tiendlanden 14","address":"Tiendlanden 14","city":"Assen","operatorName":"EQUANS","maxPowerKw":0,"isMegawatt":false,"status":"AVAILABLE","source":"ndw"}},{"type":"Feature","geometry":{"type":"Point","coordinates":[6.540738,53.005283]},