{"type":"FeatureCollection","metadata":{"gemeente":"Bergen (L.)","slug":"bergen-l","code":"GM0893","generated_at":"2026-06-02T13:19:22.438Z","total_passenger":68,"total_freight":0,"bounds":[5.976605753365938,51.50308066092982,6.213359490912525,51.67616447375322],"operators":["ChargePoint","DAEN Mobility","E-Flux by Road","Eneco","Heijmans","Lanova Laadpalen","Opcharge","Pluq","Vattenfall InCharge"]},"features":[{"type":"Feature","geometry":{"type":"Point","coordinates":[6.05448,51.59727]},"properties":{"type":"charge","layer":"passenger","locationId":"205fd7369cd98c693b8885dd925c9ee5","name":"Bergse Heide 20","address":"Bergse Heide 20","city":"Bergen","operatorName":"Vattenfall InCharge","maxPowerKw":11,"isMegawatt":false,"status":"AVAILABLE","source":"ndw"}},{"type":"Feature","geometry":{"type":"Point","coordinates":[6.039559,51.611599]},"properties":{"type":"charge","layer":"passenger","locationId":"8bec7762-fc36-11ec-aa9c-42010aa40fce","name":"Eneco eMobility De Flammert 1208 Nieuw-Bergen","address":"De Flammert 1208","city":"Nieuw-Bergen","operatorName":"Eneco","maxPowerKw":22,"isMegawatt":false,"status":"AVAILABLE","source":"ndw"}},{"type":"Feature","geometry":{"type":"Point","coordinates":[6.09725,51.5499]},"properties":{"type":"charge","layer":"passenger","locationId":"8aae0d1d82eb49358c6f","name":"Eldershof Well","address":"Eldershof 1","city":"Well","operatorName":"Opcharge","maxPowerKw":22,"isMegawatt":false,"status":"AVAILABLE","source":"ndw"}},{"type":"Feature","geometry":{"type":"Point","coordinates":[6.046951,51.608308]},"properties":{"type":"charge","layer":"passenger","locationId":"dd7e0f52-8205-467e-96a9-a05273572b60","name":"De Flammert 1028","address":"De Flammert 1028","city":"Bergen","operatorName":"Vattenfall InCharge","maxPowerKw":11,"isMegawatt":false,"status":"AVAILABLE","source":"ndw"}},{"type":"Feature","geometry":{"type":"Point","coordinates":[6.052519,51.607418]},"properties":{"type":"charge","layer":"passenger","locationId":"20cc2dd8-f0f3-4133-bf6f-165a6389f5f5","name":"Van Meerlaerstraat 11","address":"Van Meerlaerstraat 11","city":"Bergen","operatorName":"Vattenfall InCharge","maxPowerKw":11,"isMegawatt":false,"status":"AVAILABLE","source":"ndw"}},{"type":"Feature","geometry":{"type":"Point","coordinates":[6.047409,51.605737]},"properties":{"type":"charge","layer":"passenger","locationId":"404e1083-96d5-47d3-bfc1-655362e68dbf","name":"Vlammertsehof 61","address":"Vlammertsehof 61","city":"Bergen","operatorName":"Vattenfall InCharge","maxPowerKw":11,"isMegawatt":false,"status":"AVAILABLE","source":"ndw"}},{"type":"Feature","geometry":{"type":"Point","coordinates":[6.038616,51.609306]},"properties":{"type":"charge","layer":"passenger","locationId":"d0dee00c-4a25-11ed-a245-42010aa40fc0","name":"AZLN POST BERGEN","address":"1004 De Flammert","city":"Bergen","operatorName":"ChargePoint","maxPowerKw":22,"isMegawatt":false,"status":"UNAVAILABLE","source":"ndw"}},{"type":"Feature","geometry":{"type":"Point","coordinates":[6.059601,51.570735]},"properties":{"type":"charge","layer":"passenger","locationId":"64144593fdee0e001290582a","name":"Marina Resort","address":"Halve Maanseweg 105","city":"Well","operatorName":"E-Flux by Road","maxPowerKw":11,"isMegawatt":false,"status":"AVAILABLE","source":"ndw"}},{"type":"Feature","geometry":{"type":"Point","coordinates":[6.067955,51.571716]},"properties":{"type":"charge","layer":"passenger","locationId":"63e9431361396500121ec2f1","name":"A Hoeijmakers 's station","address":"Halvemaanseweg 401","city":"Well","operatorName":"E-Flux by Road","maxPowerKw":11,"isMegawatt":false,"status":"AVAILABLE","source":"ndw"}},{"type":"Feature","geometry":{"type":"Point","coordinates":[6.059955,51.571222]},"properties":{"type":"charge","layer":"passenger","locationId":"62cfd43525cedf1537eb3681","name":"Marina Resort Leukermeer woning 303","address":"Kamp  5","city":"Well","operatorName":"E-Flux by Road","maxPowerKw":11,"isMegawatt":false,"status":"AVAILABLE","source":"ndw"}},{"type":"Feature","geometry":{"type":"Point","coordinates":[6.061933,51.573741]},"properties":{"type":"charge","layer":"passenger","locationId":"62da9d870bdcb79ce65f8b32","name":"Ladestation-339","address":"Vossenheuvel  4","city":"Well","operatorName":"E-Flux by Road","maxPowerKw":11,"isMegawatt":false,"status":"AVAILABLE","source":"ndw"}},{"type":"Feature","geometry":{"type":"Point","coordinates":[6.055259,51.599934]},"properties":{"type":"charge","layer":"passenger","locationId":"9a6be9448446187c61ba2ac1a05108fd","name":"Lijsterstraat 10","address":"Lijsterstraat 10","city":"Bergen","operatorName":"Vattenfall InCharge","maxPowerKw":11,"isMegawatt":false,"status":"AVAILABLE","source":"ndw"}},{"type":"Feature","geometry":{"type":"Point","coordinates":[6.064591,51.56391]},"properties":{"type":"charge","layer":"passenger","locationId":"923041","name":"DAE_NL_2000877","address":"de kamp 13","city":"well","operatorName":"DAEN Mobility","maxPowerKw":11,"isMegawatt":false,"status":"AVAILABLE","source":"ndw"}},{"type":"Feature","geometry":{"type":"Point","coordinates":[6.061808,51.577204]},"properties":{"type":"charge","layer":"passenger","locationId":"654c24b432a2a8001ce270eb","name":"Landal Marina Resort Well","address":"Vossenheuvel 10-330","city":"Well","operatorName":"Lanova Laadpalen","maxPowerKw":11,"isMegawatt":false,"status":"AVAILABLE","source":"ndw"}},{"type":"Feature","geometry":{"type":"Point","coordinates":[6.061808,51.577204]},"properties":{"type":"charge","layer":"passenger","locationId":"6459558ab28a2b0012a7ffef","name":"Laadpaal Maat 's station","address":"Vossenheuvel 10-402","city":"Well","operatorName":"E-Flux by Road","maxPowerKw":11,"isMegawatt":false,"status":"AVAILABLE","source":"ndw"}},{"type":"Feature","geometry":{"type":"Point","coordinates":[6.057447,51.660462]},"properties":{"type":"charge","layer":"passenger","locationId":"693a99b5d4721ec0d92ad361","name":"Beltweg 7, Siebengewald","address":"Beltweg 7","city":"Siebengewald","operatorName":"Heijmans","maxPowerKw":11,"isMegawatt":false,"status":"AVAILABLE","source":"ndw"}},{"type":"Feature","geometry":{"type":"Point","coordinates":[6.060396,51.598314]},"properties":{"type":"charge","layer":"passenger","locationId":"ea89a7b7-d5df-4145-9dde-6fc8bf367007","name":"Valkstraat","address":"Valkstraat 7","city":"Bergen","operatorName":"Vattenfall InCharge","maxPowerKw":11,"isMegawatt":false,"status":"AVAILABLE","source":"ndw"}},{"type":"Feature","geometry":{"type":"Point","coordinates":[6.047686,51.602486]},"properties":{"type":"charge","layer":"passenger","locationId":"bd40f73b-fb1a-4dfe-a496-e5f565934fcc","name":"Lindenlaan 19","address":"Lindenlaan 19","city":"Bergen","operatorName":"Vattenfall InCharge","maxPowerKw":11,"isMegawatt":false,"status":"AVAILABLE","source":"ndw"}},{"type":"Feature","geometry":{"type":"Point","coordinates":[6.009814,51.637498]},"properties":{"type":"charge","layer":"passenger","locationId":"40bb1aaa409dca1725ca263477cb4ed6","name":"Leemkuilenweg 14","address":"Leemkuilenweg 14","city":"Afferden","operatorName":"Vattenfall InCharge","maxPowerKw":11,"isMegawatt":false,"status":"AVAILABLE","source":"ndw"}},{"type":"Feature","geometry":{"type":"Point","coordinates":[6.055765,51.603746]},"properties":{"type":"charge","layer":"passenger","locationId":"4d12db51-83b7-42db-b967-3206e365f71e","name":"Rembrandtplein","address":"Rembrandtplein 10","city":"Bergen","operatorName":"Vattenfall InCharge","maxPowerKw":11,"isMegawatt":false,"status":"AVAILABLE","source":"ndw"}},{"type":"Feature","geometry":{"type":"Point","coordinates":[6.04771,51.605131]},"properties":{"type":"charge","layer":"passenger","locationId":"71fd160d925d213bf4ec9ca3355b6f73","name":"Vlammertsehof 2","address":"Vlammertsehof 2","city":"Bergen","operatorName":"Vattenfall InCharge","maxPowerKw":11,"isMegawatt":false,"status":"AVAILABLE","source":"ndw"}},{"type":"Feature","geometry":{"type":"Point","coordinates":[6.10546,51.64739]},"properties":{"type":"charge","layer":"passenger","locationId":"9a4b3d111f065103601e6a013504b31a","name":"Gochsedijk 76","address":"Gochsedijk 76","city":"Siebengewald","operatorName":"Vattenfall InCharge","maxPowerKw":11,"isMegawatt":false,"status":"AVAILABLE","source":"ndw"}},{"type":"Feature","geometry":{"type":"Point","coordinates":[6.085758,51.574168]},"properties":{"type":"charge","layer":"passenger","locationId":"66c6f437663fb0001cfb232f","name":"Het Limburgs Landschap Sluis","address":"Bosserheide 3A","city":"Well","operatorName":"Pluq","maxPowerKw":17,"isMegawatt":false,"status":"AVAILABLE","source":"ndw"}},{"type":"Feature","geometry":{"type":"Point","coordinates":[6.061808,51.577204]},"properties":{"type":"charge","layer":"passenger","locationId":"62d5f4d24bb062b1bb4ec4ea","name":"Robert's Power","address":"Vossenheuvel 10-119","city":"Well","operatorName":"E-Flux by Road","maxPowerKw":11,"isMegawatt":false,"status":"UNAVAILABLE","source":"ndw"}},{"type":"Feature","geometry":{"type":"Point","coordinates":[6.059663,51.572794]},"properties":{"type":"charge","layer":"passenger","locationId":"6415cbd81e2d090012832452","name":"Geert Thijssen 's station","address":"Vossenheuvel 10","city":"Well","operatorName":"E-Flux by Road","maxPowerKw":11,"isMegawatt":false,"status":"UNAVAILABLE","source":"ndw"}},{"type":"Feature","geometry":{"type":"Point","coordinates":[6.061808,51.577204]},"properties":{"type":"charge","layer":"passenger","locationId":"64b6c6bf0eb55a001cf2e0af","name":"Samenwerkingsverband familie van Gaal station","address":"Vossenheuvel 10-403","city":"Well","operatorName":"Lanova Laadpalen","maxPowerKw":11,"isMegawatt":false,"status":"AVAILABLE","source":"ndw"}},{"type":"Feature","geometry":{"type":"Point","coordinates":[6.060438,51.567507]},"properties":{"type":"charge","layer":"passenger","locationId":"62e1a6246b8d4faf6cd3a665","name":"Markus Roß's Ladestation 315","address":"de Kamp 5","city":"Well","operatorName":"E-Flux by Road","maxPowerKw":11,"isMegawatt":false,"status":"AVAILABLE","source":"ndw"}},{"type":"Feature","geometry":{"type":"Point","coordinates":[6.01466,51.63122]},"properties":{"type":"charge","layer":"passenger","locationId":"9a18f0d7e941b087e174600295551025","name":"Gening 1","address":"Gening 1","city":"Afferden","operatorName":"Vattenfall InCharge","maxPowerKw":11,"isMegawatt":false,"status":"AVAILABLE","source":"ndw"}},{"type":"Feature","geometry":{"type":"Point","coordinates":[6.100521,51.651829]},"properties":{"type":"charge","layer":"passenger","locationId":"24f9c639f57d5bf9d98935ad2c89b2bf","name":"Bessembiender 55","address":"Bessembiender 55","city":"Siebengewald","operatorName":"Vattenfall InCharge","maxPowerKw":11,"isMegawatt":false,"status":"AVAILABLE","source":"ndw"}},{"type":"Feature","geometry":{"type":"Point","coordinates":[6.052345,51.600711]},"properties":{"type":"charge","layer":"passenger","locationId":"7fdc926976f62bb4ae226b4b1ec821bd","name":"Asseldonkstraat Den 2","address":"Asseldonkstraat Den 2","city":"Bergen","operatorName":"Vattenfall InCharge","maxPowerKw":11,"isMegawatt":false,"status":"AVAILABLE","source":"ndw"}},{"type":"Feature","geometry":{"type":"Point","coordinates":[6.060438,51.567507]},"properties":{"type":"charge","layer":"passenger","locationId":"62ce91a9e00701e2e7d9b9bc","name":"Marina Resort Leukermeer","address":"De Kamp  5-125","city":"Well","operatorName":"E-Flux by Road","maxPowerKw":22,"isMegawatt":false,"status":"AVAILABLE","source":"ndw"}},{"type":"Feature","geometry":{"type":"Point","coordinates":[6.013011,51.636241]},"properties":{"type":"charge","layer":"passenger","locationId":"269fc9e838aa3fdf72cb072de7943503","name":"Staaijerhof 27","address":"Staaijerhof 27","city":"Afferden","operatorName":"Vattenfall InCharge","maxPowerKw":11,"isMegawatt":false,"status":"AVAILABLE","source":"ndw"}},{"type":"Feature","geometry":{"type":"Point","coordinates":[6.067936,51.573498]},"properties":{"type":"charge","layer":"passenger","locationId":"65b793fe292036001c0beb15","name":"Artur Quast's Ladestation","address":"Vossenheuvel 413","city":"Well","operatorName":"Lanova Laadpalen","maxPowerKw":11,"isMegawatt":false,"status":"AVAILABLE","source":"ndw"}},{"type":"Feature","geometry":{"type":"Point","coordinates":[6.061808,51.577204]},"properties":{"type":"charge","layer":"passenger","locationId":"646ce08bda28e500126046a0","name":"Susanne Frieß's Ladestation","address":"Vossenheuvel 10-406","city":"Well","operatorName":"Lanova Laadpalen","maxPowerKw":11,"isMegawatt":false,"status":"UNAVAILABLE","source":"ndw"}},{"type":"Feature","geometry":{"type":"Point","coordinates":[6.05966,51.59766]},"properties":{"type":"charge","layer":"passenger","locationId":"bef8c2ab5602a0d1d30467fe93b53103","name":"Steenuil 7","address":"Steenuil 7","city":"Bergen","operatorName":"Vattenfall InCharge","maxPowerKw":11,"isMegawatt":false,"status":"AVAILABLE","source":"ndw"}},{"type":"Feature","geometry":{"type":"Point","coordinates":[6.059834,51.572944]},"properties":{"type":"charge","layer":"passenger","locationId":"6414697b78840600124ec2d5","name":"Laadpaal Marina Resort Leukermeer","address":"Vossenheuvel 10-103","city":"Well","operatorName":"E-Flux by Road","maxPowerKw":11,"isMegawatt":false,"status":"AVAILABLE","source":"ndw"}},{"type":"Feature","geometry":{"type":"Point","coordinates":[6.067764,51.571745]},"properties":{"type":"charge","layer":"passenger","locationId":"642320036c509e001179a1e5","name":"Halve Maanseweg 10-102","address":"Halve Maanseweg 10-102","city":"Well","operatorName":"E-Flux by Road","maxPowerKw":11,"isMegawatt":false,"status":"AVAILABLE","source":"ndw"}},{"type":"Feature","geometry":{"type":"Point","coordinates":[6.14006,51.535892]},"properties":{"type":"charge","layer":"passenger","locationId":"13666f440d6d27a5100723f2556c0408","name":"Catharinastraat 49","address":"Catharinastraat 49","city":"Wellerlooi","operatorName":"Vattenfall InCharge","maxPowerKw":11,"isMegawatt":false,"status":"AVAILABLE","source":"ndw"}},{"type":"Feature","geometry":{"type":"Point","coordinates":[6.086481,51.560917]},"properties":{"type":"charge","layer":"passenger","locationId":"2760ed762544c3f9c09ce08d4613657e","name":"Rietdekkerstraat 23","address":"Rietdekkerstraat 23","city":"Well","operatorName":"Vattenfall InCharge","maxPowerKw":11,"isMegawatt":false,"status":"AVAILABLE","source":"ndw"}},{"type":"Feature","geometry":{"type":"Point","coordinates":[6.087729,51.549641]},"properties":{"type":"charge","layer":"passenger","locationId":"c8226dabe60c4d73d02e144a64761fe6","name":"Kasteellaan 20B","address":"Kasteellaan 20B","city":"Well","operatorName":"Vattenfall InCharge","maxPowerKw":11,"isMegawatt":false,"status":"AVAILABLE","source":"ndw"}},{"type":"Feature","geometry":{"type":"Point","coordinates":[6.136182,51.53392]},"properties":{"type":"charge","layer":"passenger","locationId":"b714150b-e49b-4298-90a7-a05cc9aa5e4b","name":"Catharinastraat","address":"Catharinastraat 26","city":"Wellerlooi","operatorName":"Vattenfall InCharge","maxPowerKw":11,"isMegawatt":false,"status":"AVAILABLE","source":"ndw"}},{"type":"Feature","geometry":{"type":"Point","coordinates":[6.055627,51.603628]},"properties":{"type":"charge","layer":"passenger","locationId":"a3f2e7f3-d595-414e-8da2-9cdf3630bdc6","name":"Rembrandtplein","address":"Rembrandtplein 10-A","city":"Bergen","operatorName":"Vattenfall InCharge","maxPowerKw":11,"isMegawatt":false,"status":"CHARGING","source":"ndw"}},{"type":"Feature","geometry":{"type":"Point","coordinates":[6.048965,51.603059]},"properties":{"type":"charge","layer":"passenger","locationId":"93607b27-9416-4408-b57a-97583b29e4d8","name":"Raadhuisstraat 2","address":"Raadhuisstraat 2","city":"Bergen","operatorName":"Vattenfall InCharge","maxPowerKw":11,"isMegawatt":false,"status":"AVAILABLE","source":"ndw"}},{"type":"Feature","geometry":{"type":"Point","coordinates":[6.016386,51.635007]},"properties":{"type":"charge","layer":"passenger","locationId":"27b2d1c97e612113d04f5d0c59d3fac2","name":"Wilhelminastraat 20","address":"Wilhelminastraat 20","city":"Afferden","operatorName":"Vattenfall InCharge","maxPowerKw":11,"isMegawatt":false,"status":"AVAILABLE","source":"ndw"}},{"type":"Feature","geometry":{"type":"Point","coordinates":[6.054146,51.607298]},"properties":{"type":"charge","layer":"passenger","locationId":"ee378de57f7e746d52253d941d2deaf1","name":"Van Meerlaerstraat 39","address":"Van Meerlaerstraat 39","city":"Bergen","operatorName":"Vattenfall InCharge","maxPowerKw":11,"isMegawatt":false,"status":"AVAILABLE","source":"ndw"}},{"type":"Feature","geometry":{"type":"Point","coordinates":[6.107477,51.648041]},"properties":{"type":"charge","layer":"passenger","locationId":"c73d9a2b-69da-4673-ac14-55be6d6fdbbe","name":"Gochsedijk 98c","address":"Gochsedijk 98c","city":"Siebengewald","operatorName":"Vattenfall InCharge","maxPowerKw":11,"isMegawatt":false,"status":"AVAILABLE","source":"ndw"}},{"type":"Feature","geometry":{"type":"Point","coordinates":[6.039559,51.611599]},"properties":{"type":"charge","layer":"passenger","locationId":"E36B9567-A10C-4544-94C9-09BCD3ADD3FF","name":"Eneco eMobility De Flammert 1208 Nieuw-Bergen","address":"De Flammert 1208","city":"Nieuw-Bergen","operatorName":"Eneco","maxPowerKw":22,"isMegawatt":false,"status":"AVAILABLE","source":"ndw"}},{"type":"Feature","geometry":{"type":"Point","coordinates":[6.013199,51.63518]},"properties":{"type":"charge","layer":"passenger","locationId":"50231e82-341a-40a7-ae25-0022ce003ad4","name":"Kapelstraat","address":"Kapelstraat 7A","city":"Afferden","operatorName":"Vattenfall InCharge","maxPowerKw":11,"isMegawatt":false,"status":"CHARGING","source":"ndw"}},{"type":"Feature","geometry":{"type":"Point","coordinates":[6.099117,51.650793]},"properties":{"type":"charge","layer":"passenger","locationId":"0618df55-4cb1-461c-a749-ec1f75dc87e3","name":"Monseigneur Paredisstraat","address":"Monseigneur Paredisstraat 1","city":"Siebengewald","operatorName":"Vattenfall InCharge","maxPowerKw":11,"isMegawatt":false,"status":"AVAILABLE","source":"ndw"}},{"type":"Feature","geometry":{"type":"Point","coordinates":[6.08886,51.559945]},"properties":{"type":"charge","layer":"passenger","locationId":"c20b539e-e92d-4491-8ed5-c80ac5174f68","name":"Klokkemakerstraat","address":"Klokkemakerstraat 26","city":"Well","operatorName":"Vattenfall InCharge","maxPowerKw":11,"isMegawatt":false,"status":"AVAILABLE","source":"ndw"}},{"type":"Feature","geometry":{"type":"Point","coordinates":[6.033642,51.599858]},"properties":{"type":"charge","layer":"passenger","locationId":"ba3f9334-03f7-4b5e-9560-be92073f5fee","name":"Kerkstraat","address":"Kerkstraat 8","city":"Bergen","operatorName":"Vattenfall InCharge","maxPowerKw":11,"isMegawatt":false,"status":"AVAILABLE","source":"ndw"}},{"type":"Feature","geometry":{"type":"Point","coordinates":[6.060438,51.567507]},"properties":{"type":"charge","layer":"passenger","locationId":"62e1a5416b8d4f57e9d3958d","name":"Markus Roß's Ladestation 313","address":"de Kamp 5","city":"Well","operatorName":"E-Flux by Road","maxPowerKw":11,"isMegawatt":false,"status":"AVAILABLE","source":"ndw"}},{"type":"Feature","geometry":{"type":"Point","coordinates":[6.055496,51.598381]},"properties":{"type":"charge","layer":"passenger","locationId":"2160c7e9ef40b8345bf87124a1a60536","name":"Eikstraat 1","address":"Eikstraat 1","city":"Bergen","operatorName":"Vattenfall InCharge","maxPowerKw":11,"isMegawatt":false,"status":"AVAILABLE","source":"ndw"}},{"type":"Feature","geometry":{"type":"Point","coordinates":[6.08572,51.55968]},"properties":{"type":"charge","layer":"passenger","locationId":"b1b599f32e5d7414054bf935c2496d50","name":"Mandenmakerstraat 1","address":"Mandenmakerstraat 1","city":"Well","operatorName":"Vattenfall InCharge","maxPowerKw":11,"isMegawatt":false,"status":"AVAILABLE","source":"ndw"}},{"type":"Feature","geometry":{"type":"Point","coordinates":[6.111692,51.650335]},"properties":{"type":"charge","layer":"passenger","locationId":"b4639fe62703e8b64c047b0415ce49a1","name":"Gaesdoncksestraat 2A","address":"Gaesdoncksestraat 2A","city":"Siebengewald","operatorName":"Vattenfall InCharge","maxPowerKw":11,"isMegawatt":false,"status":"AVAILABLE","source":"ndw"}},{"type":"Feature","geometry":{"type":"Point","coordinates":[6.061963,51.57376]},"properties":{"type":"charge","layer":"passenger","locationId":"62cd9add7765c25c5fa71d1b","name":"Tobias Brouwer's station","address":"Vossenheuvel 4","city":"Well","operatorName":"E-Flux by Road","maxPowerKw":22,"isMegawatt":false,"status":"AVAILABLE","source":"ndw"}},{"type":"Feature","geometry":{"type":"Point","coordinates":[6.048305,51.602875]},"properties":{"type":"charge","layer":"passenger","locationId":"06205466-3a90-49a6-bd48-1e5e71cfa8be","name":"Raadhuisstraat","address":"Raadhuisstraat 2","city":"Nieuw Bergen","operatorName":"Vattenfall InCharge","maxPowerKw":11,"isMegawatt":false,"status":"AVAILABLE","source":"ndw"}},{"type":"Feature","geometry":{"type":"Point","coordinates":[6.051701,51.606933]},"properties":{"type":"charge","layer":"passenger","locationId":"62deb95a1614259e47bd4de6d0fc960c","name":"Van Bergenstraat 5","address":"Van Bergenstraat 5","city":"Bergen","operatorName":"Vattenfall InCharge","maxPowerKw":11,"isMegawatt":false,"status":"AVAILABLE","source":"ndw"}},{"type":"Feature","geometry":{"type":"Point","coordinates":[6.136244,51.533942]},"properties":{"type":"charge","layer":"passenger","locationId":"1291502fdfd6181173ce3281f484c9a5","name":"Catharinastraat 22","address":"Catharinastraat 22","city":"Wellerlooi","operatorName":"Vattenfall InCharge","maxPowerKw":11,"isMegawatt":false,"status":"AVAILABLE","source":"ndw"}},{"type":"Feature","geometry":{"type":"Point","coordinates":[6.055033,51.599274]},"properties":{"type":"charge","layer":"passenger","locationId":"b87e8cf192a7243c035d8610ae727b12","name":"Vogellaan 2","address":"Vogellaan 2","city":"Bergen","operatorName":"Vattenfall InCharge","maxPowerKw":11,"isMegawatt":false,"status":"AVAILABLE","source":"ndw"}},{"type":"Feature","geometry":{"type":"Point","coordinates":[6.10286,51.65054]},"properties":{"type":"charge","layer":"passenger","locationId":"8e57c61fe0b8efe52d6a78ec0f12ed4b","name":"Processieweg 1","address":"Processieweg 1","city":"Siebengewald","operatorName":"Vattenfall InCharge","maxPowerKw":11,"isMegawatt":false,"status":"AVAILABLE","source":"ndw"}},{"type":"Feature","geometry":{"type":"Point","coordinates":[6.053937,51.605567]},"properties":{"type":"charge","layer":"passenger","locationId":"293556199d8b4405ac69852d06aed1b1","name":"Keulerstraat 30c","address":"Keulerstraat 30c","city":"Bergen","operatorName":"Vattenfall InCharge","maxPowerKw":11,"isMegawatt":false,"status":"AVAILABLE","source":"ndw"}},{"type":"Feature","geometry":{"type":"Point","coordinates":[6.09432,51.554816]},"properties":{"type":"charge","layer":"passenger","locationId":"cdf3371e3b4896be4d4de7cafc7b486c","name":"Kasteellaan 19c","address":"Kasteellaan 19c","city":"Well","operatorName":"Vattenfall InCharge","maxPowerKw":11,"isMegawatt":false,"status":"AVAILABLE","source":"ndw"}},{"type":"Feature","geometry":{"type":"Point","coordinates":[6.011333,51.633709]},"properties":{"type":"charge","layer":"passenger","locationId":"a8a031fa7e308837d2bc686ebbccfc29","name":"Dorpsstraat 78A","address":"Dorpsstraat 78A","city":"Afferden","operatorName":"Vattenfall InCharge","maxPowerKw":11,"isMegawatt":false,"status":"AVAILABLE","source":"ndw"}},{"type":"Feature","geometry":{"type":"Point","coordinates":[6.111597,51.650145]},"properties":{"type":"charge","layer":"passenger","locationId":"c808434c-2e53-4e52-bed1-51728140c593","name":"Gaesdonckestraat","address":"Gaesdonckestraat 2 a","city":"Siebengewald","operatorName":"Vattenfall InCharge","maxPowerKw":11,"isMegawatt":false,"status":"AVAILABLE","source":"ndw"}},{"type":"Feature","geometry":{"type":"Point","coordinates":[6.052801,51.600875]},"properties":{"type":"charge","layer":"passenger","locationId":"be96a7fe-f370-431c-ab75-8b5c8bae5dca","name":"Schilderslaan","address":"Schilderslaan 50","city":"Bergen","operatorName":"Vattenfall InCharge","maxPowerKw":11,"isMegawatt":false,"status":"AVAILABLE","source":"ndw"}},{"type":"Feature","geometry":{"type":"Point","coordinates":[6.058247,51.601794]},"properties":{"type":"charge","layer":"passenger","locationId":"bf8555457d1eba65b50a28618cc90d51","name":"Dassenstraat 16","address":"Dassenstraat 16","city":"Bergen","operatorName":"Vattenfall InCharge","maxPowerKw":11,"isMegawatt":false,"status":"AVAILABLE","source":"ndw"}},{"type":"Feature","geometry":{"type":"Point","coordinates":[6.03955,51.612693]},"properties":{"type":"charge","layer":"passenger","locationId":"e851c58e55559b7aaba5db32a65ccc7f","name":"De Flammert 1405","address":"De Flammert 1405","city":"Bergen","operatorName":"Vattenfall InCharge","maxPowerKw":11,"isMegawatt":false,"status":"AVAILABLE","source":"ndw"}},{"type":"Feature","geometry":{"type":"MultiPolygon","coordinates":[[[[6.036640402704631,51.67275940582434],[6.072383105131655,51.66383848130098],[6.075670991564423,51.66480330830993],[6.078636847416889,51.66340157770876],[6.079661512132029,51.66346121024398],[6.0789858894004345,51.66194838132743],[6.079543877164722,51.66159256815222],[6.083185956310214,51.661848388757825],[6.085343738009382,51.66291339448482],[6.086535810241923,51.66253919306364],[6.087315347112766,51.660267564108324],[6.088307882996781,51.659856047501144],[6.095033528093431,51.65970228771156],[6.0996533797033585,51.65811518975075],[6.101964435924202,51.6606076050247],[6.116886719637986,51.656533322812784],[6.118086448306801,51.6559722674406],[6.1157699845013,51.65322669643696],[6.116972582944621,51.650594505929796],[6.1163373798437775,51.65017132367971],[6.11261884398892,51.64846366348891],[6.109411020678644,51.64686585252474],[6.111681509420657,51.64472927134729],[6.108039333085079,51.64193165125464],[6.099531858794416,51.623532950591695],[6.097228006021953,51.62088284778288],[6.093932931100478,51.62215335218471],[6.094354244046795,51.61519508656366],[6.091422667820792,51.60584784994898],[6.11708340451208,51.593846817760706],[6.119282976902912,51.593666516865184],[6.121486016322648,51.592738177261886],[6.130558659443748,51.58108684559913],[6.146984362418806,51.570589930983196],[6.157031080682987,51.56657467099519],[6.161383474952092,51.560439515536714],[6.176900314763784,51.53855478912036],[6.1886723542826845,51.533478058398664],[6.199927225654667,51.5273804725007],[6.20774339330989,51.519046612500254],[6.212021876845812,51.51338995111088],[6.213359490912525,51.50781667313443],[6.204042909289255,51.504311947923604],[6.1883607281747,51.50507999047982],[6.169191599724198,51.50308066092982],[6.1666390900885615,51.50786263962535],[6.16166775459217,51.511882345622205],[6.157783496182275,51.513619159585325],[6.146298326046585,51.51688003424812],[6.1410922831194314,51.51951863158296],[6.131204018582398,51.525846245275986],[6.119680927289438,51.531844131563595],[6.116055190971739,51.53729009375434],[6.1146296523368635,51.54205257966661],[6.113820943353524,51.544327302747476],[6.111914850804107,51.546254104482024],[6.108327329365771,51.547608425326985],[6.104589256513263,51.54821532129892],[6.080716054855088,51.54693722816884],[6.073755931268521,51.54924151929751],[6.062130362497566,51.555874359958324],[6.056508041161167,51.55757977171625],[6.048119255368337,51.55846179801633],[6.041451372110958,51.563646708876455],[6.037868941927503,51.569410238023146],[6.037816819550728,51.57411403092271],[6.039408365769174,51.57912795757148],[6.039716515194136,51.58161523352149],[6.038658962370702,51.584130168790054],[6.033477201544744,51.58960991873382],[6.030722151554915,51.591517646942705],[6.026280156371086,51.595576130834445],[6.02378268615056,51.60303471859777],[6.023851781088479,51.616124641345905],[6.022658226685434,51.6188507805819],[6.019978619691104,51.62192041801632],[6.004469390405329,51.6317758887004],[5.996015156049587,51.636869573729676],[5.982120766768543,51.64251895011949],[5.976605753365938,51.64378236660264],[6.001516710952862,51.65525294422767],[6.002014049227464,51.654572617196344],[6.00684147692655,51.65602658574977],[6.014234070605229,51.66032614968447],[6.01537409294207,51.66224154264748],[6.0246709803436795,51.66007099843071],[6.031756368491293,51.66304738993062],[6.024276559005989,51.669815675806426],[6.0300888908431975,51.67465979456789],[6.031943558931719,51.67616447375322],[6.033260007983766,51.67611680265863],[6.0346712342780044,51.675145142265364],[6.034281830468448,51.67467610501147],[6.031539187214166,51.67458201969673],[6.032348235589404,51.6740549578554],[6.035030746354569,51.6739216268487],[6.036640402704631,51.67275940582434]]]]},"properties":{"type":"boundary","gemeente":"Bergen (L.)","code":"GM0893"}}]}