{"type":"FeatureCollection","metadata":{"gemeente":"Buren","slug":"buren","code":"GM0214","generated_at":"2026-06-07T19:22:09.578Z","total_passenger":77,"total_freight":0,"bounds":[5.241922558696737,51.87348598540711,5.586616538178616,51.9859474846086],"operators":["E-Flux by Road","Eneco","Laadnet","Opcharge","Pluq","PureCharged","Vattenfall InCharge"]},"features":[{"type":"Feature","geometry":{"type":"Point","coordinates":[5.281384,51.947561]},"properties":{"type":"charge","layer":"passenger","locationId":"66e41c8c6d8c61001c744963","name":"Uiterwaarde De Meent","address":"Klassenburgerstraat 7","city":"Beusichem","operatorName":"Pluq","maxPowerKw":11,"isMegawatt":false,"status":"AVAILABLE","source":"ndw","priceKwh":0.6}},{"type":"Feature","geometry":{"type":"Point","coordinates":[5.28073,51.950877]},"properties":{"type":"charge","layer":"passenger","locationId":"d7399c0e245fd7d1ed531d5856bc7381","name":"De Kerswerf 6","address":"De Kerswerf 6","city":"Beusichem","operatorName":"Vattenfall InCharge","maxPowerKw":11,"isMegawatt":false,"status":"AVAILABLE","source":"ndw"}},{"type":"Feature","geometry":{"type":"Point","coordinates":[5.427689,51.963422]},"properties":{"type":"charge","layer":"passenger","locationId":"05d49bea-3eca-462d-a70a-e4e0ea63bfb0","name":"Pr. Wilhelminastraat","address":"Pr. Wilhelminastraat 23","city":"Maurik","operatorName":"Vattenfall InCharge","maxPowerKw":11,"isMegawatt":false,"status":"UNAVAILABLE","source":"ndw"}},{"type":"Feature","geometry":{"type":"Point","coordinates":[5.449972,51.982154]},"properties":{"type":"charge","layer":"passenger","locationId":"c71529c22865460dbb7a","name":"Soof Retreads - Eck en Wiel","address":"Rijnbandijk 10B","city":"Eck en Wiel","operatorName":"Opcharge","maxPowerKw":22,"isMegawatt":false,"status":"AVAILABLE","source":"ndw","priceKwh":0.49}},{"type":"Feature","geometry":{"type":"Point","coordinates":[5.421239,51.959066]},"properties":{"type":"charge","layer":"passenger","locationId":"8e80758169c52c7182be29676c3496ea","name":"Engelshof 44","address":"Engelshof 44","city":"Maurik","operatorName":"Vattenfall InCharge","maxPowerKw":11,"isMegawatt":false,"status":"AVAILABLE","source":"ndw"}},{"type":"Feature","geometry":{"type":"Point","coordinates":[5.332136,51.914029]},"properties":{"type":"charge","layer":"passenger","locationId":"610739db-95ac-429e-bf49-ff53dfd5d9c9","name":"Dreef","address":"Dreef 6","city":"Buren","operatorName":"Vattenfall InCharge","maxPowerKw":11,"isMegawatt":false,"status":"AVAILABLE","source":"ndw"}},{"type":"Feature","geometry":{"type":"Point","coordinates":[5.52459,51.941659]},"properties":{"type":"charge","layer":"passenger","locationId":"c3a445435a4931df768df9a854b76070","name":"Laan van Nieuw Meerten 23","address":"Laan van Nieuw Meerten 23","city":"Lienden","operatorName":"Vattenfall InCharge","maxPowerKw":11,"isMegawatt":false,"status":"AVAILABLE","source":"ndw"}},{"type":"Feature","geometry":{"type":"Point","coordinates":[5.335064,51.9057]},"properties":{"type":"charge","layer":"passenger","locationId":"3572196","name":"Laadnet Randweg 10","address":"Randweg 10","city":"Buren","operatorName":"Laadnet","maxPowerKw":22,"isMegawatt":false,"status":"AVAILABLE","source":"ndw"}},{"type":"Feature","geometry":{"type":"Point","coordinates":[5.523783,51.945173]},"properties":{"type":"charge","layer":"passenger","locationId":"de724cf825ab2dfc25026d0de9383802","name":"Dokter J.T. van der Veenstraat 6","address":"Dokter J.T. van der Veenstraat 6","city":"Lienden","operatorName":"Vattenfall InCharge","maxPowerKw":11,"isMegawatt":false,"status":"AVAILABLE","source":"ndw"}},{"type":"Feature","geometry":{"type":"Point","coordinates":[5.296812,51.950745]},"properties":{"type":"charge","layer":"passenger","locationId":"f7739731-6e8b-4404-920e-582aa20e348a","name":"De Wielstraat","address":"De Wielstraat 29","city":"Beusichem","operatorName":"Vattenfall InCharge","maxPowerKw":11,"isMegawatt":false,"status":"AVAILABLE","source":"ndw"}},{"type":"Feature","geometry":{"type":"Point","coordinates":[5.349434,51.879018]},"properties":{"type":"charge","layer":"passenger","locationId":"67e6b929320fc53b625411dd","name":"In den Boomgaard","address":"Lingesteeg 12","city":"Kapel Avezaath","operatorName":"PureCharged","maxPowerKw":11,"isMegawatt":false,"status":"AVAILABLE","source":"ndw","priceKwh":0.63}},{"type":"Feature","geometry":{"type":"Point","coordinates":[5.43127,51.96028]},"properties":{"type":"charge","layer":"passenger","locationId":"bf72a23d4c44e09ff553c4a9c794a754","name":"Goudplevier 28","address":"Goudplevier 28","city":"Maurik","operatorName":"Vattenfall InCharge","maxPowerKw":11,"isMegawatt":false,"status":"AVAILABLE","source":"ndw"}},{"type":"Feature","geometry":{"type":"Point","coordinates":[5.323438,51.906382]},"properties":{"type":"charge","layer":"passenger","locationId":"61BB322B-E75A-47CE-A5E7-7EAEFC172665","name":"Eneco eMobility Kornedijk 7A Buren","address":"Kornedijk 7, A","city":"Buren","operatorName":"Eneco","maxPowerKw":11,"isMegawatt":false,"status":"AVAILABLE","source":"ndw","priceKwh":0.32}},{"type":"Feature","geometry":{"type":"Point","coordinates":[5.334253,51.905768]},"properties":{"type":"charge","layer":"passenger","locationId":"612e29d2a14d81388cd53930","name":"Lindner Montage","address":"Hulsterstraat 1","city":"Buren","operatorName":"E-Flux by Road","maxPowerKw":11,"isMegawatt":false,"status":"AVAILABLE","source":"ndw","priceKwh":0.78}},{"type":"Feature","geometry":{"type":"Point","coordinates":[5.490434,51.961425]},"properties":{"type":"charge","layer":"passenger","locationId":"fa69ad2d-345c-4c98-9699-0f5f2b3d6f66","name":"Verhuizensestraat 2","address":"Verhuizensestraat 2 2","city":"Ingen","operatorName":"Vattenfall InCharge","maxPowerKw":11,"isMegawatt":false,"status":"AVAILABLE","source":"ndw"}},{"type":"Feature","geometry":{"type":"Point","coordinates":[5.340896,51.906009]},"properties":{"type":"charge","layer":"passenger","locationId":"af649fd3-0eb1-4db0-a122-b20aed21c233","name":"Elstar","address":"Elstar 15","city":"Buren","operatorName":"Vattenfall InCharge","maxPowerKw":11,"isMegawatt":false,"status":"AVAILABLE","source":"ndw"}},{"type":"Feature","geometry":{"type":"Point","coordinates":[5.458489,51.967012]},"properties":{"type":"charge","layer":"passenger","locationId":"3cf92966-839b-4221-93ee-244eed0ec032","name":"Kamillekamp 20","address":"Kamillekamp 20","city":"Eck en Wiel","operatorName":"Vattenfall InCharge","maxPowerKw":11,"isMegawatt":false,"status":"CHARGING","source":"ndw"}},{"type":"Feature","geometry":{"type":"Point","coordinates":[5.416824,51.958691]},"properties":{"type":"charge","layer":"passenger","locationId":"bb5f224be43a3eed8bfd0fa58160b35d","name":"Esdoornstraat 6","address":"Esdoornstraat 6","city":"Maurik","operatorName":"Vattenfall InCharge","maxPowerKw":11,"isMegawatt":false,"status":"AVAILABLE","source":"ndw"}},{"type":"Feature","geometry":{"type":"Point","coordinates":[5.333357,51.910917]},"properties":{"type":"charge","layer":"passenger","locationId":"681b8b0a0daa90fe58ce364f","name":"Paul Willemse 's station","address":"Rodeheldenstraat 12","city":"Buren","operatorName":"E-Flux by Road","maxPowerKw":22,"isMegawatt":false,"status":"AVAILABLE","source":"ndw","priceKwh":0.73}},{"type":"Feature","geometry":{"type":"Point","coordinates":[5.319455,51.946753]},"properties":{"type":"charge","layer":"passenger","locationId":"6756d5331a75c4e532702258","name":"Manege Ravenswaaij","address":"Donkerstraat 30","city":"Ravenswaaij","operatorName":"Pluq","maxPowerKw":22,"isMegawatt":false,"status":"AVAILABLE","source":"ndw","priceKwh":0.45}},{"type":"Feature","geometry":{"type":"Point","coordinates":[5.516249,51.951969]},"properties":{"type":"charge","layer":"passenger","locationId":"41c452d180757bf4af9d286d2bfe97d7","name":"Kermenstein 17","address":"Kermenstein 17","city":"Lienden","operatorName":"Vattenfall InCharge","maxPowerKw":11,"isMegawatt":false,"status":"AVAILABLE","source":"ndw"}},{"type":"Feature","geometry":{"type":"Point","coordinates":[5.288157,51.951936]},"properties":{"type":"charge","layer":"passenger","locationId":"6934288e897e4f5569788996","name":"endre davids 's station","address":"Oranjestraat 28A","city":"Beusichem","operatorName":"E-Flux by Road","maxPowerKw":22,"isMegawatt":false,"status":"AVAILABLE","source":"ndw","priceKwh":0.46}},{"type":"Feature","geometry":{"type":"Point","coordinates":[5.37681,51.898615]},"properties":{"type":"charge","layer":"passenger","locationId":"5848ace6-ce35-4618-bc63-24442331e6b3","name":"Abdij","address":"Abdij 26","city":"Kerk Avezaath","operatorName":"Vattenfall InCharge","maxPowerKw":11,"isMegawatt":false,"status":"AVAILABLE","source":"ndw"}},{"type":"Feature","geometry":{"type":"Point","coordinates":[5.294954,51.948242]},"properties":{"type":"charge","layer":"passenger","locationId":"db47c75b464d32eb60bc8cec38a0350e","name":"Beneden Molenweg 10","address":"Beneden Molenweg 10","city":"Beusichem","operatorName":"Vattenfall InCharge","maxPowerKw":22,"isMegawatt":false,"status":"CHARGING","source":"ndw"}},{"type":"Feature","geometry":{"type":"Point","coordinates":[5.34059,51.90613]},"properties":{"type":"charge","layer":"passenger","locationId":"70a1fe0f4b5f89d409886bef649e016b","name":"Elstar 19","address":"Elstar 19","city":"Buren","operatorName":"Vattenfall InCharge","maxPowerKw":11,"isMegawatt":false,"status":"AVAILABLE","source":"ndw"}},{"type":"Feature","geometry":{"type":"Point","coordinates":[5.422141,51.957343]},"properties":{"type":"charge","layer":"passenger","locationId":"770106d0-d852-4b71-ab4b-3ec56e3802e2","name":"Merenriet 20","address":"Merenriet 20","city":"Maurik","operatorName":"Vattenfall InCharge","maxPowerKw":11,"isMegawatt":false,"status":"UNAVAILABLE","source":"ndw"}},{"type":"Feature","geometry":{"type":"Point","coordinates":[5.42891,51.96117]},"properties":{"type":"charge","layer":"passenger","locationId":"a2b3c3d6cc539e53684ee9e8d5268166","name":"Ibisstraat 24","address":"Ibisstraat 24","city":"Maurik","operatorName":"Vattenfall InCharge","maxPowerKw":11,"isMegawatt":false,"status":"AVAILABLE","source":"ndw"}},{"type":"Feature","geometry":{"type":"Point","coordinates":[5.471462,51.979966]},"properties":{"type":"charge","layer":"passenger","locationId":"65a6f3db1e1e64001cc81e65","name":"Camping de Ooievaar - linker station laden via mobiele app E-Flux","address":"Rijnbandijk  3a","city":"Eck en Wiel","operatorName":"E-Flux by Road","maxPowerKw":11,"isMegawatt":false,"status":"AVAILABLE","source":"ndw","priceKwh":0.68}},{"type":"Feature","geometry":{"type":"Point","coordinates":[5.293912,51.951315]},"properties":{"type":"charge","layer":"passenger","locationId":"918190569ad4e4d91a3360e562823c13","name":"Julianalaan 3","address":"Julianalaan 3","city":"Beusichem","operatorName":"Vattenfall InCharge","maxPowerKw":11,"isMegawatt":false,"status":"AVAILABLE","source":"ndw"}},{"type":"Feature","geometry":{"type":"Point","coordinates":[5.309566,51.941737]},"properties":{"type":"charge","layer":"passenger","locationId":"26f5958d-e9a2-4173-9beb-5a29c79dfc79","name":"Groeneweg 2A","address":"Groeneweg 2A","city":"Zoelmond","operatorName":"Vattenfall InCharge","maxPowerKw":11,"isMegawatt":false,"status":"AVAILABLE","source":"ndw"}},{"type":"Feature","geometry":{"type":"Point","coordinates":[5.4544,51.96899]},"properties":{"type":"charge","layer":"passenger","locationId":"6488f4f96c3038d2b02a0802d288f6b9","name":"Burgemeester Verbrughweg 19","address":"Burgemeester Verbrughweg 19","city":"Eck en Wiel","operatorName":"Vattenfall InCharge","maxPowerKw":11,"isMegawatt":false,"status":"AVAILABLE","source":"ndw"}},{"type":"Feature","geometry":{"type":"Point","coordinates":[5.454718,51.970697]},"properties":{"type":"charge","layer":"passenger","locationId":"ad317433-ba92-41a4-ab58-327bf9c0918a","name":"Henry Dunantstraat 45","address":"Henry Dunantstraat 45","city":"Eck en Wiel","operatorName":"Vattenfall InCharge","maxPowerKw":11,"isMegawatt":false,"status":"AVAILABLE","source":"ndw"}},{"type":"Feature","geometry":{"type":"Point","coordinates":[5.522526,51.948779]},"properties":{"type":"charge","layer":"passenger","locationId":"7894e07a-a753-4b0d-9839-c226990252be","name":"Het Eindtoe","address":"Het Eindtoe 7","city":"Lienden","operatorName":"Vattenfall InCharge","maxPowerKw":11,"isMegawatt":false,"status":"AVAILABLE","source":"ndw"}},{"type":"Feature","geometry":{"type":"Point","coordinates":[5.38033,51.897101]},"properties":{"type":"charge","layer":"passenger","locationId":"cbd01bec00332051961997d139ab0b75","name":"De schoorsteen 13","address":"De schoorsteen 13","city":"Kerk Avezaath","operatorName":"Vattenfall InCharge","maxPowerKw":11,"isMegawatt":false,"status":"AVAILABLE","source":"ndw"}},{"type":"Feature","geometry":{"type":"Point","coordinates":[5.332049,51.908428]},"properties":{"type":"charge","layer":"passenger","locationId":"69ce4366-7d20-4c8b-9ec5-5886bed64bab","name":"Graafschapsstraat","address":"Graafschapsstraat 2B","city":"Buren","operatorName":"Vattenfall InCharge","maxPowerKw":11,"isMegawatt":false,"status":"UNAVAILABLE","source":"ndw"}},{"type":"Feature","geometry":{"type":"Point","coordinates":[5.4428,51.96664]},"properties":{"type":"charge","layer":"passenger","locationId":"dc27fb308b987d281965da4b9b250945","name":"Doejenburg 24/a","address":"Doejenburg 24/a","city":"Eck en Wiel","operatorName":"Vattenfall InCharge","maxPowerKw":11,"isMegawatt":false,"status":"AVAILABLE","source":"ndw"}},{"type":"Feature","geometry":{"type":"Point","coordinates":[5.342001,51.906349]},"properties":{"type":"charge","layer":"passenger","locationId":"eeafb672-bb39-497f-b3b8-de66470db5be","name":"Goudreinette","address":"Goudreinette 4","city":"Buren","operatorName":"Vattenfall InCharge","maxPowerKw":11,"isMegawatt":false,"status":"AVAILABLE","source":"ndw"}},{"type":"Feature","geometry":{"type":"Point","coordinates":[5.40496,51.913153]},"properties":{"type":"charge","layer":"passenger","locationId":"523e7a595af9165a5bd2321ffa1e34e6","name":"Haarnaald 5","address":"Haarnaald 5","city":"Zoelen","operatorName":"Vattenfall InCharge","maxPowerKw":11,"isMegawatt":false,"status":"AVAILABLE","source":"ndw"}},{"type":"Feature","geometry":{"type":"Point","coordinates":[5.407587,51.914507]},"properties":{"type":"charge","layer":"passenger","locationId":"5b64afb3-f75a-4e1c-87e5-03c7fe2c4bdc","name":"Scharenburg 50","address":"Scharenburg 50","city":"Zoelen","operatorName":"Vattenfall InCharge","maxPowerKw":11,"isMegawatt":false,"status":"AVAILABLE","source":"ndw"}},{"type":"Feature","geometry":{"type":"Point","coordinates":[5.485048,51.957274]},"properties":{"type":"charge","layer":"passenger","locationId":"9b5fb32c-6682-4edf-b1ac-8367a1baead8","name":"Gang","address":"Gang 6","city":"Ingen","operatorName":"Vattenfall InCharge","maxPowerKw":11,"isMegawatt":false,"status":"UNAVAILABLE","source":"ndw"}},{"type":"Feature","geometry":{"type":"Point","coordinates":[5.484101,51.958484]},"properties":{"type":"charge","layer":"passenger","locationId":"c9d2869610c97900fa7420f06b2017ab","name":"Kornehof 11","address":"Kornehof 11","city":"Ingen","operatorName":"Vattenfall InCharge","maxPowerKw":11,"isMegawatt":false,"status":"AVAILABLE","source":"ndw"}},{"type":"Feature","geometry":{"type":"Point","coordinates":[5.383089,51.89777]},"properties":{"type":"charge","layer":"passenger","locationId":"69dcb9bbe6745c0a7efeb56e","name":"Lader 2 Dorpsstraat 16","address":"Dorpsstraat 16","city":"Kerk-Avezaath","operatorName":"E-Flux by Road","maxPowerKw":11,"isMegawatt":false,"status":"CHARGING","source":"ndw","priceKwh":0.83}},{"type":"Feature","geometry":{"type":"Point","coordinates":[5.522295,51.940913]},"properties":{"type":"charge","layer":"passenger","locationId":"246c3e9694a052bab3d656a29f6be489","name":"Laan van Nieuw Meerten 49","address":"Laan van Nieuw Meerten 49","city":"Lienden","operatorName":"Vattenfall InCharge","maxPowerKw":11,"isMegawatt":false,"status":"AVAILABLE","source":"ndw"}},{"type":"Feature","geometry":{"type":"Point","coordinates":[5.435974,51.957988]},"properties":{"type":"charge","layer":"passenger","locationId":"b1de69e6-7062-4a12-b028-9a8b10b17c29","name":"Driesweg","address":"Driesweg 17","city":"Eck en Wiel","operatorName":"Vattenfall InCharge","maxPowerKw":11,"isMegawatt":false,"status":"AVAILABLE","source":"ndw"}},{"type":"Feature","geometry":{"type":"Point","coordinates":[5.423166,51.961187]},"properties":{"type":"charge","layer":"passenger","locationId":"b237ad4e-6ba0-4ac8-9b1f-fa20cacfb789","name":"Sterappelhof","address":"Sterappelhof 9","city":"Maurik","operatorName":"Vattenfall InCharge","maxPowerKw":11,"isMegawatt":false,"status":"UNAVAILABLE","source":"ndw"}},{"type":"Feature","geometry":{"type":"Point","coordinates":[5.290204,51.95336]},"properties":{"type":"charge","layer":"passenger","locationId":"7dd64b8c0404ee23d4442de3683839ac","name":"De IJzeren Pot 33","address":"De IJzeren Pot 33","city":"Beusichem","operatorName":"Vattenfall InCharge","maxPowerKw":11,"isMegawatt":false,"status":"AVAILABLE","source":"ndw"}},{"type":"Feature","geometry":{"type":"Point","coordinates":[5.404338,51.912174]},"properties":{"type":"charge","layer":"passenger","locationId":"f128dd74-95d7-4f4d-90f8-cb2a5f0679f7","name":"Wethouder van Den Burgstraat","address":"Wethouder van Den Burgstraat 44","city":"Zoelen","operatorName":"Vattenfall InCharge","maxPowerKw":11,"isMegawatt":false,"status":"AVAILABLE","source":"ndw"}},{"type":"Feature","geometry":{"type":"Point","coordinates":[5.420203,51.975482]},"properties":{"type":"charge","layer":"passenger","locationId":"66e3fc1fe21edd001c8ee2c1","name":"Uiterwaarde Eiland van Maurik","address":"Eiland van Maurik 15","city":"Maurik","operatorName":"Pluq","maxPowerKw":11,"isMegawatt":false,"status":"AVAILABLE","source":"ndw","priceKwh":0.59}},{"type":"Feature","geometry":{"type":"Point","coordinates":[5.291943,51.953217]},"properties":{"type":"charge","layer":"passenger","locationId":"b235da75-fde2-4439-aa15-aac7603d2e83","name":"De Roskam","address":"De Roskam 7","city":"Beusichem","operatorName":"Vattenfall InCharge","maxPowerKw":11,"isMegawatt":false,"status":"CHARGING","source":"ndw"}},{"type":"Feature","geometry":{"type":"Point","coordinates":[5.415062,51.960067]},"properties":{"type":"charge","layer":"passenger","locationId":"ab05f6db-7eb6-452d-b8d2-6aca35c26b6d","name":"Lindelaan","address":"Lindelaan 25","city":"Maurik","operatorName":"Vattenfall InCharge","maxPowerKw":11,"isMegawatt":false,"status":"AVAILABLE","source":"ndw"}},{"type":"Feature","geometry":{"type":"Point","coordinates":[5.330057,51.915425]},"properties":{"type":"charge","layer":"passenger","locationId":"8150cec5-90f1-4b43-b556-146d91ea87b0","name":"Prins Willem Alexanderstraat","address":"Prins Willem Alexanderstraat 56","city":"Buren","operatorName":"Vattenfall InCharge","maxPowerKw":11,"isMegawatt":false,"status":"AVAILABLE","source":"ndw"}},{"type":"Feature","geometry":{"type":"Point","coordinates":[5.338843,51.906336]},"properties":{"type":"charge","layer":"passenger","locationId":"7857d39b67f272924ff73bad404b7623","name":"Concorde 16","address":"Concorde 16","city":"Buren","operatorName":"Vattenfall InCharge","maxPowerKw":11,"isMegawatt":false,"status":"AVAILABLE","source":"ndw"}},{"type":"Feature","geometry":{"type":"Point","coordinates":[5.519763,51.944713]},"properties":{"type":"charge","layer":"passenger","locationId":"4a114a20-03ed-4e87-9eec-798507bd22ac","name":"Verbrughweg 13","address":"Verbrughweg 13","city":"Lienden","operatorName":"Vattenfall InCharge","maxPowerKw":11,"isMegawatt":false,"status":"AVAILABLE","source":"ndw"}},{"type":"Feature","geometry":{"type":"Point","coordinates":[5.43331,51.958775]},"properties":{"type":"charge","layer":"passenger","locationId":"57371be7-88c6-4fd6-80f9-0f481695024d","name":"Tureluur 59","address":"Tureluur 59","city":"Maurik","operatorName":"Vattenfall InCharge","maxPowerKw":11,"isMegawatt":false,"status":"CHARGING","source":"ndw"}},{"type":"Feature","geometry":{"type":"Point","coordinates":[5.426782,51.958492]},"properties":{"type":"charge","layer":"passenger","locationId":"55ab4046-165e-4666-8df6-6913650a3c64","name":"Kievit","address":"Kievit 2","city":"Maurik","operatorName":"Vattenfall InCharge","maxPowerKw":11,"isMegawatt":false,"status":"CHARGING","source":"ndw"}},{"type":"Feature","geometry":{"type":"Point","coordinates":[5.329317,51.951785]},"properties":{"type":"charge","layer":"passenger","locationId":"231d6955-d1a1-4271-8f55-55efbf6dad9b","name":"Zandekkers","address":"Zandekkers 13","city":"Ravenswaaij","operatorName":"Vattenfall InCharge","maxPowerKw":11,"isMegawatt":false,"status":"AVAILABLE","source":"ndw"}},{"type":"Feature","geometry":{"type":"Point","coordinates":[5.512705,51.948179]},"properties":{"type":"charge","layer":"passenger","locationId":"bb894d2720253ba919dab51d05642d11","name":"Appelgaard 86B","address":"Appelgaard 86B","city":"Lienden","operatorName":"Vattenfall InCharge","maxPowerKw":11,"isMegawatt":false,"status":"AVAILABLE","source":"ndw"}},{"type":"Feature","geometry":{"type":"Point","coordinates":[5.429092,51.963593]},"properties":{"type":"charge","layer":"passenger","locationId":"f296a4c0bd30ae94a450ee374e6893b1","name":"Saffatinstraat 24","address":"Saffatinstraat 24","city":"Maurik","operatorName":"Vattenfall InCharge","maxPowerKw":11,"isMegawatt":false,"status":"AVAILABLE","source":"ndw"}},{"type":"Feature","geometry":{"type":"Point","coordinates":[5.51089,51.946399]},"properties":{"type":"charge","layer":"passenger","locationId":"3710ce19bbb0ef41ebc0e78b6b84e7d7","name":"Blommeland 6","address":"Blommeland 6","city":"Lienden","operatorName":"Vattenfall InCharge","maxPowerKw":11,"isMegawatt":false,"status":"AVAILABLE","source":"ndw"}},{"type":"Feature","geometry":{"type":"Point","coordinates":[5.293717,51.952997]},"properties":{"type":"charge","layer":"passenger","locationId":"9b501bcb-8a02-4e20-b8db-4dee42f8fb1f","name":"Hendriklaan 19","address":"Hendriklaan 19","city":"Beusichem","operatorName":"Vattenfall InCharge","maxPowerKw":11,"isMegawatt":false,"status":"AVAILABLE","source":"ndw"}},{"type":"Feature","geometry":{"type":"Point","coordinates":[5.471432,51.979991]},"properties":{"type":"charge","layer":"passenger","locationId":"65a6f2d991cb20001c12a546","name":"Camping de Ooievaar - rechter station laden via directe betaling en mobiele app E-Flux","address":"Rijnbandijk  3a","city":"Eck en Wiel","operatorName":"E-Flux by Road","maxPowerKw":11,"isMegawatt":false,"status":"AVAILABLE","source":"ndw","priceKwh":0.68}},{"type":"Feature","geometry":{"type":"Point","coordinates":[5.297969,51.948447]},"properties":{"type":"charge","layer":"passenger","locationId":"dacb821b0752e4bb47776ac54f24629c","name":"Belvedèrelaan 7","address":"Belvedèrelaan 7","city":"Beusichem","operatorName":"Vattenfall InCharge","maxPowerKw":11,"isMegawatt":false,"status":"AVAILABLE","source":"ndw"}},{"type":"Feature","geometry":{"type":"Point","coordinates":[5.313652,51.941122]},"properties":{"type":"charge","layer":"passenger","locationId":"9aba6fdbec744327faa0d460cf949493","name":"Ridderhof 16","address":"Ridderhof 16","city":"Zoelmond","operatorName":"Vattenfall InCharge","maxPowerKw":11,"isMegawatt":false,"status":"AVAILABLE","source":"ndw"}},{"type":"Feature","geometry":{"type":"Point","coordinates":[5.288176,51.946503]},"properties":{"type":"charge","layer":"passenger","locationId":"c1cfbb7be0ea0e2bff0198cc86bed598","name":"Burgemeester Hommesstraat 82","address":"Burgemeester Hommesstraat 82","city":"Beusichem","operatorName":"Vattenfall InCharge","maxPowerKw":11,"isMegawatt":false,"status":"UNAVAILABLE","source":"ndw"}},{"type":"Feature","geometry":{"type":"Point","coordinates":[5.33166,51.90874]},"properties":{"type":"charge","layer":"passenger","locationId":"56b781bc96c07340a1422e194ee60340","name":"Graafschapsstraat 4","address":"Graafschapsstraat 4","city":"Buren","operatorName":"Vattenfall InCharge","maxPowerKw":11,"isMegawatt":false,"status":"AVAILABLE","source":"ndw"}},{"type":"Feature","geometry":{"type":"Point","coordinates":[5.501499,51.965378]},"properties":{"type":"charge","layer":"passenger","locationId":"67a0731a2f1ffffd981c828f","name":"NLZAP0001333003","address":"Verhuizensestraat  519","city":"Ingen","operatorName":"E-Flux by Road","maxPowerKw":22,"isMegawatt":false,"status":"AVAILABLE","source":"ndw","priceKwh":0.68}},{"type":"Feature","geometry":{"type":"Point","coordinates":[5.515274,51.94803]},"properties":{"type":"charge","layer":"passenger","locationId":"2d73cd21-fa88-4758-97d4-4f37eb64c465","name":"Aelbert Cuyphof","address":"Aelbert Cuyphof 27","city":"Lienden","operatorName":"Vattenfall InCharge","maxPowerKw":11,"isMegawatt":false,"status":"AVAILABLE","source":"ndw"}},{"type":"Feature","geometry":{"type":"Point","coordinates":[5.431083,51.960896]},"properties":{"type":"charge","layer":"passenger","locationId":"4c798fae839f54ae913da50d5979ba6b","name":"Goudplevier 22","address":"Goudplevier 22","city":"Maurik","operatorName":"Vattenfall InCharge","maxPowerKw":11,"isMegawatt":false,"status":"AVAILABLE","source":"ndw"}},{"type":"Feature","geometry":{"type":"Point","coordinates":[5.290101,51.952737]},"properties":{"type":"charge","layer":"passenger","locationId":"57ac3569ae2bb56797369e70f13b7dcb","name":"De IJzeren Pot 16","address":"De IJzeren Pot 16","city":"Beusichem","operatorName":"Vattenfall InCharge","maxPowerKw":11,"isMegawatt":false,"status":"CHARGING","source":"ndw"}},{"type":"Feature","geometry":{"type":"Point","coordinates":[5.339838,51.908554]},"properties":{"type":"charge","layer":"passenger","locationId":"0ed58084-0261-42ed-839d-15949e2a4648","name":"Anna van Burenstraat","address":"Anna van Burenstraat 18","city":"Buren","operatorName":"Vattenfall InCharge","maxPowerKw":11,"isMegawatt":false,"status":"AVAILABLE","source":"ndw"}},{"type":"Feature","geometry":{"type":"Point","coordinates":[5.42702,51.961317]},"properties":{"type":"charge","layer":"passenger","locationId":"63ac0e0d1152ca61a626584c016bb4de","name":"Ibisstraat 2","address":"Ibisstraat 2","city":"Maurik","operatorName":"Vattenfall InCharge","maxPowerKw":11,"isMegawatt":false,"status":"AVAILABLE","source":"ndw"}},{"type":"Feature","geometry":{"type":"Point","coordinates":[5.429532,51.958896]},"properties":{"type":"charge","layer":"passenger","locationId":"f82e1b6e9650c9cb8a59db0815a5d94d","name":"Kwartel 1","address":"Kwartel 1","city":"Maurik","operatorName":"Vattenfall InCharge","maxPowerKw":11,"isMegawatt":false,"status":"CHARGING","source":"ndw"}},{"type":"Feature","geometry":{"type":"Point","coordinates":[5.430475,51.960816]},"properties":{"type":"charge","layer":"passenger","locationId":"2f83fe12-af94-40e0-ab36-bbe44f1010e5","name":"Goudplevier","address":"Goudplevier 12","city":"Maurik","operatorName":"Vattenfall InCharge","maxPowerKw":11,"isMegawatt":false,"status":"UNAVAILABLE","source":"ndw"}},{"type":"Feature","geometry":{"type":"Point","coordinates":[5.358341,51.958322]},"properties":{"type":"charge","layer":"passenger","locationId":"a0b32250981320ca8d78f42753701c99","name":"Pr. Irenestraat 34","address":"Pr. Irenestraat 34","city":"Rijswijk","operatorName":"Vattenfall InCharge","maxPowerKw":11,"isMegawatt":false,"status":"AVAILABLE","source":"ndw"}},{"type":"Feature","geometry":{"type":"Point","coordinates":[5.492895,51.924113]},"properties":{"type":"charge","layer":"passenger","locationId":"f1688697-3efb-427b-8965-760aa814592c","name":"Betuwe Singel 39","address":"Betuwe Singel 39","city":"Lienden","operatorName":"Vattenfall InCharge","maxPowerKw":11,"isMegawatt":false,"status":"AVAILABLE","source":"ndw"}},{"type":"Feature","geometry":{"type":"Point","coordinates":[5.42275,51.959088]},"properties":{"type":"charge","layer":"passenger","locationId":"b0be33e26cb4bdd7270b2291e2a3789f","name":"Bloemeehof 15","address":"Bloemeehof 15","city":"Maurik","operatorName":"Vattenfall InCharge","maxPowerKw":11,"isMegawatt":false,"status":"AVAILABLE","source":"ndw"}},{"type":"Feature","geometry":{"type":"Point","coordinates":[5.297332,51.951354]},"properties":{"type":"charge","layer":"passenger","locationId":"150ec8acb60367b01a1a2449e173abcc","name":"De Wielstraat 18","address":"De Wielstraat 18","city":"Beusichem","operatorName":"Vattenfall InCharge","maxPowerKw":11,"isMegawatt":false,"status":"AVAILABLE","source":"ndw"}},{"type":"Feature","geometry":{"type":"MultiPolygon","coordinates":[[[[5.457011532490245,51.98368399790214],[5.472686150800874,51.982977559389695],[5.477664050955791,51.98347261725088],[5.4862135673753345,51.98382638887078],[5.500750580344955,51.97859198975458],[5.5109789569145775,51.97364316758348],[5.518221743139957,51.97169333079114],[5.518829174644289,51.971573553638855],[5.527112676282416,51.97021900485558],[5.537520164884423,51.968285263341485],[5.540207824858125,51.967281441851526],[5.549560810722379,51.959196822423735],[5.556933551978607,51.9557109506468],[5.561252308969734,51.95450171802286],[5.575574263148438,51.95282646959742],[5.586616538178616,51.95082886036091],[5.584101905209298,51.9473292122377],[5.579115091344115,51.94544255837801],[5.576297324904595,51.94292212493756],[5.573253137859903,51.941998010817855],[5.567534137214075,51.94149131507868],[5.560695383315005,51.944056614003635],[5.549444546142318,51.942302349113085],[5.540202198363615,51.9436517705646],[5.533880559218638,51.943481533518074],[5.533635653514419,51.94302093518321],[5.539817882401426,51.93713316434534],[5.5484408444253415,51.934252647408854],[5.554116184803776,51.93401933151332],[5.554181049693368,51.93280934576915],[5.553881837849034,51.925806483524454],[5.553876402755297,51.92295919619562],[5.554576781570301,51.923031760624276],[5.556824212613592,51.919234798794584],[5.551786193769049,51.91780774414997],[5.55174656811892,51.91780086428931],[5.5477054055731205,51.92164696084258],[5.51565421674007,51.921539935730955],[5.5122981985345705,51.92137494491348],[5.510592627425316,51.9222734014187],[5.50713713768773,51.92278651629166],[5.505396496076663,51.92391803502231],[5.501009818288008,51.92267413707125],[5.498812186734259,51.92322622938506],[5.493556497285756,51.91850641621276],[5.4898261528183765,51.918246899784734],[5.486420725107896,51.91893440091726],[5.486866146225474,51.9210371468495],[5.489014195841845,51.92101893662898],[5.488628733866974,51.92315490330041],[5.491745339126788,51.92406109199878],[5.490895523971649,51.924744352058504],[5.487211226825301,51.923814761946],[5.487741911517911,51.92303173545967],[5.483196382627349,51.92327176072411],[5.481254950834805,51.92254905529917],[5.480382465227902,51.92278191804852],[5.476526567951925,51.920869594352936],[5.474261455670976,51.92189946570963],[5.472398174356227,51.921974566696704],[5.4673867992583105,51.92353600601841],[5.460345185274278,51.9241166154649],[5.458425915555641,51.922892591835385],[5.4533838630491225,51.92276118117767],[5.449595628647216,51.92182603409604],[5.446978897557649,51.92057142210237],[5.443800557540905,51.921423111371475],[5.435111088301631,51.920670250119166],[5.43377040173532,51.91982409870351],[5.433279541235343,51.91942864760064],[5.4317015351635405,51.91846362053801],[5.427345434322465,51.91850096278854],[5.423800393154582,51.91735087462116],[5.420751823441539,51.914847989595394],[5.418015805518996,51.913295359811],[5.413297187316731,51.91281469024559],[5.411256164398553,51.91200864106512],[5.409538971669858,51.907768391871635],[5.4080739841974195,51.90644410912576],[5.404321049785183,51.90507006026335],[5.404220130906583,51.903992723883555],[5.399823808388634,51.89857573605286],[5.392605089237435,51.896839256280316],[5.382760470137707,51.89203577104235],[5.369061404611674,51.885357064234896],[5.3537822277601395,51.87806634280131],[5.351474582284349,51.87815808401279],[5.3498468939230035,51.87722018180202],[5.344866419023097,51.87745860533438],[5.344072705720817,51.874942374525986],[5.341664500838311,51.87348598540711],[5.3390235652225995,51.87403416239032],[5.339455682453954,51.87787404692295],[5.337163202703594,51.88098151910334],[5.334934291688138,51.8817626719189],[5.326829600468497,51.882587844934555],[5.322676005775173,51.8819662753059],[5.317193068421269,51.88023261767676],[5.315177847529507,51.880575962328265],[5.314951252254792,51.88181599080066],[5.316293671707316,51.883323071421366],[5.32193897565663,51.88562805705038],[5.323414704007901,51.886983540936754],[5.3233660307841415,51.88901036171655],[5.318775437032711,51.89255870356015],[5.312044600069665,51.895907251177704],[5.309205919810738,51.89662047815213],[5.3067508790885745,51.89641758214465],[5.306584519761047,51.896578095097276],[5.297323071256312,51.90157906519429],[5.294892961369453,51.90005233601871],[5.273686832105657,51.920087061038075],[5.285182982876325,51.922639411827646],[5.2867235873423635,51.92851033839291],[5.2849463450581915,51.930691651000025],[5.281281547397318,51.932671117555195],[5.280976131217452,51.933167807300926],[5.279572122057894,51.933195448175425],[5.27622692696366,51.93262794303881],[5.267760697555715,51.93275606238008],[5.2550612794464096,51.93548254591111],[5.254803117379247,51.93672690357292],[5.2470748264226605,51.94123185622486],[5.245563097485995,51.94348618839982],[5.241922558696737,51.94551641673595],[5.252238037986199,51.949020603435784],[5.254906072319119,51.94985558087234],[5.2543108585313165,51.950185947732635],[5.257342062617249,51.95131294561202],[5.257728834768796,51.95099872886697],[5.259764833783261,51.9515952668105],[5.2553177784799106,51.95422117252752],[5.270373094156538,51.965426734821946],[5.282607542697965,51.963162613239234],[5.300893671321559,51.96156863140087],[5.310870533002549,51.957013712995916],[5.31660025068068,51.95522096364522],[5.323438693359133,51.955097117736564],[5.333117939969929,51.95720090552408],[5.339693088197309,51.96102800772992],[5.339824631971654,51.96113701746616],[5.348254795119408,51.96768633886376],[5.355637840299831,51.970353859396845],[5.363015692814898,51.97095010109929],[5.376010848482578,51.96921061168341],[5.382797898227564,51.96926390355175],[5.390975617798809,51.97073015182912],[5.399337156129376,51.973102731877745],[5.418155117162151,51.97660565205528],[5.423363194127082,51.97875537432729],[5.430399423656932,51.98326505631934],[5.436243484618108,51.985348396480966],[5.442407780028794,51.9859474846086],[5.457011532490245,51.98368399790214]]]]},"properties":{"type":"boundary","gemeente":"Buren","code":"GM0214"}}]}