{"type":"FeatureCollection","metadata":{"gemeente":"De Wolden","slug":"de-wolden","code":"GM1690","generated_at":"2026-06-02T13:19:22.438Z","total_passenger":95,"total_freight":2,"bounds":[6.216320449342889,52.61225042416026,6.530556459626456,52.79897809618672],"operators":["Allego","DAEN Mobility","E-Flux by Road","EQUANS","Fastned","Lanova Laadpalen","Pluq"]},"features":[{"type":"Feature","geometry":{"type":"Point","coordinates":[6.398766,52.713497]},"properties":{"type":"charge","layer":"passenger","locationId":"NLLOC026873","name":"NL, Zuidwolderweg 2-A, 7932 PP Echten","address":"Zuidwolderweg 2-A","city":"Echten","operatorName":"Allego","maxPowerKw":0,"isMegawatt":false,"status":"AVAILABLE","source":"ndw"}},{"type":"Feature","geometry":{"type":"Point","coordinates":[6.429398,52.676844]},"properties":{"type":"charge","layer":"passenger","locationId":"1905712c-dafc-11ed-ba91-42010aa40fc0","name":"NL, Steenbergerweg 1, 7921GE Zuidwolde","address":"Steenbergerweg 1","city":"Zuidwolde","operatorName":"Allego","maxPowerKw":0,"isMegawatt":false,"status":"AVAILABLE","source":"ndw"}},{"type":"Feature","geometry":{"type":"Point","coordinates":[6.427588,52.675334]},"properties":{"type":"charge","layer":"passenger","locationId":"cbd690d6-f457-11e9-ad3a-42010a840003","name":"NLD, Zuidwolde, Wethouder Klunderstraat 30","address":"Wethouder Klunderstraat 30","city":"Zuidwolde","operatorName":"Allego","maxPowerKw":0,"isMegawatt":false,"status":"AVAILABLE","source":"ndw"}},{"type":"Feature","geometry":{"type":"Point","coordinates":[6.446551,52.639247]},"properties":{"type":"charge","layer":"passenger","locationId":"54f1ec1e-4835-11ee-abeb-42010aa40fc0","name":"NL, Linderweg 24, 7925 PB Linde","address":"Linderweg 24","city":"Linde","operatorName":"Allego","maxPowerKw":0,"isMegawatt":false,"status":"AVAILABLE","source":"ndw"}},{"type":"Feature","geometry":{"type":"Point","coordinates":[6.434393,52.67311]},"properties":{"type":"charge","layer":"passenger","locationId":"84c60ac8-da31-11ed-b304-42010aa40fc0","name":"NL, Graspad 1, 7921 LR Zuidwolde","address":"Graspad 1","city":"Zuidwolde","operatorName":"Allego","maxPowerKw":0,"isMegawatt":false,"status":"AVAILABLE","source":"ndw"}},{"type":"Feature","geometry":{"type":"Point","coordinates":[6.316005,52.704036]},"properties":{"type":"charge","layer":"passenger","locationId":"28b0cddc-d8a0-11ed-a0b9-42010aa40fc0","name":"NL, Stationsweg 3, 7958RX, Koekenge","address":"Stationsweg 3","city":"Koekenge","operatorName":"Allego","maxPowerKw":0,"isMegawatt":false,"status":"AVAILABLE","source":"ndw"}},{"type":"Feature","geometry":{"type":"Point","coordinates":[6.353535,52.758988]},"properties":{"type":"charge","layer":"passenger","locationId":"791ea88a-1134-11ee-8c05-42010aa40fc0","name":"NL, Meester Harm Smeengestraat 54, 7963 BZ Ruinen","address":"Meester Harm Smeengestraat 54","city":"Ruinen","operatorName":"Allego","maxPowerKw":0,"isMegawatt":false,"status":"AVAILABLE","source":"ndw"}},{"type":"Feature","geometry":{"type":"Point","coordinates":[6.247549,52.723147]},"properties":{"type":"charge","layer":"passenger","locationId":"d60a9f34-f457-11e9-9654-42010a840003","name":"NL, Burgemeester Schukkingstraat 1, 7961CA, Ruinerwold","address":"Burgemeester Schukkingstraat 1","city":"Ruinerwold","operatorName":"Allego","maxPowerKw":0,"isMegawatt":false,"status":"AVAILABLE","source":"ndw"}},{"type":"Feature","geometry":{"type":"Point","coordinates":[6.432727,52.697073]},"properties":{"type":"charge","layer":"passenger","locationId":"693fd1032ec411e4803c9f6e","name":"Narline DC-laders","address":"Hoogeveenseweg 17","city":"Zuidwolde","operatorName":"E-Flux by Road","maxPowerKw":270,"isMegawatt":false,"status":"AVAILABLE","source":"ndw"}},{"type":"Feature","geometry":{"type":"Point","coordinates":[6.44652,52.63924]},"properties":{"type":"charge","layer":"passenger","locationId":"91460751","name":"Equans Groningen Drenthe Linderweg 24","address":"Linderweg 24","city":"Linde","operatorName":"EQUANS","maxPowerKw":0,"isMegawatt":false,"status":"AVAILABLE","source":"ndw"}},{"type":"Feature","geometry":{"type":"Point","coordinates":[6.400762,52.707519]},"properties":{"type":"charge","layer":"passenger","locationId":"669768c5c9293d001c5b8bec","name":"Hotel Restaurant Café Boschzicht B.V.","address":"Zuidwolderweg 38","city":"Echten","operatorName":"Pluq","maxPowerKw":22,"isMegawatt":false,"status":"AVAILABLE","source":"ndw"}},{"type":"Feature","geometry":{"type":"Point","coordinates":[6.38968,52.770204]},"properties":{"type":"charge","layer":"passenger","locationId":"923556","name":"DAE_NL_2001314","address":"Achter de broeken 8","city":"Ruinen","operatorName":"DAEN Mobility","maxPowerKw":11,"isMegawatt":false,"status":"UNAVAILABLE","source":"ndw"}},{"type":"Feature","geometry":{"type":"Point","coordinates":[6.370951,52.668715]},"properties":{"type":"charge","layer":"passenger","locationId":"cbc9304e-f457-11e9-b9aa-42010a840003","name":"NLD, Veeningen, Dorpshuisstraat 43","address":"Dorpshuisstraat 43","city":"Veeningen","operatorName":"Allego","maxPowerKw":0,"isMegawatt":false,"status":"AVAILABLE","source":"ndw"}},{"type":"Feature","geometry":{"type":"Point","coordinates":[6.295685,52.676126]},"properties":{"type":"charge","layer":"passenger","locationId":"eaccbfbc-3e9f-11ec-8c99-42010a840003","name":"NL, Hendrik Tillemaweg, 83, 7957DC, De Wijk","address":"Hendrik Tillemaweg 83","city":"De Wijk","operatorName":"Allego","maxPowerKw":0,"isMegawatt":false,"status":"AVAILABLE","source":"ndw"}},{"type":"Feature","geometry":{"type":"Point","coordinates":[6.334471,52.782688]},"properties":{"type":"charge","layer":"passenger","locationId":"80346ef2-520f-11eb-8853-42010a840003","name":"NL, Kerkdijk 1 c, 7964KA, Ansen","address":"Kerkdijk 1 c","city":"Ansen","operatorName":"Allego","maxPowerKw":0,"isMegawatt":false,"status":"AVAILABLE","source":"ndw"}},{"type":"Feature","geometry":{"type":"Point","coordinates":[6.298214,52.676191]},"properties":{"type":"charge","layer":"passenger","locationId":"NLLOC024500","name":"NL, Hendrik Tillemaweg, 63, 7957CB, De wijk","address":"Hendrik Tillemaweg 63","city":"De Wijk","operatorName":"Allego","maxPowerKw":0,"isMegawatt":false,"status":"AVAILABLE","source":"ndw"}},{"type":"Feature","geometry":{"type":"Point","coordinates":[6.42011,52.67313]},"properties":{"type":"charge","layer":"passenger","locationId":"f2305ebc-9257-11ef-952e-42010aa400b8","name":"Equans Groningen Drenthe Drostenstraat 24","address":"Drostenstraat 24","city":"Zuidwolde","operatorName":"EQUANS","maxPowerKw":0,"isMegawatt":false,"status":"AVAILABLE","source":"ndw"}},{"type":"Feature","geometry":{"type":"Point","coordinates":[6.334471,52.782688]},"properties":{"type":"charge","layer":"passenger","locationId":"NLLOC007276","name":"NL, Kerkdijk 1 c, 7964KA, Ansen","address":"Kerkdijk 1 c","city":"Ansen","operatorName":"Allego","maxPowerKw":0,"isMegawatt":false,"status":"AVAILABLE","source":"ndw"}},{"type":"Feature","geometry":{"type":"Point","coordinates":[6.433432,52.696748]},"properties":{"type":"charge","layer":"passenger","locationId":"62de90fb996fcc4cdf0d45b3","name":"Narline station 3","address":"Hoogeveenseweg 17","city":"Zuidwolde","operatorName":"E-Flux by Road","maxPowerKw":22,"isMegawatt":false,"status":"AVAILABLE","source":"ndw"}},{"type":"Feature","geometry":{"type":"Point","coordinates":[6.28723,52.671816]},"properties":{"type":"charge","layer":"passenger","locationId":"59722cd4-7ab8-11ea-a343-42010a840003","name":"NL, Julianaweg 8, 7957BL, De Wijk","address":"Julianaweg 8","city":"De Wijk","operatorName":"Allego","maxPowerKw":0,"isMegawatt":false,"status":"CHARGING","source":"ndw"}},{"type":"Feature","geometry":{"type":"Point","coordinates":[6.251908,52.723707]},"properties":{"type":"charge","layer":"passenger","locationId":"6ad8050e-162a-11ea-a679-42010a840003","name":"NLD, Ruinerwold, Dijkhuizen 66a","address":"Dijkhuizen 66a","city":"Ruinerwold","operatorName":"Allego","maxPowerKw":0,"isMegawatt":false,"status":"AVAILABLE","source":"ndw"}},{"type":"Feature","geometry":{"type":"Point","coordinates":[6.298214,52.676191]},"properties":{"type":"charge","layer":"passenger","locationId":"8185b9be-5eff-11ee-b25f-42010aa40fc0","name":"NL, Hendrik Tillemaweg, 63, 7957CB, De wijk","address":"Hendrik Tillemaweg 63","city":"De Wijk","operatorName":"Allego","maxPowerKw":0,"isMegawatt":false,"status":"AVAILABLE","source":"ndw"}},{"type":"Feature","geometry":{"type":"Point","coordinates":[6.247549,52.723147]},"properties":{"type":"charge","layer":"passenger","locationId":"NLLOC007241","name":"NL, Burgemeester Schukkingstraat 1, 7961CA, Ruinerwold","address":"Burgemeester Schukkingstraat 1","city":"Ruinerwold","operatorName":"Allego","maxPowerKw":0,"isMegawatt":false,"status":"AVAILABLE","source":"ndw"}},{"type":"Feature","geometry":{"type":"Point","coordinates":[6.289188,52.673631]},"properties":{"type":"charge","layer":"passenger","locationId":"10e45cf4-dcff-11ef-aca3-42010aa400b8","name":"Equans Groningen Drenthe Willem Koopsweg 31","address":"Willem Koopsweg 31","city":"de Wijk","operatorName":"EQUANS","maxPowerKw":0,"isMegawatt":false,"status":"AVAILABLE","source":"ndw"}},{"type":"Feature","geometry":{"type":"Point","coordinates":[6.353748,52.76335]},"properties":{"type":"charge","layer":"passenger","locationId":"2510af04-bf20-11ef-a24c-42010aa400b8","name":"Equans Groningen Drenthe Westerstraat 55","address":"Westerstraat 55 a","city":"Ruinen","operatorName":"EQUANS","maxPowerKw":0,"isMegawatt":false,"status":"AVAILABLE","source":"ndw"}},{"type":"Feature","geometry":{"type":"Point","coordinates":[6.358871,52.76326]},"properties":{"type":"charge","layer":"passenger","locationId":"83f1d52a-bdbc-11eb-9319-42010a840003","name":"NL, De Kaamp 5, 7963 HA Ruinen","address":"De Kaamp 5","city":"Ruinen","operatorName":"Allego","maxPowerKw":0,"isMegawatt":false,"status":"AVAILABLE","source":"ndw"}},{"type":"Feature","geometry":{"type":"Point","coordinates":[6.319113,52.700498]},"properties":{"type":"charge","layer":"passenger","locationId":"1fe6ac24-f133-11e9-98b5-42010a840003","name":"NLD, Koekange, ,Dorpsstraat 41","address":"Dorpsstraat 41","city":"Koekange","operatorName":"Allego","maxPowerKw":0,"isMegawatt":false,"status":"AVAILABLE","source":"ndw"}},{"type":"Feature","geometry":{"type":"Point","coordinates":[6.398766,52.713497]},"properties":{"type":"charge","layer":"passenger","locationId":"dd4f89a4-e2d7-11ed-b854-42010aa40fc0","name":"NL, Zuidwolderweg 2-A, 7932 PP Echten","address":"Zuidwolderweg 2-A","city":"Echten","operatorName":"Allego","maxPowerKw":0,"isMegawatt":false,"status":"AVAILABLE","source":"ndw"}},{"type":"Feature","geometry":{"type":"Point","coordinates":[6.502744,52.667833]},"properties":{"type":"charge","layer":"passenger","locationId":"71838758-a5d1-11ee-900c-42010aa40fc0","name":"Equans Groningen Drenthe Jan Haarstraat 45","address":"Jan Haarstraat 45","city":"Kerkenveld","operatorName":"EQUANS","maxPowerKw":0,"isMegawatt":false,"status":"AVAILABLE","source":"ndw"}},{"type":"Feature","geometry":{"type":"Point","coordinates":[6.289139,52.6702]},"properties":{"type":"charge","layer":"passenger","locationId":"ac390160-dcfe-11ef-9451-42010aa400b8","name":"Equans Groningen Drenthe Oldenhof 2","address":"Oldenhof 2","city":"De Wijk","operatorName":"EQUANS","maxPowerKw":0,"isMegawatt":false,"status":"AVAILABLE","source":"ndw"}},{"type":"Feature","geometry":{"type":"Point","coordinates":[6.436472,52.671543]},"properties":{"type":"charge","layer":"passenger","locationId":"7d70b098-82b3-11f0-9ca8-42010aa400b8","name":"NL, Sportlaantje 6, 7921BT Zuidwolde","address":"Sportlaantje 6","city":"Zuidwolde","operatorName":"Allego","maxPowerKw":0,"isMegawatt":false,"status":"AVAILABLE","source":"ndw"}},{"type":"Feature","geometry":{"type":"Point","coordinates":[6.24303,52.72414]},"properties":{"type":"charge","layer":"passenger","locationId":"464cf730-a0a8-11f0-8e9d-42010aa400b8","name":"Equans Groningen Drenthe Kievitstraat 25","address":"Kievitstraat 25","city":"Ruinerwold","operatorName":"EQUANS","maxPowerKw":0,"isMegawatt":false,"status":"AVAILABLE","source":"ndw"}},{"type":"Feature","geometry":{"type":"Point","coordinates":[6.318351,52.698524]},"properties":{"type":"charge","layer":"passenger","locationId":"227938d0-f133-11e9-944c-42010a840003","name":"NLD, Koekange, Sportlaan 19","address":"Sportlaan 19","city":"Koekange","operatorName":"Allego","maxPowerKw":0,"isMegawatt":false,"status":"AVAILABLE","source":"ndw"}},{"type":"Feature","geometry":{"type":"Point","coordinates":[6.427833,52.66339]},"properties":{"type":"charge","layer":"passenger","locationId":"3abc03de-9258-11ef-a61e-42010aa400b8","name":"Equans Groningen Drenthe Turflaan 9","address":"Turflaan 9","city":"Zuidwolde","operatorName":"EQUANS","maxPowerKw":0,"isMegawatt":false,"status":"AVAILABLE","source":"ndw"}},{"type":"Feature","geometry":{"type":"Point","coordinates":[6.42756,52.67539]},"properties":{"type":"charge","layer":"passenger","locationId":"cbd690d6-f457-11e9-ad3a-42010a840003","name":"Equans Groningen Drenthe Wethouder Klunderstraat 30","address":"Wethouder Klunderstraat 30","city":"Zuidwolde","operatorName":"EQUANS","maxPowerKw":0,"isMegawatt":false,"status":"AVAILABLE","source":"ndw"}},{"type":"Feature","geometry":{"type":"Point","coordinates":[6.42445,52.67306]},"properties":{"type":"charge","layer":"passenger","locationId":"7192532a-a55f-11f0-baa0-42010aa400b8","name":"Equans Groningen Drenthe Reuvenkamp 40","address":"Reuvenkamp 40","city":"Zuidwolde","operatorName":"EQUANS","maxPowerKw":0,"isMegawatt":false,"status":"AVAILABLE","source":"ndw"}},{"type":"Feature","geometry":{"type":"Point","coordinates":[6.293771,52.674949]},"properties":{"type":"charge","layer":"passenger","locationId":"NLLOC019915","name":"NL, Nicolaas ten Woldeweg 8, 7957 CV de Wijk","address":"Nicolaas ten Woldeweg 8","city":"de Wijk","operatorName":"Allego","maxPowerKw":0,"isMegawatt":false,"status":"AVAILABLE","source":"ndw"}},{"type":"Feature","geometry":{"type":"Point","coordinates":[6.286745,52.672659]},"properties":{"type":"charge","layer":"passenger","locationId":"2bfd1a42-5764-11ea-ace7-42010a840003","name":"NL, Dorpsstraat 59a, 7957AS, De Wijk","address":"Dorpsstraat 59a","city":"De Wijk","operatorName":"Allego","maxPowerKw":0,"isMegawatt":false,"status":"AVAILABLE","source":"ndw"}},{"type":"Feature","geometry":{"type":"Point","coordinates":[6.293771,52.674949]},"properties":{"type":"charge","layer":"passenger","locationId":"a9f154ec-cd26-11ec-867e-42010a840003","name":"NL, Nicolaas ten Woldeweg 8, 7957 CV de Wijk","address":"Nicolaas ten Woldeweg 8","city":"de Wijk","operatorName":"Allego","maxPowerKw":0,"isMegawatt":false,"status":"AVAILABLE","source":"ndw"}},{"type":"Feature","geometry":{"type":"Point","coordinates":[6.429398,52.676844]},"properties":{"type":"charge","layer":"passenger","locationId":"NLLOC025240","name":"NL, Steenbergerweg 1, 7921GE Zuidwolde","address":"Steenbergerweg 1","city":"Zuidwolde","operatorName":"Allego","maxPowerKw":0,"isMegawatt":false,"status":"AVAILABLE","source":"ndw"}},{"type":"Feature","geometry":{"type":"Point","coordinates":[6.489107,52.675991]},"properties":{"type":"charge","layer":"passenger","locationId":"976c6980-c2fe-11ea-9c62-42010a840003","name":"NL, Nieuwstraat 37, 7927 PJ, Alteveer","address":"Nieuwstraat 37","city":"Alteveer","operatorName":"Allego","maxPowerKw":0,"isMegawatt":false,"status":"AVAILABLE","source":"ndw"}},{"type":"Feature","geometry":{"type":"Point","coordinates":[6.435088,52.675916]},"properties":{"type":"charge","layer":"passenger","locationId":"33428678-0120-11f0-98e3-42010aa400b8","name":"Equans Groningen Drenthe Haverstraat 13","address":"Haverstraat 13","city":"Zuidwolde","operatorName":"EQUANS","maxPowerKw":0,"isMegawatt":false,"status":"AVAILABLE","source":"ndw"}},{"type":"Feature","geometry":{"type":"Point","coordinates":[6.43249,52.67145]},"properties":{"type":"charge","layer":"passenger","locationId":"a7541376-0609-11f1-9299-42010aa400b8","name":"Equans Groningen Drenthe Oosterweg 16","address":"Oosterweg 16.","city":"Zuidwolde","operatorName":"EQUANS","maxPowerKw":0,"isMegawatt":false,"status":"AVAILABLE","source":"ndw"}},{"type":"Feature","geometry":{"type":"Point","coordinates":[6.35939,52.75957]},"properties":{"type":"charge","layer":"passenger","locationId":"4bdfb850-f6c1-11ee-b2c6-42010aa400b8","name":"Equans Groningen Drenthe Torenakker 55","address":"Torenakker 55","city":"Ruinen","operatorName":"EQUANS","maxPowerKw":0,"isMegawatt":false,"status":"AVAILABLE","source":"ndw"}},{"type":"Feature","geometry":{"type":"Point","coordinates":[6.486426,52.6751]},"properties":{"type":"charge","layer":"passenger","locationId":"cd06bd7a-b359-11ef-bced-42010aa400b8","name":"Equans Groningen Drenthe Hazenpad 28","address":"Hazenpad 28","city":"Alterveer","operatorName":"EQUANS","maxPowerKw":0,"isMegawatt":false,"status":"AVAILABLE","source":"ndw"}},{"type":"Feature","geometry":{"type":"Point","coordinates":[6.497447,52.667866]},"properties":{"type":"charge","layer":"passenger","locationId":"82da0890-24d7-11ee-92e3-42010aa40fc0","name":"NL, Jan Haarstraat 22, 7926 TC Kerkenveld","address":"Jan Haarstraat 22","city":"Kerkenveld","operatorName":"Allego","maxPowerKw":0,"isMegawatt":false,"status":"AVAILABLE","source":"ndw"}},{"type":"Feature","geometry":{"type":"Point","coordinates":[6.504974,52.669329]},"properties":{"type":"charge","layer":"passenger","locationId":"10e48d38-40cc-11f0-87b2-42010aa400b8","name":"Equans Groningen Drenthe Compagniestraat 19","address":"Compagniestraat 19","city":"Kerkenveld","operatorName":"EQUANS","maxPowerKw":0,"isMegawatt":false,"status":"AVAILABLE","source":"ndw"}},{"type":"Feature","geometry":{"type":"Point","coordinates":[6.316005,52.704036]},"properties":{"type":"charge","layer":"passenger","locationId":"NLLOC027106","name":"NL, Stationsweg 3, 7958RX, Koekenge","address":"Stationsweg 3","city":"Koekenge","operatorName":"Allego","maxPowerKw":0,"isMegawatt":false,"status":"AVAILABLE","source":"ndw"}},{"type":"Feature","geometry":{"type":"Point","coordinates":[6.433432,52.696748]},"properties":{"type":"charge","layer":"passenger","locationId":"62de920cfec77354b26937d2","name":"Narline station 4","address":"Hoogeveenseweg 17","city":"Zuidwolde","operatorName":"E-Flux by Road","maxPowerKw":22,"isMegawatt":false,"status":"AVAILABLE","source":"ndw"}},{"type":"Feature","geometry":{"type":"Point","coordinates":[6.281788,52.673267]},"properties":{"type":"charge","layer":"passenger","locationId":"9f036c14-a145-11ef-8719-42010aa400b8","name":"Equans Groningen Drenthe Dorpsstraat 11","address":"Dorpsstraat 11","city":"De Wijk","operatorName":"EQUANS","maxPowerKw":0,"isMegawatt":false,"status":"AVAILABLE","source":"ndw"}},{"type":"Feature","geometry":{"type":"Point","coordinates":[6.24542,52.72471]},"properties":{"type":"charge","layer":"passenger","locationId":"7d5f65be-9258-11ef-b76b-42010aa400b8","name":"Equans Groningen Drenthe Havelterweg 39","address":"Havelterweg 39","city":"Ruinerwold","operatorName":"EQUANS","maxPowerKw":0,"isMegawatt":false,"status":"AVAILABLE","source":"ndw"}},{"type":"Feature","geometry":{"type":"Point","coordinates":[6.245341,52.721749]},"properties":{"type":"charge","layer":"passenger","locationId":"83ca8c7c-8f59-11f0-9d6b-42010aa400b8","name":"Equans Groningen Drenthe Dijkhuizen 2","address":"Dijkhuizen 2","city":"Ruinerwold","operatorName":"EQUANS","maxPowerKw":0,"isMegawatt":false,"status":"AVAILABLE","source":"ndw"}},{"type":"Feature","geometry":{"type":"Point","coordinates":[6.424675,52.670767]},"properties":{"type":"charge","layer":"passenger","locationId":"859eb7a8-8f59-11f0-92d1-42010aa400b8","name":"Equans Groningen Drenthe Gaffel 24","address":"Gaffel 24","city":"Zuidwolde","operatorName":"EQUANS","maxPowerKw":0,"isMegawatt":false,"status":"AVAILABLE","source":"ndw"}},{"type":"Feature","geometry":{"type":"Point","coordinates":[6.358871,52.76326]},"properties":{"type":"charge","layer":"passenger","locationId":"NLLOC012742","name":"NL, De Kaamp 5, 7963 HA Ruinen","address":"De Kaamp 5","city":"Ruinen","operatorName":"Allego","maxPowerKw":0,"isMegawatt":false,"status":"AVAILABLE","source":"ndw"}},{"type":"Feature","geometry":{"type":"Point","coordinates":[6.289027,52.71367]},"properties":{"type":"charge","layer":"passenger","locationId":"aaeedb52-8756-11ef-a5d9-42010aa400b8","name":"Equans Groningen Drenthe Berghuizen 10A","address":"Berghuizen 10A","city":"Ruinerwold","operatorName":"EQUANS","maxPowerKw":0,"isMegawatt":false,"status":"AVAILABLE","source":"ndw"}},{"type":"Feature","geometry":{"type":"Point","coordinates":[6.424563,52.674161]},"properties":{"type":"charge","layer":"passenger","locationId":"d500a330-e4d5-11ef-95fb-42010aa400b8","name":"Equans Groningen Drenthe Venekamp 2","address":"Venekamp 2","city":"Zuidwolde","operatorName":"EQUANS","maxPowerKw":0,"isMegawatt":false,"status":"AVAILABLE","source":"ndw"}},{"type":"Feature","geometry":{"type":"Point","coordinates":[6.433432,52.696748]},"properties":{"type":"charge","layer":"passenger","locationId":"62de8d478e360168cc886cf5","name":"Narline station 2","address":"Hoogeveenseweg 17","city":"Zuidwolde","operatorName":"E-Flux by Road","maxPowerKw":22,"isMegawatt":false,"status":"AVAILABLE","source":"ndw"}},{"type":"Feature","geometry":{"type":"Point","coordinates":[6.502982,52.620833]},"properties":{"type":"charge","layer":"passenger","locationId":"6981e0919332618913557915","name":"Zonne Energie Oost","address":"Drogteropslagen 58B","city":"Drogteropslagen","operatorName":"E-Flux by Road","maxPowerKw":22,"isMegawatt":false,"status":"UNAVAILABLE","source":"ndw"}},{"type":"Feature","geometry":{"type":"Point","coordinates":[6.433432,52.696748]},"properties":{"type":"charge","layer":"passenger","locationId":"62de8c46996fcc40330c7b78","name":"Narline station 1","address":"Hoogeveenseweg 17","city":"Zuidwolde","operatorName":"E-Flux by Road","maxPowerKw":22,"isMegawatt":false,"status":"AVAILABLE","source":"ndw"}},{"type":"Feature","geometry":{"type":"Point","coordinates":[6.281788,52.673267]},"properties":{"type":"charge","layer":"passenger","locationId":"91145228","name":"Equans Groningen Drenthe Dorpsstraat 11","address":"Dorpsstraat 11","city":"De Wijk","operatorName":"EQUANS","maxPowerKw":0,"isMegawatt":false,"status":"AVAILABLE","source":"ndw"}},{"type":"Feature","geometry":{"type":"Point","coordinates":[6.434393,52.67311]},"properties":{"type":"charge","layer":"passenger","locationId":"NLLOC022133","name":"NL, Graspad 1, 7921 LR Zuidwolde","address":"Graspad 1","city":"Zuidwolde","operatorName":"Allego","maxPowerKw":0,"isMegawatt":false,"status":"AVAILABLE","source":"ndw"}},{"type":"Feature","geometry":{"type":"Point","coordinates":[6.353535,52.758988]},"properties":{"type":"charge","layer":"passenger","locationId":"NLLOC024499","name":"NL, Meester Harm Smeengestraat 54, 7963 BZ Ruinen","address":"Meester Harm Smeengestraat 54","city":"Ruinen","operatorName":"Allego","maxPowerKw":0,"isMegawatt":false,"status":"AVAILABLE","source":"ndw"}},{"type":"Feature","geometry":{"type":"Point","coordinates":[6.35939,52.75957]},"properties":{"type":"charge","layer":"passenger","locationId":"91145016","name":"Equans Groningen Drenthe Torenakker 55","address":"Torenakker 55","city":"Ruinen","operatorName":"EQUANS","maxPowerKw":0,"isMegawatt":false,"status":"AVAILABLE","source":"ndw"}},{"type":"Feature","geometry":{"type":"Point","coordinates":[6.370951,52.668715]},"properties":{"type":"charge","layer":"passenger","locationId":"NLLOC005250","name":"NLD, Veeningen, Dorpshuisstraat 43","address":"Dorpshuisstraat 43","city":"Veeningen","operatorName":"Allego","maxPowerKw":0,"isMegawatt":false,"status":"AVAILABLE","source":"ndw"}},{"type":"Feature","geometry":{"type":"Point","coordinates":[6.289139,52.6702]},"properties":{"type":"charge","layer":"passenger","locationId":"91145335","name":"Equans Groningen Drenthe Oldenhof 2","address":"Oldenhof 2","city":"De Wijk","operatorName":"EQUANS","maxPowerKw":0,"isMegawatt":false,"status":"AVAILABLE","source":"ndw"}},{"type":"Feature","geometry":{"type":"Point","coordinates":[6.424563,52.674161]},"properties":{"type":"charge","layer":"passenger","locationId":"91145338","name":"Equans Groningen Drenthe Venekamp 2","address":"Venekamp 2","city":"Zuidwolde","operatorName":"EQUANS","maxPowerKw":0,"isMegawatt":false,"status":"AVAILABLE","source":"ndw"}},{"type":"Feature","geometry":{"type":"Point","coordinates":[6.353748,52.76335]},"properties":{"type":"charge","layer":"passenger","locationId":"91145373","name":"Equans Groningen Drenthe Westerstraat 55","address":"Westerstraat 55 a","city":"Ruinen","operatorName":"EQUANS","maxPowerKw":0,"isMegawatt":false,"status":"AVAILABLE","source":"ndw"}},{"type":"Feature","geometry":{"type":"Point","coordinates":[6.436472,52.671543]},"properties":{"type":"charge","layer":"passenger","locationId":"NLLOC025450","name":"NL, Sportlaantje 6, 7921BT Zuidwolde","address":"Sportlaantje 6","city":"Zuidwolde","operatorName":"Allego","maxPowerKw":0,"isMegawatt":false,"status":"AVAILABLE","source":"ndw"}},{"type":"Feature","geometry":{"type":"Point","coordinates":[6.486426,52.6751]},"properties":{"type":"charge","layer":"passenger","locationId":"91145251","name":"Equans Groningen Drenthe Hazenpad 28","address":"Hazenpad 28","city":"Alterveer","operatorName":"EQUANS","maxPowerKw":0,"isMegawatt":false,"status":"AVAILABLE","source":"ndw"}},{"type":"Feature","geometry":{"type":"Point","coordinates":[6.489107,52.675991]},"properties":{"type":"charge","layer":"passenger","locationId":"NLLOC008789","name":"NL, Nieuwstraat 37, 7927 PJ, Alteveer","address":"Nieuwstraat 37","city":"Alteveer","operatorName":"Allego","maxPowerKw":0,"isMegawatt":false,"status":"AVAILABLE","source":"ndw"}},{"type":"Feature","geometry":{"type":"Point","coordinates":[6.245341,52.721749]},"properties":{"type":"charge","layer":"passenger","locationId":"91154022","name":"Equans Groningen Drenthe Dijkhuizen 2","address":"Dijkhuizen 2","city":"Ruinerwold","operatorName":"EQUANS","maxPowerKw":0,"isMegawatt":false,"status":"AVAILABLE","source":"ndw"}},{"type":"Feature","geometry":{"type":"Point","coordinates":[6.410493,52.751002]},"properties":{"type":"charge","layer":"passenger","locationId":"65ddc3d6b651f5001cd002a4","name":"Woning 99 - rechts","address":"Gijsselterweg 30","city":"RUINEN","operatorName":"Lanova Laadpalen","maxPowerKw":11,"isMegawatt":false,"status":"AVAILABLE","source":"ndw"}},{"type":"Feature","geometry":{"type":"Point","coordinates":[6.433112,52.671658]},"properties":{"type":"charge","layer":"passenger","locationId":"91339485","name":"Equans Groningen Drenthe Oosterweg 16","address":"Oosterweg 16","city":"Zuidwolde","operatorName":"EQUANS","maxPowerKw":0,"isMegawatt":false,"status":"AVAILABLE","source":"ndw"}},{"type":"Feature","geometry":{"type":"Point","coordinates":[6.286772,52.672882]},"properties":{"type":"charge","layer":"passenger","locationId":"91434637","name":"Equans Groningen Drenthe Dorpsstraat 59 a","address":"Dorpsstraat 59 a","city":"de Wijk","operatorName":"EQUANS","maxPowerKw":0,"isMegawatt":false,"status":"AVAILABLE","source":"ndw"}},{"type":"Feature","geometry":{"type":"Point","coordinates":[6.24542,52.72471]},"properties":{"type":"charge","layer":"passenger","locationId":"91145231","name":"Equans Groningen Drenthe Havelterweg 39","address":"Havelterweg 39","city":"Ruinerwold","operatorName":"EQUANS","maxPowerKw":0,"isMegawatt":false,"status":"AVAILABLE","source":"ndw"}},{"type":"Feature","geometry":{"type":"Point","coordinates":[6.318351,52.698524]},"properties":{"type":"charge","layer":"passenger","locationId":"NLLOC005207","name":"NLD, Koekange, Sportlaan 19","address":"Sportlaan 19","city":"Koekange","operatorName":"Allego","maxPowerKw":0,"isMegawatt":false,"status":"AVAILABLE","source":"ndw"}},{"type":"Feature","geometry":{"type":"Point","coordinates":[6.435088,52.675916]},"properties":{"type":"charge","layer":"passenger","locationId":"91145167","name":"Equans Groningen Drenthe Haverstraat 13","address":"Haverstraat 13","city":"Zuidwolde","operatorName":"EQUANS","maxPowerKw":0,"isMegawatt":false,"status":"AVAILABLE","source":"ndw"}},{"type":"Feature","geometry":{"type":"Point","coordinates":[6.497447,52.667866]},"properties":{"type":"charge","layer":"passenger","locationId":"NLLOC025218","name":"NL, Jan Haarstraat 22, 7926 TC Kerkenveld","address":"Jan Haarstraat 22","city":"Kerkenveld","operatorName":"Allego","maxPowerKw":0,"isMegawatt":false,"status":"AVAILABLE","source":"ndw"}},{"type":"Feature","geometry":{"type":"Point","coordinates":[6.424675,52.670767]},"properties":{"type":"charge","layer":"passenger","locationId":"91155402","name":"Equans Groningen Drenthe Gaffel 24","address":"Gaffel 24","city":"Zuidwolde","operatorName":"EQUANS","maxPowerKw":0,"isMegawatt":false,"status":"AVAILABLE","source":"ndw"}},{"type":"Feature","geometry":{"type":"Point","coordinates":[6.28723,52.671816]},"properties":{"type":"charge","layer":"passenger","locationId":"NLLOC006725","name":"NL, Julianaweg 8, 7957BL, De Wijk","address":"Julianaweg 8","city":"De Wijk","operatorName":"Allego","maxPowerKw":0,"isMegawatt":false,"status":"AVAILABLE","source":"ndw"}},{"type":"Feature","geometry":{"type":"Point","coordinates":[6.24303,52.72414]},"properties":{"type":"charge","layer":"passenger","locationId":"91187650","name":"Equans Groningen Drenthe Kievitstraat 25","address":"Kievitstraat 25","city":"Ruinerwold","operatorName":"EQUANS","maxPowerKw":0,"isMegawatt":false,"status":"AVAILABLE","source":"ndw"}},{"type":"Feature","geometry":{"type":"Point","coordinates":[6.295685,52.676126]},"properties":{"type":"charge","layer":"passenger","locationId":"NLLOC012836","name":"NL, Hendrik Tillemaweg, 83, 7957DC, De Wijk","address":"Hendrik Tillemaweg 83","city":"De Wijk","operatorName":"Allego","maxPowerKw":0,"isMegawatt":false,"status":"AVAILABLE","source":"ndw"}},{"type":"Feature","geometry":{"type":"Point","coordinates":[6.286745,52.672659]},"properties":{"type":"charge","layer":"passenger","locationId":"NLLOC006634","name":"NL, Dorpsstraat 59a, 7957AS, De Wijk","address":"Dorpsstraat 59a","city":"De Wijk","operatorName":"Allego","maxPowerKw":0,"isMegawatt":false,"status":"UNAVAILABLE","source":"ndw"}},{"type":"Feature","geometry":{"type":"Point","coordinates":[6.289027,52.71367]},"properties":{"type":"charge","layer":"passenger","locationId":"91145233","name":"Equans Groningen Drenthe Berghuizen 10A","address":"Berghuizen 10A","city":"Ruinerwold","operatorName":"EQUANS","maxPowerKw":0,"isMegawatt":false,"status":"AVAILABLE","source":"ndw"}},{"type":"Feature","geometry":{"type":"Point","coordinates":[6.42011,52.67313]},"properties":{"type":"charge","layer":"passenger","locationId":"91145229","name":"Equans Groningen Drenthe Drostenstraat 24","address":"Drostenstraat 24","city":"Zuidwolde","operatorName":"EQUANS","maxPowerKw":0,"isMegawatt":false,"status":"AVAILABLE","source":"ndw"}},{"type":"Feature","geometry":{"type":"Point","coordinates":[6.412066,52.750835]},"properties":{"type":"charge","layer":"passenger","locationId":"670f747baafce1001c766ef2","name":"Woning 99 - links","address":"Gijsselterweg 30","city":"RUINEN","operatorName":"Lanova Laadpalen","maxPowerKw":11,"isMegawatt":false,"status":"AVAILABLE","source":"ndw"}},{"type":"Feature","geometry":{"type":"Point","coordinates":[6.427833,52.66339]},"properties":{"type":"charge","layer":"passenger","locationId":"91145252","name":"Equans Groningen Drenthe Turflaan 9","address":"Turflaan 9","city":"Zuidwolde","operatorName":"EQUANS","maxPowerKw":0,"isMegawatt":false,"status":"AVAILABLE","source":"ndw"}},{"type":"Feature","geometry":{"type":"Point","coordinates":[6.504974,52.669329]},"properties":{"type":"charge","layer":"passenger","locationId":"91145555","name":"Equans Groningen Drenthe Compagniestraat 19","address":"Compagniestraat 19","city":"Kerkenveld","operatorName":"EQUANS","maxPowerKw":0,"isMegawatt":false,"status":"AVAILABLE","source":"ndw"}},{"type":"Feature","geometry":{"type":"Point","coordinates":[6.289188,52.673631]},"properties":{"type":"charge","layer":"passenger","locationId":"91145334","name":"Equans Groningen Drenthe Willem Koopsweg 31","address":"Willem Koopsweg 31","city":"de Wijk","operatorName":"EQUANS","maxPowerKw":0,"isMegawatt":false,"status":"AVAILABLE","source":"ndw"}},{"type":"Feature","geometry":{"type":"Point","coordinates":[6.502744,52.667833]},"properties":{"type":"charge","layer":"passenger","locationId":"91145066","name":"Equans Groningen Drenthe Jan Haarstraat 45","address":"Jan Haarstraat 45","city":"Kerkenveld","operatorName":"EQUANS","maxPowerKw":0,"isMegawatt":false,"status":"AVAILABLE","source":"ndw"}},{"type":"Feature","geometry":{"type":"Point","coordinates":[6.35411,52.76453]},"properties":{"type":"charge","layer":"passenger","locationId":"91454419","name":"Equans Groningen Drenthe Bremkamp 2","address":"Bremkamp 2","city":"Ruinen","operatorName":"EQUANS","maxPowerKw":0,"isMegawatt":false,"status":"AVAILABLE","source":"ndw"}},{"type":"Feature","geometry":{"type":"Point","coordinates":[6.319113,52.700498]},"properties":{"type":"charge","layer":"passenger","locationId":"NLLOC005209","name":"NLD, Koekange, ,Dorpsstraat 41","address":"Dorpsstraat 41","city":"Koekange","operatorName":"Allego","maxPowerKw":0,"isMegawatt":false,"status":"AVAILABLE","source":"ndw"}},{"type":"Feature","geometry":{"type":"Point","coordinates":[6.42758,52.67536]},"properties":{"type":"charge","layer":"passenger","locationId":"91339474","name":"Equans Groningen Drenthe Wethouder Klunderstraat 30","address":"Wethouder Klunderstraat 30","city":"Zuidwolde","operatorName":"EQUANS","maxPowerKw":0,"isMegawatt":false,"status":"CHARGING","source":"ndw"}},{"type":"Feature","geometry":{"type":"Point","coordinates":[6.251908,52.723707]},"properties":{"type":"charge","layer":"passenger","locationId":"NLLOC005794","name":"NLD, Ruinerwold, Dijkhuizen 66a","address":"Dijkhuizen 66a","city":"Ruinerwold","operatorName":"Allego","maxPowerKw":0,"isMegawatt":false,"status":"AVAILABLE","source":"ndw"}},{"type":"Feature","geometry":{"type":"Point","coordinates":[6.42445,52.67306]},"properties":{"type":"charge","layer":"passenger","locationId":"91204018","name":"Equans Groningen Drenthe Reuvenkamp 40","address":"Reuvenkamp 40","city":"Zuidwolde","operatorName":"EQUANS","maxPowerKw":0,"isMegawatt":false,"status":"AVAILABLE","source":"ndw"}},{"type":"Feature","geometry":{"type":"Point","coordinates":[6.36931,52.682708]},"properties":{"type":"charge","layer":"freight","locationId":"f0dc5636-91f7-11e8-8d31-42010a840002","name":"Fastned Panjerd","address":"Panjerd A28","city":"Veeningen","operatorName":"Fastned","maxPowerKw":400,"isMegawatt":false,"status":"AVAILABLE","source":"ndw"}},{"type":"Feature","geometry":{"type":"Point","coordinates":[6.35893,52.679202]},"properties":{"type":"charge","layer":"freight","locationId":"31103","name":"Fastned Lageveen","address":"Lageveen A28","city":"Veeningen","operatorName":"Fastned","maxPowerKw":400,"isMegawatt":false,"status":"AVAILABLE","source":"ndw"}},{"type":"Feature","geometry":{"type":"MultiPolygon","coordinates":[[[[6.345803081901235,52.788418447076495],[6.348220446761441,52.78811459181051],[6.350463911242552,52.78859062242755],[6.351029808954295,52.787650289634385],[6.352081634751962,52.78784147428723],[6.353345264025059,52.78541068785284],[6.3494775983968355,52.78340530921496],[6.350079353938298,52.78282641161769],[6.351245290312057,52.78327119993405],[6.352283999485764,52.782387698129504],[6.353733927997844,52.78248927344405],[6.353755584759882,52.78204623997163],[6.355499331591328,52.779516139512275],[6.355994630729202,52.78033903406771],[6.358873521429451,52.78176658722538],[6.359167412358674,52.78281305289922],[6.360900143139378,52.78323339471574],[6.363330133696308,52.781969216311325],[6.367027155206702,52.7810828511272],[6.368054237355657,52.7813536978886],[6.369857077428444,52.7802660233823],[6.370676744346417,52.780769200119124],[6.372067603301189,52.78000218053694],[6.374561659884085,52.781532155307254],[6.373212686781801,52.782323023907836],[6.377916249446665,52.785203868705906],[6.386823617144687,52.77995638322646],[6.387366963099029,52.77903175078199],[6.387996322225247,52.779345336594105],[6.389824444822532,52.778959684782926],[6.391527848705162,52.77957400197931],[6.394041459686842,52.77744875006284],[6.400575701852975,52.78086894487995],[6.407305014413186,52.78553276374915],[6.410238399683632,52.78634569491265],[6.410293493463901,52.78710992299931],[6.412947562800241,52.78831844901727],[6.4163761276320335,52.7863876179906],[6.416653182682915,52.78172954830289],[6.4189227671793,52.781657069695626],[6.420440149376002,52.780914080098796],[6.421601430680472,52.78107839529501],[6.422601357232449,52.78248617011562],[6.423762334655753,52.78285410380317],[6.427530123562595,52.78250164616544],[6.428050493915397,52.783710267157154],[6.431997388715128,52.78456408427385],[6.4325661419952045,52.78646881294285],[6.430011366489059,52.78716568656614],[6.429573027535899,52.788705435227364],[6.433143599470398,52.79076820649213],[6.436655358288557,52.79146486230248],[6.436982123234293,52.79199706790035],[6.446920075219792,52.78588962185603],[6.4464904569088075,52.781542254095676],[6.446214090702033,52.77772822210601],[6.446152100239241,52.776095779338235],[6.442976485382819,52.774485824368526],[6.440598033703746,52.77291374206489],[6.436458564598503,52.770398834345364],[6.431523412721439,52.76862394744092],[6.413890528484057,52.76605982351704],[6.410139807140729,52.76488742361612],[6.416144296636615,52.7553175009574],[6.419402923488648,52.75599457618409],[6.426285496087128,52.751423024018976],[6.420522714858622,52.74822738445245],[6.422461416180025,52.7451394740714],[6.423192409124893,52.743000445118255],[6.415406598718258,52.74083373112668],[6.421325358984182,52.73141563895565],[6.406802379280176,52.72841044043184],[6.413246630324442,52.720560960811426],[6.414636840949637,52.720220766737356],[6.414195643070346,52.71940473946807],[6.414365027503498,52.71726158909148],[6.413202851734348,52.716209210607154],[6.409933613154436,52.71429574655698],[6.407176145572235,52.713824901944996],[6.405588777360517,52.71258327909535],[6.404726211707562,52.70912159245796],[6.40359885007126,52.705999233986304],[6.4047496581249455,52.704675719299935],[6.407167614926508,52.70679594768349],[6.416222143513548,52.70346418997633],[6.41966595390628,52.70165581154709],[6.426518746577685,52.704778873555455],[6.435646815847246,52.70609635747476],[6.4511418357112,52.70698191624773],[6.4498759316452325,52.70527513840426],[6.451311852475411,52.699406068268075],[6.448676832681408,52.69378793918707],[6.462814855130304,52.695203220320224],[6.463319764329775,52.693307942194096],[6.474699486759672,52.6942078171311],[6.485980794755623,52.69363296333683],[6.484852409847497,52.68424595287974],[6.492926428207994,52.683587145510046],[6.492574310144654,52.675971066753725],[6.499774465135505,52.67564309312352],[6.499552302081673,52.67355424817961],[6.502418455205732,52.673460221268826],[6.530556459626456,52.67247253186602],[6.530069774313886,52.66461560163065],[6.529381286033439,52.65450748745323],[6.529288655949429,52.654455183401424],[6.529284397098034,52.65445293154208],[6.513862008985586,52.646293976704456],[6.514014322272484,52.64527222558291],[6.517866311217734,52.61891821090726],[6.518247538124841,52.616468495940275],[6.518533247607551,52.61408107900799],[6.512027370921228,52.613649973213946],[6.511676118195568,52.614041149147305],[6.509307573583777,52.61479533078169],[6.5050289159840675,52.61686043432823],[6.490902905738499,52.61915603638093],[6.483895913368705,52.61907684552841],[6.48008550859929,52.61835252448305],[6.478016567172594,52.61863158072836],[6.472991331650652,52.622265815711536],[6.472369091815702,52.62457953102496],[6.4699655205946165,52.624985951581756],[6.467219121540056,52.624278663758815],[6.4640949810191595,52.62383839844155],[6.460707833646113,52.6169917057255],[6.4534772504139575,52.613955949976265],[6.443070093418235,52.6161873027444],[6.442218111763687,52.615720461792506],[6.438253692639174,52.6171491067149],[6.434934581052205,52.61928582598408],[6.433803279478374,52.62640950163466],[6.432992439342059,52.62776534024454],[6.431326360585114,52.62836985749235],[6.428176683896038,52.628188798997776],[6.42603685096054,52.626512852001824],[6.426886632161365,52.624638707164],[6.420397966338966,52.6223904074782],[6.41823236708968,52.61904601202925],[6.416150331981491,52.618667972983495],[6.412049250119369,52.61986881458615],[6.411164299900158,52.62082425632638],[6.409975585472812,52.62160390561799],[6.406217785067474,52.62041939316097],[6.405893897210175,52.618709110840015],[6.406761002109518,52.61794233570431],[6.403720369895577,52.61625450358639],[6.401248161011256,52.61627450760421],[6.396318138838115,52.61778025309995],[6.393845675380342,52.61723376188422],[6.391522300772903,52.61451969403041],[6.386778258185037,52.613620272653876],[6.384084271540422,52.61225042416026],[6.382048330424886,52.61564578479156],[6.380252752967234,52.61502170035594],[6.376510443946849,52.616924226932184],[6.377239424728945,52.620013761306254],[6.37361840370904,52.62332673396545],[6.3751838325141215,52.62602879933538],[6.374590305195044,52.62848710058095],[6.369515704115503,52.631901560836305],[6.3686197568299505,52.63354195986342],[6.369051646792787,52.63563968902902],[6.366408042668857,52.63745375746283],[6.363907191652392,52.63837642864289],[6.364102441429439,52.64314209220427],[6.359440889047963,52.64551909784147],[6.355987677641728,52.645894623770836],[6.34359644477811,52.651158271386635],[6.3417197514890375,52.65368607602739],[6.334003046198477,52.65469935873284],[6.331200930418192,52.65716164480173],[6.327797879739491,52.65869326563014],[6.326340342882951,52.65895868865989],[6.32588380861558,52.65970929526082],[6.327224766877871,52.66044733461877],[6.325871511332462,52.66115506244768],[6.32590581023929,52.66291616442114],[6.327620523488375,52.66371820319696],[6.328423009057219,52.66463447607301],[6.328516984307185,52.66537864539854],[6.3292902908419775,52.66539899684968],[6.328004618395813,52.66613219826031],[6.328711635971038,52.666739073849406],[6.326938342534683,52.66920749806724],[6.322529504336585,52.670438378749914],[6.319587361982133,52.67039854090734],[6.318960774715419,52.669721804784395],[6.316740418054757,52.66989585656925],[6.316816498104829,52.66949405032935],[6.314957277321159,52.669425143123014],[6.314821972635132,52.6687513629556],[6.313868435561242,52.66866743697701],[6.314103416852582,52.66805873704989],[6.312080685157801,52.66805603059693],[6.311659918881331,52.66733928445924],[6.309670599759342,52.66675350306313],[6.305826078166,52.6662398260701],[6.3026220189756925,52.66734681725003],[6.301889639748327,52.66699744837472],[6.302288326399888,52.666427304669625],[6.299676443735332,52.66649752281693],[6.299689130966087,52.665831307829684],[6.297563259780016,52.666370023150456],[6.295195895418558,52.66357809715316],[6.29554804507418,52.662322791357056],[6.291947145340586,52.66243789885028],[6.28864491750265,52.66343488569809],[6.288269964824482,52.66388798407627],[6.2874872282687155,52.6634531948256],[6.28722648404376,52.66418124209353],[6.285052824702827,52.66539495720716],[6.285491040187625,52.66699239929837],[6.284508725499098,52.6671636113273],[6.282705229828458,52.6682199150802],[6.279056737563181,52.66905188356028],[6.277905698686054,52.66853998502446],[6.277350749389392,52.66893113320711],[6.276254284981658,52.667313736820496],[6.274513659426968,52.66689858651234],[6.273339264819431,52.664910777391725],[6.270067486656434,52.664794735757994],[6.265574621405161,52.66726435033983],[6.265501591929854,52.667988381211586],[6.266325689585404,52.66825849299185],[6.266457072653446,52.670996451677134],[6.268576346513974,52.67171542182501],[6.269045989577927,52.67357637019073],[6.272489384922131,52.6731988222847],[6.272668831266593,52.67374304292569],[6.269815126504716,52.68222864034614],[6.275161545428565,52.68344766733343],[6.283524542768579,52.682492550532054],[6.283842686754791,52.68419859544308],[6.281741007030428,52.68447416460433],[6.275423679190437,52.68774364112094],[6.275894541758256,52.6903102273345],[6.285012307107042,52.689705802532906],[6.286700482333394,52.699069921773315],[6.275808005752928,52.695464082083035],[6.276326059112103,52.69800484833151],[6.279635228394681,52.69961248187622],[6.277951800832929,52.70105176045504],[6.2766997529822435,52.70058676109672],[6.277214189659312,52.703360420947796],[6.273803224701202,52.70328219932306],[6.274255545736901,52.706183714058035],[6.268628403761776,52.70554435601845],[6.253120256795322,52.70528221392863],[6.248976020713979,52.708221622082114],[6.2425564767418456,52.70681400287209],[6.23792849023592,52.70577124534471],[6.233328691515698,52.70665974606298],[6.224961743396108,52.703230905043036],[6.216904244006529,52.703158430766806],[6.2166345824443,52.70959507583664],[6.216523401380826,52.712707754840395],[6.216320449342889,52.71860467739908],[6.217624123050965,52.72130030938227],[6.234576756447107,52.740601251102206],[6.2314392683305115,52.74170906195746],[6.236638430249798,52.74390367223542],[6.241555448248981,52.75065336056587],[6.247412182741506,52.754136122470435],[6.252027843721221,52.75831091299125],[6.254671200131735,52.757597426004985],[6.259614523123597,52.75795828660285],[6.26174736402326,52.75760480360617],[6.268555953095246,52.75840624945747],[6.281479720940075,52.76292212404104],[6.297492267792962,52.766090349080415],[6.299049087803738,52.766837001435796],[6.298509918823302,52.76794209642113],[6.299181099016884,52.768594254758156],[6.29303717274864,52.778472059677284],[6.295624854836879,52.780787018561114],[6.2970546851046825,52.78092871014139],[6.298380466708023,52.78201608365705],[6.297490878013542,52.7825601011078],[6.300567882639798,52.78585919376561],[6.299530578529721,52.787065266336185],[6.300784111202659,52.78730450866433],[6.300541801373778,52.787728089917124],[6.302184258050611,52.78849615310203],[6.302609184286662,52.789523908925],[6.301207294994101,52.79097381380289],[6.305299199261432,52.79155077575474],[6.306924592444158,52.79387120060257],[6.309400884954741,52.79532180041533],[6.320847327545277,52.79538873557103],[6.340680676864265,52.79897809618672],[6.345919036044802,52.79894722949918],[6.346244485864814,52.79894545872372],[6.35365802887211,52.79891191251614],[6.354596352187953,52.79519874935365],[6.352479443849708,52.7945351280739],[6.3504392150822735,52.791839734181096],[6.342956629893647,52.78969297035024],[6.345803081901235,52.788418447076495]]]]},"properties":{"type":"boundary","gemeente":"De Wolden","code":"GM1690"}}]}