{"type":"FeatureCollection","metadata":{"gemeente":"Den Helder","slug":"den-helder","code":"GM0400","generated_at":"2026-06-02T13:19:22.438Z","total_passenger":147,"total_freight":0,"bounds":[4.709041145079972,52.87862685711188,4.809987734693538,52.96609738051193],"operators":["Allego","DAEN Mobility","E-Flux by Road","Eneco","Lidl","NXT Charging Solutions","Pluq","TotalEnergies","Ubitricity","Vattenfall InCharge"]},"features":[{"type":"Feature","geometry":{"type":"Point","coordinates":[4.744031,52.936396]},"properties":{"type":"charge","layer":"passenger","locationId":"f8c9d188-aed3-11f0-8e02-42010aa400b8","name":"TNLP006616","address":"Fregatstraat 180","city":"Den Helder","operatorName":"TotalEnergies","maxPowerKw":17,"isMegawatt":false,"status":"AVAILABLE","source":"ndw"}},{"type":"Feature","geometry":{"type":"Point","coordinates":[4.773569,52.935087]},"properties":{"type":"charge","layer":"passenger","locationId":"d089dbfa-d84b-11ef-a1ba-42010aa400b8","name":"Shell Recharge NL Heiligharn 398, Den Helder","address":"Heiligharn 398","city":"Den Helder","operatorName":"Ubitricity","maxPowerKw":22,"isMegawatt":false,"status":"AVAILABLE","source":"ndw"}},{"type":"Feature","geometry":{"type":"Point","coordinates":[4.7698,52.94658]},"properties":{"type":"charge","layer":"passenger","locationId":"49dcac2e-f37f-11ee-a793-42010aa400b8","name":"Eneco eMobility Nijverheidsweg 2C Den Helder","address":"Nijverheidsweg 2C","city":"Den Helder","operatorName":"Eneco","maxPowerKw":22,"isMegawatt":false,"status":"AVAILABLE","source":"ndw"}},{"type":"Feature","geometry":{"type":"Point","coordinates":[4.771535,52.930686]},"properties":{"type":"charge","layer":"passenger","locationId":"056c42ea-e3b8-11eb-841d-42010a840060","name":"TNLP006391","address":"Pieter Straatlaan 74","city":"Den Helder","operatorName":"TotalEnergies","maxPowerKw":17,"isMegawatt":false,"status":"AVAILABLE","source":"ndw"}},{"type":"Feature","geometry":{"type":"Point","coordinates":[4.741783,52.931657]},"properties":{"type":"charge","layer":"passenger","locationId":"88b9cea3-f54d-429e-b1a7-706f61d51df9","name":"TNLP015398","address":"Jolstraat 13","city":"Den Helder","operatorName":"TotalEnergies","maxPowerKw":17,"isMegawatt":false,"status":"AVAILABLE","source":"ndw"}},{"type":"Feature","geometry":{"type":"Point","coordinates":[4.752716,52.947415]},"properties":{"type":"charge","layer":"passenger","locationId":"db0acada-3697-11f0-8c1e-42010aa400b8","name":"Shell Recharge NL Texelstroomlaan 1, Den Helder","address":"Texelstroomlaan 1","city":"Den Helder","operatorName":"Ubitricity","maxPowerKw":22,"isMegawatt":false,"status":"AVAILABLE","source":"ndw"}},{"type":"Feature","geometry":{"type":"Point","coordinates":[4.739592,52.889794]},"properties":{"type":"charge","layer":"passenger","locationId":"fda6b776-1b16-11f0-8791-42010aa400b8","name":"Shell Recharge NL Kruiszwin 3410, Julianadorp","address":"Kruiszwin 3410","city":"Julianadorp","operatorName":"Ubitricity","maxPowerKw":22,"isMegawatt":false,"status":"AVAILABLE","source":"ndw"}},{"type":"Feature","geometry":{"type":"Point","coordinates":[4.767895,52.954275]},"properties":{"type":"charge","layer":"passenger","locationId":"161a246c-7278-11ee-87fb-42010aa40fc0","name":"TNLP008298","address":"Van Hogendorpstraat 40","city":"Den Helder","operatorName":"TotalEnergies","maxPowerKw":14,"isMegawatt":false,"status":"AVAILABLE","source":"ndw"}},{"type":"Feature","geometry":{"type":"Point","coordinates":[4.766802,52.89612]},"properties":{"type":"charge","layer":"passenger","locationId":"692b34bf-051e-49c3-8bc7-267a8f0f7c57","name":"Lidl JULIANADORP","address":"Schoolweg","city":"Julianadorp","operatorName":"Lidl","maxPowerKw":22,"isMegawatt":false,"status":"AVAILABLE","source":"ndw"}},{"type":"Feature","geometry":{"type":"Point","coordinates":[4.79316,52.91581]},"properties":{"type":"charge","layer":"passenger","locationId":"5e9306b5-80af-40d1-8966-cd9c6b3db44a","name":"Verkeerstorenweg","address":"Verkeerstorenweg 2","city":"Den Helder","operatorName":"Vattenfall InCharge","maxPowerKw":50,"isMegawatt":false,"status":"AVAILABLE","source":"ndw"}},{"type":"Feature","geometry":{"type":"Point","coordinates":[4.745504,52.932105]},"properties":{"type":"charge","layer":"passenger","locationId":"7f87c388-4f3c-11e8-8292-42010a840002","name":"NLD, Den Helder, Het koggeschip 112","address":"Het koggeschip 112","city":"Den Helder","operatorName":"Allego","maxPowerKw":0,"isMegawatt":false,"status":"AVAILABLE","source":"ndw"}},{"type":"Feature","geometry":{"type":"Point","coordinates":[4.735715,52.887266]},"properties":{"type":"charge","layer":"passenger","locationId":"38d3ccc6-6dd1-11e8-9255-42010a840002","name":"NLD, Julianadorp, Wierbalg 1983","address":"Wierbalg 1983","city":"Julianadorp","operatorName":"Allego","maxPowerKw":0,"isMegawatt":false,"status":"AVAILABLE","source":"ndw"}},{"type":"Feature","geometry":{"type":"Point","coordinates":[4.765306,52.960011]},"properties":{"type":"charge","layer":"passenger","locationId":"0c76d960-8ca4-47b7-ac07-ac8cb72f8984","name":"TNLP034015","address":"Californiestraat 47","city":"Den Helder","operatorName":"TotalEnergies","maxPowerKw":14,"isMegawatt":false,"status":"CHARGING","source":"ndw"}},{"type":"Feature","geometry":{"type":"Point","coordinates":[4.770894,52.953851]},"properties":{"type":"charge","layer":"passenger","locationId":"a96741fe-d2f8-11f0-a4d9-42010aa400b8","name":"TNLP007320","address":"Jan in 't Veltstraat 120","city":"Den Helder","operatorName":"TotalEnergies","maxPowerKw":17,"isMegawatt":false,"status":"AVAILABLE","source":"ndw"}},{"type":"Feature","geometry":{"type":"Point","coordinates":[4.745255,52.938137]},"properties":{"type":"charge","layer":"passenger","locationId":"b799560e-9097-11ee-831f-42010aa40fc0","name":"TNLP009827","address":"Korvethof 40","city":"Den Helder","operatorName":"TotalEnergies","maxPowerKw":17,"isMegawatt":false,"status":"AVAILABLE","source":"ndw"}},{"type":"Feature","geometry":{"type":"Point","coordinates":[4.725739,52.952984]},"properties":{"type":"charge","layer":"passenger","locationId":"5b582f34-d0d3-11e8-9a0e-42010a840002","name":"NLD, Den Helder, Anton Pieckhof 12","address":"Anton Pieckhof 12","city":"Den Helder","operatorName":"Allego","maxPowerKw":0,"isMegawatt":false,"status":"AVAILABLE","source":"ndw"}},{"type":"Feature","geometry":{"type":"Point","coordinates":[4.779249,52.934146]},"properties":{"type":"charge","layer":"passenger","locationId":"aa631f96-70f5-11e8-8549-42010a840002","name":"NLD, Den Helder, Gerbrands Scheltesstraat 77","address":"Gerbrands Scheltesstraat 77","city":"Den Helder","operatorName":"Allego","maxPowerKw":0,"isMegawatt":false,"status":"AVAILABLE","source":"ndw"}},{"type":"Feature","geometry":{"type":"Point","coordinates":[4.740873,52.9416098]},"properties":{"type":"charge","layer":"passenger","locationId":"915","name":"Shell Recharge NL Marsdiepstraat 477","address":"Marsdiepstraat 477","city":"Den Helder","operatorName":"Ubitricity","maxPowerKw":22,"isMegawatt":false,"status":"AVAILABLE","source":"ndw"}},{"type":"Feature","geometry":{"type":"Point","coordinates":[4.742147,52.889436]},"properties":{"type":"charge","layer":"passenger","locationId":"cbc9f198-d67f-11ec-af83-42010aa4007f","name":"TNLP007358","address":"Kruiszwin 2130","city":"Julianadorp","operatorName":"TotalEnergies","maxPowerKw":17,"isMegawatt":false,"status":"AVAILABLE","source":"ndw"}},{"type":"Feature","geometry":{"type":"Point","coordinates":[4.766802,52.89612]},"properties":{"type":"charge","layer":"passenger","locationId":"55f55f72-25a0-11ee-b252-42010aa40fc0","name":"Lidl JULIANADORP","address":"Schoolweg","city":"Julianadorp","operatorName":"Lidl","maxPowerKw":22,"isMegawatt":false,"status":"AVAILABLE","source":"ndw"}},{"type":"Feature","geometry":{"type":"Point","coordinates":[4.772846,52.94392]},"properties":{"type":"charge","layer":"passenger","locationId":"91896ba6-b382-11f0-af1a-42010aa400b8","name":"TNLP006497","address":"Industrieweg 6","city":"Den Helder","operatorName":"TotalEnergies","maxPowerKw":17,"isMegawatt":false,"status":"AVAILABLE","source":"ndw"}},{"type":"Feature","geometry":{"type":"Point","coordinates":[4.768603,52.940288]},"properties":{"type":"charge","layer":"passenger","locationId":"05d6e0e8-aea6-11ef-92db-42010aa400b8","name":"Shell Recharge NL Heer Willem van Egmondstraat 70, Den Helder","address":"Heer Willem van Egmondstraat 70","city":"Den Helder","operatorName":"Ubitricity","maxPowerKw":22,"isMegawatt":false,"status":"AVAILABLE","source":"ndw"}},{"type":"Feature","geometry":{"type":"Point","coordinates":[4.733334,52.938824]},"properties":{"type":"charge","layer":"passenger","locationId":"9cd0bcdc-d2c9-11ec-bceb-42010aa40004","name":"TNLP007337","address":"Sparrenstraat 38","city":"Den Helder","operatorName":"TotalEnergies","maxPowerKw":17,"isMegawatt":false,"status":"AVAILABLE","source":"ndw"}},{"type":"Feature","geometry":{"type":"Point","coordinates":[4.756932,52.954525]},"properties":{"type":"charge","layer":"passenger","locationId":"b4bcf01c-2dc2-11ef-83e2-42010aa400b8","name":"TNLP008897","address":"Pasteurstraat 101","city":"Den Helder","operatorName":"TotalEnergies","maxPowerKw":14,"isMegawatt":false,"status":"CHARGING","source":"ndw"}},{"type":"Feature","geometry":{"type":"Point","coordinates":[4.761786,52.956759]},"properties":{"type":"charge","layer":"passenger","locationId":"fea3b2a3-75cd-438b-81dd-89a24ab62b61","name":"TNLP006083","address":"Gorterstraat 7","city":"Den Helder","operatorName":"TotalEnergies","maxPowerKw":17,"isMegawatt":false,"status":"AVAILABLE","source":"ndw"}},{"type":"Feature","geometry":{"type":"Point","coordinates":[4.746718,52.886996]},"properties":{"type":"charge","layer":"passenger","locationId":"NLLOC004915","name":"NLD, Doorzwin 4327 1788NX Julianadorp","address":"Doorzwin 4327","city":"Julianadorp","operatorName":"Allego","maxPowerKw":0,"isMegawatt":false,"status":"AVAILABLE","source":"ndw"}},{"type":"Feature","geometry":{"type":"Point","coordinates":[4.757273,52.894746]},"properties":{"type":"charge","layer":"passenger","locationId":"625eda16-202c-11ec-8f7d-42010a840017","name":"TNLP006566","address":"Prinses Arianehof 9","city":"Julianadorp","operatorName":"TotalEnergies","maxPowerKw":17,"isMegawatt":false,"status":"AVAILABLE","source":"ndw"}},{"type":"Feature","geometry":{"type":"Point","coordinates":[4.746255,52.960401]},"properties":{"type":"charge","layer":"passenger","locationId":"c8a5fa44-b451-11f0-9f23-42010aa400b8","name":"TNLP007861","address":"Jacob van Heemskerckstraat 36","city":"Den Helder","operatorName":"TotalEnergies","maxPowerKw":17,"isMegawatt":false,"status":"AVAILABLE","source":"ndw"}},{"type":"Feature","geometry":{"type":"Point","coordinates":[4.748412,52.942539]},"properties":{"type":"charge","layer":"passenger","locationId":"NLLOC007996","name":"NL, Reggestraat 1 1784XM Den Helder","address":"Reggestraat 1","city":"Den Helder","operatorName":"Allego","maxPowerKw":0,"isMegawatt":false,"status":"AVAILABLE","source":"ndw"}},{"type":"Feature","geometry":{"type":"Point","coordinates":[4.740873,52.94161]},"properties":{"type":"charge","layer":"passenger","locationId":"aad45be6-ad13-11ef-a11d-42010aa400b8","name":"Shell Recharge NL Marsdiepstraat 477, Den Helder","address":"Marsdiepstraat 477","city":"Den Helder","operatorName":"Ubitricity","maxPowerKw":22,"isMegawatt":false,"status":"AVAILABLE","source":"ndw"}},{"type":"Feature","geometry":{"type":"Point","coordinates":[4.746255,52.960401]},"properties":{"type":"charge","layer":"passenger","locationId":"d1b1b2c8-cbde-11f0-a8cc-42010aa400b8","name":"TNLP007861","address":"Jacob van Heemskerckstraat 36","city":"Den Helder","operatorName":"TotalEnergies","maxPowerKw":17,"isMegawatt":false,"status":"AVAILABLE","source":"ndw"}},{"type":"Feature","geometry":{"type":"Point","coordinates":[4.749188,52.889065]},"properties":{"type":"charge","layer":"passenger","locationId":"f90142d0-862f-11ef-a625-42010aa400b8","name":"TNLP007354","address":"Doorzwin 2609","city":"Julianadorp","operatorName":"TotalEnergies","maxPowerKw":17,"isMegawatt":false,"status":"AVAILABLE","source":"ndw"}},{"type":"Feature","geometry":{"type":"Point","coordinates":[4.741731,52.89121]},"properties":{"type":"charge","layer":"passenger","locationId":"d8e2216a-b129-11f0-85ba-42010aa400b8","name":"TNLP006135","address":"Kruiszwin 1166","city":"Julianadorp","operatorName":"TotalEnergies","maxPowerKw":17,"isMegawatt":false,"status":"AVAILABLE","source":"ndw"}},{"type":"Feature","geometry":{"type":"Point","coordinates":[4.754226,52.961326]},"properties":{"type":"charge","layer":"passenger","locationId":"7f8ee960-4f3c-11e8-8409-42010a840002","name":"NLD, Den Helder, Van Speykstraat 4","address":"Van Speykstraat 4","city":"Den Helder","operatorName":"Allego","maxPowerKw":0,"isMegawatt":false,"status":"AVAILABLE","source":"ndw"}},{"type":"Feature","geometry":{"type":"Point","coordinates":[4.765067,52.951862]},"properties":{"type":"charge","layer":"passenger","locationId":"7fa3feea-4f3c-11e8-9fb2-42010a840002","name":"NLD, Den Helder, Reigerstraat 45","address":"Reigerstraat 45","city":"Den Helder","operatorName":"Allego","maxPowerKw":0,"isMegawatt":false,"status":"AVAILABLE","source":"ndw"}},{"type":"Feature","geometry":{"type":"Point","coordinates":[4.76365,52.95235]},"properties":{"type":"charge","layer":"passenger","locationId":"6e808b96-fc36-11ec-9430-42010aa40fc1","name":"Eneco eMobility Sperwerstraat 4 Den Helder","address":"Sperwerstraat 4","city":"Den Helder","operatorName":"Eneco","maxPowerKw":22,"isMegawatt":false,"status":"AVAILABLE","source":"ndw"}},{"type":"Feature","geometry":{"type":"Point","coordinates":[4.7395919,52.8897938]},"properties":{"type":"charge","layer":"passenger","locationId":"1091","name":"Shell Recharge NL Kruiszwin 3410","address":"Kruiszwin 3410","city":"Julianadorp","operatorName":"Ubitricity","maxPowerKw":22,"isMegawatt":false,"status":"AVAILABLE","source":"ndw"}},{"type":"Feature","geometry":{"type":"Point","coordinates":[4.743046,52.890733]},"properties":{"type":"charge","layer":"passenger","locationId":"6825A176-7703-4236-AD18-E7F5B169C083","name":"TNLP007914","address":"Kruiszwin 1102","city":"Julianadorp","operatorName":"TotalEnergies","maxPowerKw":17,"isMegawatt":false,"status":"AVAILABLE","source":"ndw"}},{"type":"Feature","geometry":{"type":"Point","coordinates":[4.741731,52.89121]},"properties":{"type":"charge","layer":"passenger","locationId":"4d3235bf-8d6a-4a3a-ab31-6737a156f4c0","name":"TNLP006135","address":"Kruiszwin 1166","city":"Julianadorp","operatorName":"TotalEnergies","maxPowerKw":17,"isMegawatt":false,"status":"AVAILABLE","source":"ndw"}},{"type":"Feature","geometry":{"type":"Point","coordinates":[4.766673,52.956672]},"properties":{"type":"charge","layer":"passenger","locationId":"7d586cc8-2102-11ee-a960-42010aa40fc0","name":"TNLP009223","address":"Steengracht 7","city":"Den Helder","operatorName":"TotalEnergies","maxPowerKw":17,"isMegawatt":false,"status":"AVAILABLE","source":"ndw"}},{"type":"Feature","geometry":{"type":"Point","coordinates":[4.76365,52.95235]},"properties":{"type":"charge","layer":"passenger","locationId":"47DF93D8-761E-4E50-9D86-EFAB0FF3A0CF","name":"Eneco eMobility Sperwerstraat 4 Den Helder","address":"Sperwerstraat 4","city":"Den Helder","operatorName":"Eneco","maxPowerKw":22,"isMegawatt":false,"status":"AVAILABLE","source":"ndw"}},{"type":"Feature","geometry":{"type":"Point","coordinates":[4.745842,52.946542]},"properties":{"type":"charge","layer":"passenger","locationId":"befb74a0-799a-11e8-8853-42010a840002","name":"NLD, Den Helder, Rijnstraat 63","address":"Rijnstraat 63","city":"Den Helder","operatorName":"Allego","maxPowerKw":0,"isMegawatt":false,"status":"AVAILABLE","source":"ndw"}},{"type":"Feature","geometry":{"type":"Point","coordinates":[4.745842,52.946542]},"properties":{"type":"charge","layer":"passenger","locationId":"NLLOC002553","name":"NLD, Den Helder, Rijnstraat 63","address":"Rijnstraat 63","city":"Den Helder","operatorName":"Allego","maxPowerKw":0,"isMegawatt":false,"status":"AVAILABLE","source":"ndw"}},{"type":"Feature","geometry":{"type":"Point","coordinates":[4.745223,52.939431]},"properties":{"type":"charge","layer":"passenger","locationId":"NLLOC002701","name":"NLD, Den Helder, Geulstraat 7","address":"Geulstraat 7","city":"Den Helder","operatorName":"Allego","maxPowerKw":0,"isMegawatt":false,"status":"AVAILABLE","source":"ndw"}},{"type":"Feature","geometry":{"type":"Point","coordinates":[4.732384,52.9402]},"properties":{"type":"charge","layer":"passenger","locationId":"NLLOC002700","name":"NLD, Den Helder, Berkenlaan 23","address":"Berkenlaan 23","city":"Den Helder","operatorName":"Allego","maxPowerKw":0,"isMegawatt":false,"status":"AVAILABLE","source":"ndw"}},{"type":"Feature","geometry":{"type":"Point","coordinates":[4.743365,52.95829]},"properties":{"type":"charge","layer":"passenger","locationId":"6674097844b2fd001ce46ab4","name":"Noord West Ziekenhuisgroep Den Helder","address":"Huisduinerweg 3","city":"Den Helder","operatorName":"Pluq","maxPowerKw":22,"isMegawatt":false,"status":"AVAILABLE","source":"ndw"}},{"type":"Feature","geometry":{"type":"Point","coordinates":[4.736551,52.943523]},"properties":{"type":"charge","layer":"passenger","locationId":"807fa148-4f3c-11e8-bddb-42010a840002","name":"NLD, Den Helder, Wingerdstraat 3","address":"Wingerdstraat 3","city":"Den Helder","operatorName":"Allego","maxPowerKw":0,"isMegawatt":false,"status":"AVAILABLE","source":"ndw"}},{"type":"Feature","geometry":{"type":"Point","coordinates":[4.779398,52.932148]},"properties":{"type":"charge","layer":"passenger","locationId":"8520c1f0-4f3c-11e8-8571-42010a840002","name":"NLD, Den Helder, Hendrik Broertjesstraat 49","address":"Hendrik Broertjesstraat 49","city":"Den Helder","operatorName":"Allego","maxPowerKw":0,"isMegawatt":false,"status":"AVAILABLE","source":"ndw"}},{"type":"Feature","geometry":{"type":"Point","coordinates":[4.779398,52.932148]},"properties":{"type":"charge","layer":"passenger","locationId":"NLLOC001226","name":"NLD, Den Helder, Hendrik Broertjesstraat 49","address":"Hendrik Broertjesstraat 49","city":"Den Helder","operatorName":"Allego","maxPowerKw":0,"isMegawatt":false,"status":"AVAILABLE","source":"ndw"}},{"type":"Feature","geometry":{"type":"Point","coordinates":[4.761433,52.952058]},"properties":{"type":"charge","layer":"passenger","locationId":"01e88035-1786-4724-9cde-5ca7ad2e515a","name":"TNLP006312","address":"Brakkeveldweg 76","city":"Den Helder","operatorName":"TotalEnergies","maxPowerKw":17,"isMegawatt":false,"status":"AVAILABLE","source":"ndw"}},{"type":"Feature","geometry":{"type":"Point","coordinates":[4.770395,52.956559]},"properties":{"type":"charge","layer":"passenger","locationId":"7e58bf5c-d19c-11e8-8137-42010a840002","name":"NLD, Den Helder, Vismarkt 6","address":"Vismarkt 6","city":"Den Helder","operatorName":"Allego","maxPowerKw":0,"isMegawatt":false,"status":"AVAILABLE","source":"ndw"}},{"type":"Feature","geometry":{"type":"Point","coordinates":[4.752805,52.955136]},"properties":{"type":"charge","layer":"passenger","locationId":"f5ef2c3c-4f3c-11e8-9cc6-42010a840002","name":"NLD, Ceramstraat 62, 1782 CD, Den Helder","address":"Ceramstraat 62","city":"Den-Helder","operatorName":"Allego","maxPowerKw":0,"isMegawatt":false,"status":"AVAILABLE","source":"ndw"}},{"type":"Feature","geometry":{"type":"Point","coordinates":[4.754226,52.961326]},"properties":{"type":"charge","layer":"passenger","locationId":"NLLOC001150","name":"NLD, Den Helder, Van Speykstraat 4","address":"Van Speykstraat 4","city":"Den Helder","operatorName":"Allego","maxPowerKw":0,"isMegawatt":false,"status":"AVAILABLE","source":"ndw"}},{"type":"Feature","geometry":{"type":"Point","coordinates":[4.719267,52.907891]},"properties":{"type":"charge","layer":"passenger","locationId":"67f385816d404e0faa2d75e6","name":"Residence Juliana","address":"residence juliana 2","city":"julianadorp","operatorName":"E-Flux by Road","maxPowerKw":11,"isMegawatt":false,"status":"AVAILABLE","source":"ndw"}},{"type":"Feature","geometry":{"type":"Point","coordinates":[4.749325,52.957213]},"properties":{"type":"charge","layer":"passenger","locationId":"8527ea70-4f3c-11e8-ba5f-42010a840002","name":"NLD, Den Helder, Celebesstraat 24","address":"Celebesstraat 24","city":"Den Helder","operatorName":"Allego","maxPowerKw":0,"isMegawatt":false,"status":"AVAILABLE","source":"ndw"}},{"type":"Feature","geometry":{"type":"Point","coordinates":[4.748412,52.942539]},"properties":{"type":"charge","layer":"passenger","locationId":"e3662084-13ed-11eb-8954-42010a840033","name":"NL, Reggestraat 1 1784XM Den Helder","address":"Reggestraat 1","city":"Den Helder","operatorName":"Allego","maxPowerKw":0,"isMegawatt":false,"status":"AVAILABLE","source":"ndw"}},{"type":"Feature","geometry":{"type":"Point","coordinates":[4.71802,52.899423]},"properties":{"type":"charge","layer":"passenger","locationId":"633a96d630f6ee5231591d43","name":"Strandcamping Oase","address":"Zanddijk  75","city":"Julianadorp","operatorName":"E-Flux by Road","maxPowerKw":22,"isMegawatt":false,"status":"AVAILABLE","source":"ndw"}},{"type":"Feature","geometry":{"type":"Point","coordinates":[4.765021,52.95793]},"properties":{"type":"charge","layer":"passenger","locationId":"85cd2978-f15a-11ea-a7fb-42010a840003","name":"Breewaterstraat 64 1781GV Den Helder","address":"Breewaterstraat 64","city":"Den Helder","operatorName":"Allego","maxPowerKw":0,"isMegawatt":false,"status":"AVAILABLE","source":"ndw"}},{"type":"Feature","geometry":{"type":"Point","coordinates":[4.752417,52.959864]},"properties":{"type":"charge","layer":"passenger","locationId":"a13f12a4-2102-11e9-a8f3-42010a840003","name":"NLD, Den Helder, Prins Willem-Alexandersingel 67","address":"Prins Willem-Alexandersingel 67","city":"Den Helder","operatorName":"Allego","maxPowerKw":0,"isMegawatt":false,"status":"AVAILABLE","source":"ndw"}},{"type":"Feature","geometry":{"type":"Point","coordinates":[4.756409,52.961615]},"properties":{"type":"charge","layer":"passenger","locationId":"44ac2821-e8a3-4474-aee6-fbea81c627dd","name":"TNLP015172","address":"van Galenstraat 21","city":"Den Helder","operatorName":"TotalEnergies","maxPowerKw":17,"isMegawatt":false,"status":"AVAILABLE","source":"ndw"}},{"type":"Feature","geometry":{"type":"Point","coordinates":[4.7735694,52.9350874]},"properties":{"type":"charge","layer":"passenger","locationId":"1029","name":"Shell Recharge NL Heiligharn 398","address":"Heiligharn 398","city":"Den Helder","operatorName":"Ubitricity","maxPowerKw":22,"isMegawatt":false,"status":"AVAILABLE","source":"ndw"}},{"type":"Feature","geometry":{"type":"Point","coordinates":[4.771536,52.93552]},"properties":{"type":"charge","layer":"passenger","locationId":"7fdd40a6-4f3c-11e8-a7c8-42010a840002","name":"NLD, Den Helder, Vrede en Vrijheid 18","address":"Vrede en Vrijheid 18","city":"Den Helder","operatorName":"Allego","maxPowerKw":0,"isMegawatt":false,"status":"AVAILABLE","source":"ndw"}},{"type":"Feature","geometry":{"type":"Point","coordinates":[4.732384,52.9402]},"properties":{"type":"charge","layer":"passenger","locationId":"bbdf5b44-afd5-11e8-a5b0-42010a840002","name":"NLD, Den Helder, Berkenlaan 23","address":"Berkenlaan 23","city":"Den Helder","operatorName":"Allego","maxPowerKw":0,"isMegawatt":false,"status":"AVAILABLE","source":"ndw"}},{"type":"Feature","geometry":{"type":"Point","coordinates":[4.771535,52.930686]},"properties":{"type":"charge","layer":"passenger","locationId":"5ec853e8-b5e0-11f0-9dff-42010aa400b8","name":"TNLP006391","address":"Pieter Straatlaan 74","city":"Den Helder","operatorName":"TotalEnergies","maxPowerKw":17,"isMegawatt":false,"status":"AVAILABLE","source":"ndw"}},{"type":"Feature","geometry":{"type":"Point","coordinates":[4.750545,52.958404]},"properties":{"type":"charge","layer":"passenger","locationId":"bb3dc49c-9098-11ee-bf9d-42010aa40fc0","name":"TNLP009825","address":"Lombokstraat 19","city":"Den Helder","operatorName":"TotalEnergies","maxPowerKw":17,"isMegawatt":false,"status":"AVAILABLE","source":"ndw"}},{"type":"Feature","geometry":{"type":"Point","coordinates":[4.77464,52.956928]},"properties":{"type":"charge","layer":"passenger","locationId":"b0b042aa-4f3c-11e8-85ac-42010a840002","name":"NLD, Den Helder, Ankerpark 6","address":"Ankerpark 6","city":"Den Helder","operatorName":"Allego","maxPowerKw":0,"isMegawatt":false,"status":"AVAILABLE","source":"ndw"}},{"type":"Feature","geometry":{"type":"Point","coordinates":[4.755209,52.884236]},"properties":{"type":"charge","layer":"passenger","locationId":"da8b5632-f223-11ea-9b5a-42010a840003","name":"NL, Notenhout 50 D, 1787 RJ, Julianadorp","address":"Notenhout 50 D","city":"Julianadorp","operatorName":"Allego","maxPowerKw":0,"isMegawatt":false,"status":"AVAILABLE","source":"ndw"}},{"type":"Feature","geometry":{"type":"Point","coordinates":[4.765789,52.962472]},"properties":{"type":"charge","layer":"passenger","locationId":"75dff62e-db32-11e9-b670-42010a840003","name":"NLD, Kuiperdwarsstraat 15 1781MC Den Helder","address":"Kuiperdwarsstraat 15","city":"Den Helder","operatorName":"Allego","maxPowerKw":0,"isMegawatt":false,"status":"AVAILABLE","source":"ndw"}},{"type":"Feature","geometry":{"type":"Point","coordinates":[4.763008,52.950475]},"properties":{"type":"charge","layer":"passenger","locationId":"cfb05f50-0d8b-11ef-ada9-42010aa400b8","name":"TNLP009910","address":"Kievitstraat 73","city":"Den Helder","operatorName":"TotalEnergies","maxPowerKw":17,"isMegawatt":false,"status":"AVAILABLE","source":"ndw"}},{"type":"Feature","geometry":{"type":"Point","coordinates":[4.754362,52.958642]},"properties":{"type":"charge","layer":"passenger","locationId":"535331e6-ff60-11e9-889f-42010a840003","name":"NLD, De la Reystraat 33 1782RR Den Helder","address":"De la Reystraat 33","city":"Den Helder","operatorName":"Allego","maxPowerKw":0,"isMegawatt":false,"status":"AVAILABLE","source":"ndw"}},{"type":"Feature","geometry":{"type":"Point","coordinates":[4.7686031,52.9402878]},"properties":{"type":"charge","layer":"passenger","locationId":"1096","name":"Shell Recharge NL Heer Willem van Egmondstraat 70","address":"Heer Willem van Egmondstraat 70","city":"Den Helder","operatorName":"Ubitricity","maxPowerKw":22,"isMegawatt":false,"status":"AVAILABLE","source":"ndw"}},{"type":"Feature","geometry":{"type":"Point","coordinates":[4.754487,52.951958]},"properties":{"type":"charge","layer":"passenger","locationId":"4b5668fe-2ac6-11eb-a927-42010a840003","name":"Sportlaan 62 D 1782ND Den Helder","address":"Sportlaan 62 D","city":"Den Helder","operatorName":"Allego","maxPowerKw":0,"isMegawatt":false,"status":"AVAILABLE","source":"ndw"}},{"type":"Feature","geometry":{"type":"Point","coordinates":[4.746718,52.886996]},"properties":{"type":"charge","layer":"passenger","locationId":"7dd7bf06-db32-11e9-8dac-42010a840003","name":"NLD, Doorzwin 4327 1788NX Julianadorp","address":"Doorzwin 4327","city":"Julianadorp","operatorName":"Allego","maxPowerKw":0,"isMegawatt":false,"status":"AVAILABLE","source":"ndw"}},{"type":"Feature","geometry":{"type":"Point","coordinates":[4.745223,52.939431]},"properties":{"type":"charge","layer":"passenger","locationId":"cb21d66a-b168-11e8-a3e9-42010a840002","name":"NLD, Den Helder, Geulstraat 7","address":"Geulstraat 7","city":"Den Helder","operatorName":"Allego","maxPowerKw":0,"isMegawatt":false,"status":"AVAILABLE","source":"ndw"}},{"type":"Feature","geometry":{"type":"Point","coordinates":[4.780427,52.945046]},"properties":{"type":"charge","layer":"passenger","locationId":"da7f4f40-f223-11ea-a414-42010a840003","name":"NLD, Marina-Park 461 1785DN Den Helder","address":"Marina-Park 461","city":"Den Helder","operatorName":"Allego","maxPowerKw":0,"isMegawatt":false,"status":"AVAILABLE","source":"ndw"}},{"type":"Feature","geometry":{"type":"Point","coordinates":[4.765067,52.951862]},"properties":{"type":"charge","layer":"passenger","locationId":"NLLOC001148","name":"NLD, Den Helder, Reigerstraat 45","address":"Reigerstraat 45","city":"Den Helder","operatorName":"Allego","maxPowerKw":0,"isMegawatt":false,"status":"AVAILABLE","source":"ndw"}},{"type":"Feature","geometry":{"type":"Point","coordinates":[4.759514,52.960735]},"properties":{"type":"charge","layer":"passenger","locationId":"7fcefd48-4f3c-11e8-9f13-42010a840002","name":"NLD, Den Helder, Polderweg 38","address":"Polderweg 38","city":"Den Helder","operatorName":"Allego","maxPowerKw":0,"isMegawatt":false,"status":"AVAILABLE","source":"ndw"}},{"type":"Feature","geometry":{"type":"Point","coordinates":[4.762439,52.894552]},"properties":{"type":"charge","layer":"passenger","locationId":"62c3cc02-3697-11f0-a20c-42010aa400b8","name":"TNLP034041","address":"Prinses Margrietstraat 22","city":"Julianadorp","operatorName":"TotalEnergies","maxPowerKw":14,"isMegawatt":false,"status":"AVAILABLE","source":"ndw"}},{"type":"Feature","geometry":{"type":"Point","coordinates":[4.762356,52.955595]},"properties":{"type":"charge","layer":"passenger","locationId":"ea2d0f98-4194-11f0-bfb2-42010aa400b8","name":"TNLP034071","address":"Basstraat 18","city":"Den Helder","operatorName":"TotalEnergies","maxPowerKw":14,"isMegawatt":false,"status":"AVAILABLE","source":"ndw"}},{"type":"Feature","geometry":{"type":"Point","coordinates":[4.767567,52.938106]},"properties":{"type":"charge","layer":"passenger","locationId":"ef211aec-d521-11ef-94e4-42010aa400b8","name":"TNLP015174","address":"Schout en Schepenenstraat 78","city":"Den Helder","operatorName":"TotalEnergies","maxPowerKw":17,"isMegawatt":false,"status":"AVAILABLE","source":"ndw"}},{"type":"Feature","geometry":{"type":"Point","coordinates":[4.770055,52.94344]},"properties":{"type":"charge","layer":"passenger","locationId":"04ecd192-40cd-11f0-bdda-42010aa400b8","name":"TNLP034061","address":"Ravelijncenter 2","city":"Den Helder","operatorName":"TotalEnergies","maxPowerKw":14,"isMegawatt":false,"status":"CHARGING","source":"ndw"}},{"type":"Feature","geometry":{"type":"Point","coordinates":[4.74265,52.930725]},"properties":{"type":"charge","layer":"passenger","locationId":"0dbfe676-251d-11ec-b4d0-42010a84005d","name":"TNLP006615","address":"Kanostraat 15","city":"Den Helder","operatorName":"TotalEnergies","maxPowerKw":17,"isMegawatt":false,"status":"AVAILABLE","source":"ndw"}},{"type":"Feature","geometry":{"type":"Point","coordinates":[4.757717,52.956642]},"properties":{"type":"charge","layer":"passenger","locationId":"c1cd1862-7f47-11ec-934f-42010a84005e","name":"TNLP006895","address":"Hector Treubstraat 1","city":"Den Helder","operatorName":"TotalEnergies","maxPowerKw":17,"isMegawatt":false,"status":"CHARGING","source":"ndw"}},{"type":"Feature","geometry":{"type":"Point","coordinates":[4.761786,52.956759]},"properties":{"type":"charge","layer":"passenger","locationId":"cc34deb4-8526-11f0-ad42-42010aa400b8","name":"TNLP006083","address":"Gorterstraat 7","city":"Den Helder","operatorName":"TotalEnergies","maxPowerKw":17,"isMegawatt":false,"status":"CHARGING","source":"ndw"}},{"type":"Feature","geometry":{"type":"Point","coordinates":[4.76852,52.933919]},"properties":{"type":"charge","layer":"passenger","locationId":"7f9c65f4-4f3c-11e8-8e1b-42010a840002","name":"NLD, Den Helder, Pieter Korffstraat 44","address":"Pieter Korffstraat 44","city":"Den Helder","operatorName":"Allego","maxPowerKw":0,"isMegawatt":false,"status":"AVAILABLE","source":"ndw"}},{"type":"Feature","geometry":{"type":"Point","coordinates":[4.750545,52.958404]},"properties":{"type":"charge","layer":"passenger","locationId":"9F9DA942-44F3-414A-A726-5B28EC6FEEA2","name":"TNLP009825","address":"Lombokstraat 19","city":"Den Helder","operatorName":"TotalEnergies","maxPowerKw":17,"isMegawatt":false,"status":"AVAILABLE","source":"ndw"}},{"type":"Feature","geometry":{"type":"Point","coordinates":[4.753306,52.892682]},"properties":{"type":"charge","layer":"passenger","locationId":"47c61142-002e-11ec-8d11-42010a84001f","name":"TNLP006448","address":"Landbouwstraat 65","city":"Julianadorp","operatorName":"TotalEnergies","maxPowerKw":17,"isMegawatt":false,"status":"AVAILABLE","source":"ndw"}},{"type":"Feature","geometry":{"type":"Point","coordinates":[4.756409,52.961615]},"properties":{"type":"charge","layer":"passenger","locationId":"41cbc424-06a3-11f0-942a-42010aa400b8","name":"TNLP015172","address":"van Galenstraat 21","city":"Den Helder","operatorName":"TotalEnergies","maxPowerKw":17,"isMegawatt":false,"status":"AVAILABLE","source":"ndw"}},{"type":"Feature","geometry":{"type":"Point","coordinates":[4.765306,52.960011]},"properties":{"type":"charge","layer":"passenger","locationId":"93e12b18-9286-11f0-90e3-42010aa400b8","name":"TNLP034015","address":"Californiestraat 47","city":"Den Helder","operatorName":"TotalEnergies","maxPowerKw":14,"isMegawatt":false,"status":"AVAILABLE","source":"ndw"}},{"type":"Feature","geometry":{"type":"Point","coordinates":[4.761433,52.952058]},"properties":{"type":"charge","layer":"passenger","locationId":"c1c4b0c0-c9bf-11eb-9d99-42010a84004b","name":"TNLP006312","address":"Brakkeveldweg 76","city":"Den Helder","operatorName":"TotalEnergies","maxPowerKw":17,"isMegawatt":false,"status":"AVAILABLE","source":"ndw"}},{"type":"Feature","geometry":{"type":"Point","coordinates":[4.742957,52.887372]},"properties":{"type":"charge","layer":"passenger","locationId":"fc148a5e-9ec0-11eb-9142-42010a840002","name":"TNLP006096","address":"Kruiszwin 5420","city":"Julianadorp","operatorName":"TotalEnergies","maxPowerKw":17,"isMegawatt":false,"status":"AVAILABLE","source":"ndw"}},{"type":"Feature","geometry":{"type":"Point","coordinates":[4.786703,52.911023]},"properties":{"type":"charge","layer":"passenger","locationId":"66b0d47c6ea6b4001c1df333","name":"Den Helder Vastgoed's station","address":"Ijzergietersweg 1","city":"Den Helder","operatorName":"E-Flux by Road","maxPowerKw":11,"isMegawatt":false,"status":"AVAILABLE","source":"ndw"}},{"type":"Feature","geometry":{"type":"Point","coordinates":[4.7698,52.94658]},"properties":{"type":"charge","layer":"passenger","locationId":"7FBAB7A1-7A4B-4942-9476-9D5D7B73AF44","name":"Eneco eMobility Nijverheidsweg 2C Den Helder","address":"Nijverheidsweg 2C","city":"Den Helder","operatorName":"Eneco","maxPowerKw":22,"isMegawatt":false,"status":"CHARGING","source":"ndw"}},{"type":"Feature","geometry":{"type":"Point","coordinates":[4.762439,52.894552]},"properties":{"type":"charge","layer":"passenger","locationId":"ece46360-f18e-434d-867e-b6b3b56cae05","name":"TNLP034041","address":"Prinses Margrietstraat 22","city":"Julianadorp","operatorName":"TotalEnergies","maxPowerKw":14,"isMegawatt":false,"status":"AVAILABLE","source":"ndw"}},{"type":"Feature","geometry":{"type":"Point","coordinates":[4.757717,52.956642]},"properties":{"type":"charge","layer":"passenger","locationId":"b84e5d26-a99b-4a9d-bcb0-5c0237a337d1","name":"TNLP006895","address":"Hector Treubstraat 1","city":"Den Helder","operatorName":"TotalEnergies","maxPowerKw":17,"isMegawatt":false,"status":"CHARGING","source":"ndw"}},{"type":"Feature","geometry":{"type":"Point","coordinates":[4.753306,52.892682]},"properties":{"type":"charge","layer":"passenger","locationId":"1db14f14-2cb2-40f5-beb2-2a862af30d12","name":"TNLP006448","address":"Landbouwstraat 65","city":"Julianadorp","operatorName":"TotalEnergies","maxPowerKw":17,"isMegawatt":false,"status":"AVAILABLE","source":"ndw"}},{"type":"Feature","geometry":{"type":"Point","coordinates":[4.765789,52.962472]},"properties":{"type":"charge","layer":"passenger","locationId":"NLLOC004913","name":"NLD, Kuiperdwarsstraat 15 1781MC Den Helder","address":"Kuiperdwarsstraat 15","city":"Den Helder","operatorName":"Allego","maxPowerKw":0,"isMegawatt":false,"status":"AVAILABLE","source":"ndw"}},{"type":"Feature","geometry":{"type":"Point","coordinates":[4.78364,52.94131]},"properties":{"type":"charge","layer":"passenger","locationId":"8FA78D9E-D341-4CAB-A100-2F6CBF248961","name":"Eneco eMobility Ambachstweg 31 Den Helder","address":"Ambachtsweg 31","city":"Den Helder","operatorName":"Eneco","maxPowerKw":22,"isMegawatt":false,"status":"AVAILABLE","source":"ndw"}},{"type":"Feature","geometry":{"type":"Point","coordinates":[4.770395,52.956559]},"properties":{"type":"charge","layer":"passenger","locationId":"NLLOC002832","name":"NLD, Den Helder, Vismarkt 6","address":"Vismarkt 6","city":"Den Helder","operatorName":"Allego","maxPowerKw":0,"isMegawatt":false,"status":"AVAILABLE","source":"ndw"}},{"type":"Feature","geometry":{"type":"Point","coordinates":[4.770055,52.94344]},"properties":{"type":"charge","layer":"passenger","locationId":"edcacd20-c992-4555-82cb-aa2a39f22f95","name":"TNLP034061","address":"Ravelijncenter 2","city":"Den Helder","operatorName":"TotalEnergies","maxPowerKw":14,"isMegawatt":false,"status":"CHARGING","source":"ndw"}},{"type":"Feature","geometry":{"type":"Point","coordinates":[4.754362,52.958642]},"properties":{"type":"charge","layer":"passenger","locationId":"NLLOC005421","name":"NLD, De la Reystraat 33 1782RR Den Helder","address":"De la Reystraat 33","city":"Den Helder","operatorName":"Allego","maxPowerKw":0,"isMegawatt":false,"status":"AVAILABLE","source":"ndw"}},{"type":"Feature","geometry":{"type":"Point","coordinates":[4.733824,52.889379]},"properties":{"type":"charge","layer":"passenger","locationId":"696164ffa144a133b6943e38","name":"Dylan IT Charger","address":"Wierbalg 1145","city":"Julianadorp","operatorName":"E-Flux by Road","maxPowerKw":11,"isMegawatt":false,"status":"AVAILABLE","source":"ndw"}},{"type":"Feature","geometry":{"type":"Point","coordinates":[4.737681,52.936805]},"properties":{"type":"charge","layer":"passenger","locationId":"29CB9174-F6F3-4349-BA3E-D49C2835D4BE","name":"TNLP007675","address":"Schoenerstraat 2","city":"Den Helder","operatorName":"TotalEnergies","maxPowerKw":17,"isMegawatt":false,"status":"AVAILABLE","source":"ndw"}},{"type":"Feature","geometry":{"type":"Point","coordinates":[4.762356,52.955595]},"properties":{"type":"charge","layer":"passenger","locationId":"399902d8-1555-44ff-a435-a3c830ea15e3","name":"TNLP034071","address":"Basstraat 18","city":"Den Helder","operatorName":"TotalEnergies","maxPowerKw":14,"isMegawatt":false,"status":"CHARGING","source":"ndw"}},{"type":"Feature","geometry":{"type":"Point","coordinates":[4.767567,52.938106]},"properties":{"type":"charge","layer":"passenger","locationId":"2a3982c1-3993-46a5-bd99-30e5c53716d4","name":"TNLP015174","address":"Schout en Schepenenstraat 78","city":"Den Helder","operatorName":"TotalEnergies","maxPowerKw":17,"isMegawatt":false,"status":"AVAILABLE","source":"ndw"}},{"type":"Feature","geometry":{"type":"Point","coordinates":[4.733334,52.938824]},"properties":{"type":"charge","layer":"passenger","locationId":"3223a0bd-beed-4bc3-bf4d-a93fc96ce428","name":"TNLP007337","address":"Sparrenstraat 38","city":"Den Helder","operatorName":"TotalEnergies","maxPowerKw":17,"isMegawatt":false,"status":"AVAILABLE","source":"ndw"}},{"type":"Feature","geometry":{"type":"Point","coordinates":[4.780427,52.945046]},"properties":{"type":"charge","layer":"passenger","locationId":"NLLOC008832","name":"NLD, Marina-Park 461 1785DN Den Helder","address":"Marina-Park 461","city":"Den Helder","operatorName":"Allego","maxPowerKw":0,"isMegawatt":false,"status":"AVAILABLE","source":"ndw"}},{"type":"Feature","geometry":{"type":"Point","coordinates":[4.763008,52.950475]},"properties":{"type":"charge","layer":"passenger","locationId":"DEF49ABA-E3B4-4588-9490-8A46A68474A3","name":"TNLP009910","address":"Kievitstraat 73","city":"Den Helder","operatorName":"TotalEnergies","maxPowerKw":17,"isMegawatt":false,"status":"AVAILABLE","source":"ndw"}},{"type":"Feature","geometry":{"type":"Point","coordinates":[4.746255,52.960401]},"properties":{"type":"charge","layer":"passenger","locationId":"9A39C062-715C-4E81-95D1-18BFBBC73535","name":"TNLP007861","address":"Jacob van Heemskerckstraat 36","city":"Den Helder","operatorName":"TotalEnergies","maxPowerKw":17,"isMegawatt":false,"status":"AVAILABLE","source":"ndw"}},{"type":"Feature","geometry":{"type":"Point","coordinates":[4.749325,52.957213]},"properties":{"type":"charge","layer":"passenger","locationId":"NLLOC001225","name":"NLD, Den Helder, Celebesstraat 24","address":"Celebesstraat 24","city":"Den Helder","operatorName":"Allego","maxPowerKw":0,"isMegawatt":false,"status":"AVAILABLE","source":"ndw"}},{"type":"Feature","geometry":{"type":"Point","coordinates":[4.770576,52.935115]},"properties":{"type":"charge","layer":"passenger","locationId":"697c841cd2506a704c53f9fa","name":"Tank en Was Service Den Helder BV","address":"Baljuwstraat 139","city":"Den Helder","operatorName":"NXT Charging Solutions","maxPowerKw":11,"isMegawatt":false,"status":"AVAILABLE","source":"ndw"}},{"type":"Feature","geometry":{"type":"Point","coordinates":[4.770894,52.953851]},"properties":{"type":"charge","layer":"passenger","locationId":"0cb6c6ba-0bac-4ce9-8b4f-87e4e3e1e709","name":"TNLP007320","address":"Jan in 't Veltstraat 120","city":"Den Helder","operatorName":"TotalEnergies","maxPowerKw":17,"isMegawatt":false,"status":"AVAILABLE","source":"ndw"}},{"type":"Feature","geometry":{"type":"Point","coordinates":[4.755209,52.884236]},"properties":{"type":"charge","layer":"passenger","locationId":"NLLOC006862","name":"NL, Notenhout 50 D, 1787 RJ, Julianadorp","address":"Notenhout 50 D","city":"Julianadorp","operatorName":"Allego","maxPowerKw":0,"isMegawatt":false,"status":"AVAILABLE","source":"ndw"}},{"type":"Feature","geometry":{"type":"Point","coordinates":[4.736551,52.943523]},"properties":{"type":"charge","layer":"passenger","locationId":"NLLOC001519","name":"NLD, Den Helder, Wingerdstraat 3","address":"Wingerdstraat 3","city":"Den Helder","operatorName":"Allego","maxPowerKw":0,"isMegawatt":false,"status":"AVAILABLE","source":"ndw"}},{"type":"Feature","geometry":{"type":"Point","coordinates":[4.779249,52.934146]},"properties":{"type":"charge","layer":"passenger","locationId":"NLLOC002523","name":"NLD, Den Helder, Gerbrands Scheltesstraat 77","address":"Gerbrands Scheltesstraat 77","city":"Den Helder","operatorName":"Allego","maxPowerKw":0,"isMegawatt":false,"status":"AVAILABLE","source":"ndw"}},{"type":"Feature","geometry":{"type":"Point","coordinates":[4.725739,52.952984]},"properties":{"type":"charge","layer":"passenger","locationId":"NLLOC002825","name":"NLD, Den Helder, Anton Pieckhof 12","address":"Anton Pieckhof 12","city":"Den Helder","operatorName":"Allego","maxPowerKw":0,"isMegawatt":false,"status":"AVAILABLE","source":"ndw"}},{"type":"Feature","geometry":{"type":"Point","coordinates":[4.752805,52.955136]},"properties":{"type":"charge","layer":"passenger","locationId":"NLLOC002419","name":"NLD, Ceramstraat 62, 1782 CD, Den Helder","address":"Ceramstraat 62","city":"Den-Helder","operatorName":"Allego","maxPowerKw":0,"isMegawatt":false,"status":"AVAILABLE","source":"ndw"}},{"type":"Feature","geometry":{"type":"Point","coordinates":[4.77464,52.956928]},"properties":{"type":"charge","layer":"passenger","locationId":"NLLOC002240","name":"NLD, Den Helder, Ankerpark 6","address":"Ankerpark 6","city":"Den Helder","operatorName":"Allego","maxPowerKw":0,"isMegawatt":false,"status":"AVAILABLE","source":"ndw"}},{"type":"Feature","geometry":{"type":"Point","coordinates":[4.745255,52.938137]},"properties":{"type":"charge","layer":"passenger","locationId":"6E19FD2B-1EDB-438C-983A-04976A85A229","name":"TNLP009827","address":"Korvethof 40","city":"Den Helder","operatorName":"TotalEnergies","maxPowerKw":17,"isMegawatt":false,"status":"AVAILABLE","source":"ndw"}},{"type":"Feature","geometry":{"type":"Point","coordinates":[4.76852,52.933919]},"properties":{"type":"charge","layer":"passenger","locationId":"NLLOC001152","name":"NLD, Den Helder, Pieter Korffstraat 44","address":"Pieter Korffstraat 44","city":"Den Helder","operatorName":"Allego","maxPowerKw":0,"isMegawatt":false,"status":"AVAILABLE","source":"ndw"}},{"type":"Feature","geometry":{"type":"Point","coordinates":[4.765021,52.95793]},"properties":{"type":"charge","layer":"passenger","locationId":"NLLOC007985","name":"Breewaterstraat 64 1781GV Den Helder","address":"Breewaterstraat 64","city":"Den Helder","operatorName":"Allego","maxPowerKw":0,"isMegawatt":false,"status":"AVAILABLE","source":"ndw"}},{"type":"Feature","geometry":{"type":"Point","coordinates":[4.742957,52.887372]},"properties":{"type":"charge","layer":"passenger","locationId":"74ab2e46-a15b-4ecb-8e38-ba1f11deeb7b","name":"TNLP006096","address":"Kruiszwin 5420","city":"Julianadorp","operatorName":"TotalEnergies","maxPowerKw":17,"isMegawatt":false,"status":"AVAILABLE","source":"ndw"}},{"type":"Feature","geometry":{"type":"Point","coordinates":[4.77048,52.96133]},"properties":{"type":"charge","layer":"passenger","locationId":"654119c89edea4001cfff988","name":"Gebouw 39 Rechts","address":"Willemsoord 39","city":"Den Helder","operatorName":"E-Flux by Road","maxPowerKw":22,"isMegawatt":false,"status":"AVAILABLE","source":"ndw"}},{"type":"Feature","geometry":{"type":"Point","coordinates":[4.759514,52.960735]},"properties":{"type":"charge","layer":"passenger","locationId":"NLLOC001147","name":"NLD, Den Helder, Polderweg 38","address":"Polderweg 38","city":"Den Helder","operatorName":"Allego","maxPowerKw":0,"isMegawatt":false,"status":"UNAVAILABLE","source":"ndw"}},{"type":"Feature","geometry":{"type":"Point","coordinates":[4.771536,52.93552]},"properties":{"type":"charge","layer":"passenger","locationId":"NLLOC001149","name":"NLD, Den Helder, Vrede en Vrijheid 18","address":"Vrede en Vrijheid 18","city":"Den Helder","operatorName":"Allego","maxPowerKw":0,"isMegawatt":false,"status":"AVAILABLE","source":"ndw"}},{"type":"Feature","geometry":{"type":"Point","coordinates":[4.752417,52.959864]},"properties":{"type":"charge","layer":"passenger","locationId":"NLLOC003352","name":"NLD, Den Helder, Prins Willem-Alexandersingel 67","address":"Prins Willem-Alexandersingel 67","city":"Den Helder","operatorName":"Allego","maxPowerKw":0,"isMegawatt":false,"status":"AVAILABLE","source":"ndw"}},{"type":"Feature","geometry":{"type":"Point","coordinates":[4.745504,52.932105]},"properties":{"type":"charge","layer":"passenger","locationId":"NLLOC001151","name":"NLD, Den Helder, Het koggeschip 112","address":"Het koggeschip 112","city":"Den Helder","operatorName":"Allego","maxPowerKw":0,"isMegawatt":false,"status":"AVAILABLE","source":"ndw"}},{"type":"Feature","geometry":{"type":"Point","coordinates":[4.758414,52.884351]},"properties":{"type":"charge","layer":"passenger","locationId":"644b7ff7df66ced5faace81169091658","name":"Kastanjehout 62","address":"Kastanjehout 62","city":"Julianadorp","operatorName":"Vattenfall InCharge","maxPowerKw":11,"isMegawatt":false,"status":"AVAILABLE","source":"ndw"}},{"type":"Feature","geometry":{"type":"Point","coordinates":[4.771535,52.930686]},"properties":{"type":"charge","layer":"passenger","locationId":"8ef40683-cdcd-48c1-bb81-3ebf9979f511","name":"TNLP006391","address":"Pieter Straatlaan 74","city":"Den Helder","operatorName":"TotalEnergies","maxPowerKw":17,"isMegawatt":false,"status":"AVAILABLE","source":"ndw"}},{"type":"Feature","geometry":{"type":"Point","coordinates":[4.747356,52.952812]},"properties":{"type":"charge","layer":"passenger","locationId":"663a39f030c6a7001b6788d1","name":"Hotel Den Helder.1","address":"Marsdiepstraat 2","city":"Den Helder","operatorName":"E-Flux by Road","maxPowerKw":19,"isMegawatt":false,"status":"AVAILABLE","source":"ndw"}},{"type":"Feature","geometry":{"type":"Point","coordinates":[4.754932,52.938773]},"properties":{"type":"charge","layer":"passenger","locationId":"6107ffe66fcabe7e640e386d","name":"Den Koogh","address":"Drs. F. Bijlweg 4","city":"Den Helder","operatorName":"E-Flux by Road","maxPowerKw":22,"isMegawatt":false,"status":"AVAILABLE","source":"ndw"}},{"type":"Feature","geometry":{"type":"Point","coordinates":[4.770416,52.961336]},"properties":{"type":"charge","layer":"passenger","locationId":"654118ff9edea4001cffc7b5","name":"Gebouw 39 Links","address":"Willemsoord 39","city":"Den Helder","operatorName":"E-Flux by Road","maxPowerKw":22,"isMegawatt":false,"status":"AVAILABLE","source":"ndw"}},{"type":"Feature","geometry":{"type":"Point","coordinates":[4.763242,52.895624]},"properties":{"type":"charge","layer":"passenger","locationId":"6639d9e47188f1001d7df857","name":"Berkman - Julianadorp Kiefte","address":"Schoolweg 72B","city":"Julianadorp","operatorName":"E-Flux by Road","maxPowerKw":11,"isMegawatt":false,"status":"AVAILABLE","source":"ndw"}},{"type":"Feature","geometry":{"type":"Point","coordinates":[4.74265,52.930725]},"properties":{"type":"charge","layer":"passenger","locationId":"2c18493f-2a78-4b29-8edb-98f37d05e63a","name":"TNLP006615","address":"Kanostraat 15","city":"Den Helder","operatorName":"TotalEnergies","maxPowerKw":17,"isMegawatt":false,"status":"AVAILABLE","source":"ndw"}},{"type":"Feature","geometry":{"type":"Point","coordinates":[4.735715,52.887266]},"properties":{"type":"charge","layer":"passenger","locationId":"NLLOC002513","name":"NLD, Julianadorp, Wierbalg 1983","address":"Wierbalg 1983","city":"Julianadorp","operatorName":"Allego","maxPowerKw":0,"isMegawatt":false,"status":"AVAILABLE","source":"ndw"}},{"type":"Feature","geometry":{"type":"Point","coordinates":[4.766673,52.956672]},"properties":{"type":"charge","layer":"passenger","locationId":"CB024DA5-18E8-45F8-A03D-3F8DE52014FB","name":"TNLP009223","address":"Steengracht 7","city":"Den Helder","operatorName":"TotalEnergies","maxPowerKw":17,"isMegawatt":false,"status":"AVAILABLE","source":"ndw"}},{"type":"Feature","geometry":{"type":"Point","coordinates":[4.768098,52.931607]},"properties":{"type":"charge","layer":"passenger","locationId":"1095d31d6ed71e49dd4c88e5ce4e86fb","name":"Jan Adriaansz Wentelstraat 9","address":"Jan Adriaansz Wentelstraat 9","city":"Den Helder","operatorName":"Vattenfall InCharge","maxPowerKw":11,"isMegawatt":false,"status":"AVAILABLE","source":"ndw"}},{"type":"Feature","geometry":{"type":"Point","coordinates":[4.752149,52.939039]},"properties":{"type":"charge","layer":"passenger","locationId":"8e4d1b8bf176b565a98a1e1451b279fc","name":"Drs. F. Bijlweg 21","address":"Drs. F. Bijlweg 21","city":"Den Helder","operatorName":"Vattenfall InCharge","maxPowerKw":11,"isMegawatt":false,"status":"AVAILABLE","source":"ndw"}},{"type":"Feature","geometry":{"type":"Point","coordinates":[4.749188,52.889065]},"properties":{"type":"charge","layer":"passenger","locationId":"0557dbb9-fa1f-4fa2-95d3-af8d4f63dba2","name":"TNLP007354","address":"Doorzwin 2609","city":"Julianadorp","operatorName":"TotalEnergies","maxPowerKw":17,"isMegawatt":false,"status":"AVAILABLE","source":"ndw"}},{"type":"Feature","geometry":{"type":"Point","coordinates":[4.7336,52.944471]},"properties":{"type":"charge","layer":"passenger","locationId":"c6d5afae5baa83c9573fb875184f5663","name":"Duinroosstraat 4","address":"Duinroosstraat 4","city":"Den Helder","operatorName":"Vattenfall InCharge","maxPowerKw":11,"isMegawatt":false,"status":"AVAILABLE","source":"ndw"}},{"type":"Feature","geometry":{"type":"Point","coordinates":[4.780157,52.947533]},"properties":{"type":"charge","layer":"passenger","locationId":"69bf5c1c4c70bbdf165f51abec6da2da","name":"Saturnus 13","address":"Saturnus 13","city":"Den Helder","operatorName":"Vattenfall InCharge","maxPowerKw":11,"isMegawatt":false,"status":"AVAILABLE","source":"ndw"}},{"type":"Feature","geometry":{"type":"Point","coordinates":[4.749017,52.942312]},"properties":{"type":"charge","layer":"passenger","locationId":"b2714ff3eba2b37aca99c9216deb7a60","name":"Schipbeekstraat 1a","address":"Schipbeekstraat 1a","city":"Den Helder","operatorName":"Vattenfall InCharge","maxPowerKw":11,"isMegawatt":false,"status":"AVAILABLE","source":"ndw"}},{"type":"Feature","geometry":{"type":"Point","coordinates":[4.754487,52.951958]},"properties":{"type":"charge","layer":"passenger","locationId":"NLLOC007991","name":"Sportlaan 62 D 1782ND Den Helder","address":"Sportlaan 62 D","city":"Den Helder","operatorName":"Allego","maxPowerKw":0,"isMegawatt":false,"status":"AVAILABLE","source":"ndw"}},{"type":"Feature","geometry":{"type":"Point","coordinates":[4.747232,52.952851]},"properties":{"type":"charge","layer":"passenger","locationId":"663a3b5430c6a7001b67a18f","name":"Hotel Den Helder.2","address":"Marsdiepstraat 2","city":"Den Helder","operatorName":"E-Flux by Road","maxPowerKw":19,"isMegawatt":false,"status":"AVAILABLE","source":"ndw"}},{"type":"Feature","geometry":{"type":"Point","coordinates":[4.734824,52.888184]},"properties":{"type":"charge","layer":"passenger","locationId":"923138","name":"DAE_NL_2000933","address":"wierbalg 1841","city":"Julianadorp","operatorName":"DAEN Mobility","maxPowerKw":11,"isMegawatt":false,"status":"AVAILABLE","source":"ndw"}},{"type":"Feature","geometry":{"type":"Point","coordinates":[4.748662,52.938169]},"properties":{"type":"charge","layer":"passenger","locationId":"650da25da6be6500201b5758","name":"Oleahof Uitvaartzorg","address":"IJsselmeerstraat 63a","city":"Den Helder","operatorName":"E-Flux by Road","maxPowerKw":22,"isMegawatt":false,"status":"AVAILABLE","source":"ndw"}},{"type":"Feature","geometry":{"type":"Point","coordinates":[4.752716,52.9474147]},"properties":{"type":"charge","layer":"passenger","locationId":"1146","name":"Shell Recharge NL Texelstroomlaan 1","address":"Texelstroomlaan 1","city":"Den Helder","operatorName":"Ubitricity","maxPowerKw":22,"isMegawatt":false,"status":"AVAILABLE","source":"ndw"}},{"type":"Feature","geometry":{"type":"MultiPolygon","coordinates":[[[[4.784971618023904,52.965796616826665],[4.783326013294084,52.964049661361464],[4.784723099570871,52.96301257311362],[4.783594781640927,52.96230415914393],[4.781136570107124,52.96334286079537],[4.779195083282457,52.96167862148313],[4.7777449365511035,52.960917484705696],[4.774788090289952,52.96060860381552],[4.779194972697997,52.95453779239988],[4.7880375963454975,52.949180323144006],[4.790475877325419,52.94969391421052],[4.780445358441187,52.9555704814914],[4.778230389027442,52.95939682356931],[4.778416263227369,52.95943292084038],[4.779320424418178,52.958314573913974],[4.78102240626379,52.958770452352006],[4.7827359703815,52.9563381896025],[4.785087185804308,52.95690727795548],[4.78555610336943,52.95430668011568],[4.787294424400918,52.954410437984194],[4.786672785360116,52.9569989834493],[4.787272196641951,52.95705160687059],[4.787958627058008,52.95447468206285],[4.792069573800221,52.95501714933065],[4.790870641177575,52.95754365466649],[4.791469434056247,52.957647850048765],[4.792788947227265,52.95516990770839],[4.794387299066197,52.95549642961939],[4.793334647434677,52.95722388494705],[4.7937198844045,52.957253904661975],[4.794159444408559,52.956624079589794],[4.7964771263054375,52.957094647107525],[4.795513643979375,52.958810543296856],[4.793198442700871,52.95837771449145],[4.792992149054276,52.95860276915701],[4.798149631301523,52.95962199439297],[4.796571507429874,52.961878050269036],[4.794300130841203,52.96145062411855],[4.794805085899647,52.96020467378752],[4.793363892060227,52.95991300384223],[4.791639217467119,52.96220125447809],[4.789699389716975,52.96276442280939],[4.795875399303252,52.96447837922022],[4.801324158662413,52.964523631918546],[4.803419620488115,52.95918306721618],[4.801696508505825,52.953094953789986],[4.7928385365515425,52.94412489876951],[4.791301843012,52.93623127985399],[4.792011532082776,52.93516253718962],[4.792122765746721,52.93295342676794],[4.79418048427064,52.932814020116126],[4.794734128001309,52.929343676648266],[4.803269316196308,52.91739008486101],[4.805016340383583,52.91608473848307],[4.807061500618582,52.91594447476956],[4.808834808699522,52.915257592395946],[4.809987734693538,52.91435390894396],[4.808050101057069,52.913573751683764],[4.806308810950196,52.913979204186006],[4.806724180504278,52.91271511246642],[4.804530916589625,52.91048780207606],[4.797299304962697,52.91211479866538],[4.794908340942007,52.91257904174641],[4.787654034001032,52.902347152603205],[4.7822950882228445,52.89468649009272],[4.772084941474124,52.880249561296814],[4.770937917318667,52.87862685711188],[4.769366134256184,52.878923304324715],[4.749806202942725,52.88045583353599],[4.742539400035657,52.8810202235798],[4.734172082974911,52.88165905718499],[4.726788774985097,52.882208465503666],[4.709041145079972,52.88362247271309],[4.711434906823195,52.89340911397711],[4.712420992599359,52.901543061812106],[4.713398740567986,52.91582824997049],[4.713372716958548,52.93229384392502],[4.714535186521898,52.93830120269901],[4.717237876685762,52.94745484786843],[4.719418265592657,52.951135461187505],[4.729651908161605,52.96152842685247],[4.730838341287898,52.962574848128064],[4.7396859377736105,52.9638030788756],[4.748296010938685,52.964378004332],[4.755502909079649,52.96382792679957],[4.7592720695764745,52.9646055285082],[4.763209279052568,52.96538444245203],[4.77955795775079,52.965230033332986],[4.777820638823525,52.96396386944794],[4.777715406940572,52.96300689252032],[4.778284788585878,52.96275010227955],[4.781325348537083,52.96475938580234],[4.782358745371005,52.96444798622863],[4.784240587632736,52.96609738051193],[4.784971618023904,52.965796616826665]]]]},"properties":{"type":"boundary","gemeente":"Den Helder","code":"GM0400"}}]}