{"type":"FeatureCollection","metadata":{"gemeente":"Deventer","slug":"deventer","code":"GM0150","generated_at":"2026-06-02T13:19:22.438Z","total_passenger":452,"total_freight":1,"bounds":[6.101321017959333,52.21744076414905,6.381851643300258,52.32085514313136],"operators":["Allego","DAEN Mobility","E-Flux by Road","Eneco","Laadnet","Opcharge","Pluq","Porsche Sales & Marketplace","Q-Park Netherlands","Tango electric","Tesla","Valk Energy","Vattenfall InCharge","e-VOLTT"]},"features":[{"type":"Feature","geometry":{"type":"Point","coordinates":[6.215109,52.251277]},"properties":{"type":"charge","layer":"passenger","locationId":"c1a9db05-9c4b-4a08-895d-a78c33dcb7ae","name":"Doornenburg ","address":"Doornenburg  245","city":"Deventer","operatorName":"Vattenfall InCharge","maxPowerKw":11,"isMegawatt":false,"status":"AVAILABLE","source":"ndw"}},{"type":"Feature","geometry":{"type":"Point","coordinates":[6.20079,52.24665]},"properties":{"type":"charge","layer":"passenger","locationId":"d08585de-519f-11ee-844c-42010aa40fc0","name":"Eneco eMobility Broekhuis Opel Deventer","address":"Revalstraat 10","city":"Deventer","operatorName":"Eneco","maxPowerKw":0,"isMegawatt":false,"status":"AVAILABLE","source":"ndw"}},{"type":"Feature","geometry":{"type":"Point","coordinates":[6.172357,52.270716]},"properties":{"type":"charge","layer":"passenger","locationId":"6a3840d4-d423-44d8-94f9-106a4e03dd97","name":"Wezenland","address":"Wezenland 71","city":"Deventer","operatorName":"Vattenfall InCharge","maxPowerKw":11,"isMegawatt":false,"status":"AVAILABLE","source":"ndw"}},{"type":"Feature","geometry":{"type":"Point","coordinates":[6.219322,52.262956]},"properties":{"type":"charge","layer":"passenger","locationId":"f972a2e6d228f33fd054f17708b4178b","name":"Leeghwaterlaan 31","address":"Leeghwaterlaan 31","city":"Deventer","operatorName":"Vattenfall InCharge","maxPowerKw":11,"isMegawatt":false,"status":"AVAILABLE","source":"ndw"}},{"type":"Feature","geometry":{"type":"Point","coordinates":[6.218002,52.259856]},"properties":{"type":"charge","layer":"passenger","locationId":"c606ba45-d3fe-4347-a2ae-7e9d5dfcecbf","name":"Calandhof","address":"Calandhof 2","city":"Deventer","operatorName":"Vattenfall InCharge","maxPowerKw":11,"isMegawatt":false,"status":"AVAILABLE","source":"ndw"}},{"type":"Feature","geometry":{"type":"Point","coordinates":[6.15942,52.249961]},"properties":{"type":"charge","layer":"passenger","locationId":"NLLOC027536","name":"Emmastraat 7411, 7411 ZJ, Deventer","address":"Emmastraat 7411","city":"Deventer","operatorName":"Allego","maxPowerKw":0,"isMegawatt":false,"status":"AVAILABLE","source":"ndw"}},{"type":"Feature","geometry":{"type":"Point","coordinates":[6.164764,52.260262]},"properties":{"type":"charge","layer":"passenger","locationId":"c6a692c4-08dc-41ca-ad65-114de269df5e","name":"Burg. Van Loghemplein","address":"Burg. Van Loghemplein 10","city":"Deventer","operatorName":"Vattenfall InCharge","maxPowerKw":11,"isMegawatt":false,"status":"AVAILABLE","source":"ndw"}},{"type":"Feature","geometry":{"type":"Point","coordinates":[6.208408,52.257338]},"properties":{"type":"charge","layer":"passenger","locationId":"NLLOC006508","name":"NL, Wielewaal 31, 7423DN, Deventer","address":"Wielewaal 31","city":"Deventer","operatorName":"Allego","maxPowerKw":0,"isMegawatt":false,"status":"AVAILABLE","source":"ndw"}},{"type":"Feature","geometry":{"type":"Point","coordinates":[6.207302,52.249609]},"properties":{"type":"charge","layer":"passenger","locationId":"f6f99578-ee89-11eb-a789-42010a840003","name":"Tango Deventer PVD 1-2-3","address":"Piet Van Donkplein 3","city":"Deventer","operatorName":"Tango electric","maxPowerKw":200,"isMegawatt":false,"status":"AVAILABLE","source":"ndw"}},{"type":"Feature","geometry":{"type":"Point","coordinates":[6.16564,52.25262]},"properties":{"type":"charge","layer":"passenger","locationId":"c035d3e0-ce15-11e8-8900-42010a840002","name":"Q-Park Deventer De Boreel","address":"Boreelplein 45","city":"Deventer","operatorName":"Q-Park Netherlands","maxPowerKw":11,"isMegawatt":false,"status":"AVAILABLE","source":"ndw"}},{"type":"Feature","geometry":{"type":"Point","coordinates":[6.197046,52.265236]},"properties":{"type":"charge","layer":"passenger","locationId":"b3edca5e-cccb-49a2-b604-5bd442d61c61","name":"Alferdinkweg","address":"Alferdinkweg 55","city":"Schalkhaar","operatorName":"Vattenfall InCharge","maxPowerKw":11,"isMegawatt":false,"status":"AVAILABLE","source":"ndw"}},{"type":"Feature","geometry":{"type":"Point","coordinates":[6.17364,52.24382]},"properties":{"type":"charge","layer":"passenger","locationId":"646b7a9e-fc36-11ec-93c4-42010aa4000d","name":"Eneco eMobility Hanzeweg 5 Deventer","address":"Hanzeweg 5","city":"Deventer","operatorName":"Eneco","maxPowerKw":22,"isMegawatt":false,"status":"AVAILABLE","source":"ndw"}},{"type":"Feature","geometry":{"type":"Point","coordinates":[6.216234,52.247151]},"properties":{"type":"charge","layer":"passenger","locationId":"4ea1dc41-dcf7-4d28-b6d9-adc13476a71a","name":"Flora 85","address":"Flora 85","city":"Deventer","operatorName":"Vattenfall InCharge","maxPowerKw":11,"isMegawatt":false,"status":"AVAILABLE","source":"ndw"}},{"type":"Feature","geometry":{"type":"Point","coordinates":[6.152622,52.284516]},"properties":{"type":"charge","layer":"passenger","locationId":"60b339fb4e6e77e68d49f7e98a3ab9a7","name":"Vossebeltweg 22","address":"Vossebeltweg 22","city":"Diepenveen","operatorName":"Vattenfall InCharge","maxPowerKw":11,"isMegawatt":false,"status":"AVAILABLE","source":"ndw"}},{"type":"Feature","geometry":{"type":"Point","coordinates":[6.167995,52.276185]},"properties":{"type":"charge","layer":"passenger","locationId":"NLLOC004005","name":"NLD, Steven Coldeweijpad 1, Deventer","address":"Steven Coldeweijpad 1","city":"Deventer","operatorName":"Allego","maxPowerKw":0,"isMegawatt":false,"status":"AVAILABLE","source":"ndw"}},{"type":"Feature","geometry":{"type":"Point","coordinates":[6.163833,52.296944]},"properties":{"type":"charge","layer":"passenger","locationId":"a229e8d6126e4bc8bf97edf9f7ac660e","name":"Diepenveen- Sallandsche Golfclub de Hoek","address":"Golfweg 2","city":"Diepenveen","operatorName":"Opcharge","maxPowerKw":22,"isMegawatt":false,"status":"AVAILABLE","source":"ndw"}},{"type":"Feature","geometry":{"type":"Point","coordinates":[6.206641,52.265361]},"properties":{"type":"charge","layer":"passenger","locationId":"57a0176c-f1fc-11e9-91ee-42010a840003","name":"NLD, Aan de leide 2, 7433SR, Schalkhaar","address":"Aan de leide 2","city":"Schalkhaar","operatorName":"Allego","maxPowerKw":0,"isMegawatt":false,"status":"AVAILABLE","source":"ndw"}},{"type":"Feature","geometry":{"type":"Point","coordinates":[6.143902,52.262937]},"properties":{"type":"charge","layer":"passenger","locationId":"e228ffa4-efdc-4f5f-babb-0c4d8174ad13","name":"Everhard van Reijdtstraat","address":"Everhard van Reijdtstraat 9","city":"Deventer","operatorName":"Vattenfall InCharge","maxPowerKw":11,"isMegawatt":false,"status":"AVAILABLE","source":"ndw"}},{"type":"Feature","geometry":{"type":"Point","coordinates":[6.209819,52.243849]},"properties":{"type":"charge","layer":"passenger","locationId":"39efc097-ac04-4837-bd95-5504c94ae2d7","name":"Berberispad","address":"Berberispad 1","city":"Deventer","operatorName":"Vattenfall InCharge","maxPowerKw":11,"isMegawatt":false,"status":"AVAILABLE","source":"ndw"}},{"type":"Feature","geometry":{"type":"Point","coordinates":[6.165823,52.254921]},"properties":{"type":"charge","layer":"passenger","locationId":"A44099AE-A3F1-4FAC-ADFB-444F471B891D","name":"Eneco eMobility TAUW Group B.V. Handelskade Deventer","address":"Handelskade 37","city":"Deventer","operatorName":"Eneco","maxPowerKw":22,"isMegawatt":false,"status":"AVAILABLE","source":"ndw"}},{"type":"Feature","geometry":{"type":"Point","coordinates":[6.284867,52.241137]},"properties":{"type":"charge","layer":"passenger","locationId":"65c4e46cae9ba2001c994c73","name":"Brilman Bathmen","address":"Steginksweg 4","city":"Bathmen","operatorName":"E-Flux by Road","maxPowerKw":200,"isMegawatt":false,"status":"AVAILABLE","source":"ndw"}},{"type":"Feature","geometry":{"type":"Point","coordinates":[6.16125,52.260228]},"properties":{"type":"charge","layer":"passenger","locationId":"46cf7bf2-bf7c-11ed-bba5-42010aa40fc0","name":"NL, Smyrnastraat 48, 7413 BC Deventer","address":"Smyrnastraat 48","city":"Deventer","operatorName":"Allego","maxPowerKw":0,"isMegawatt":false,"status":"AVAILABLE","source":"ndw"}},{"type":"Feature","geometry":{"type":"Point","coordinates":[6.159004,52.264641]},"properties":{"type":"charge","layer":"passenger","locationId":"bee503c4-80f9-11ea-b22b-42010a840003","name":"NL, Ceintuurbaan 46, 7415 AM, Deventer","address":"Ceintuurbaan 46","city":"Deventer","operatorName":"Allego","maxPowerKw":0,"isMegawatt":false,"status":"AVAILABLE","source":"ndw"}},{"type":"Feature","geometry":{"type":"Point","coordinates":[6.146631,52.278106]},"properties":{"type":"charge","layer":"passenger","locationId":"c7577614-eae9-11e9-a3cb-42010a840003","name":"NLD, Arendshorst 22, 7414 HN Deventer","address":"Arendshorst","city":"Deventer","operatorName":"Allego","maxPowerKw":0,"isMegawatt":false,"status":"AVAILABLE","source":"ndw"}},{"type":"Feature","geometry":{"type":"Point","coordinates":[6.140383,52.263557]},"properties":{"type":"charge","layer":"passenger","locationId":"072e59b6-609c-11e9-93c1-42010a840003","name":"NLD, Gemeente Deventer, Vermeerstraat 25 7412GE Deventer","address":"Vermeerstraat 25","city":"Deventer","operatorName":"Allego","maxPowerKw":0,"isMegawatt":false,"status":"AVAILABLE","source":"ndw"}},{"type":"Feature","geometry":{"type":"Point","coordinates":[6.210279,52.247594]},"properties":{"type":"charge","layer":"passenger","locationId":"7dc5ec92-9349-11eb-9a67-42010a840003","name":"NL, Grote Ratelaar 141, 7422 NK, Deventer","address":"Grote Ratelaar 141","city":"Deventer","operatorName":"Allego","maxPowerKw":0,"isMegawatt":false,"status":"AVAILABLE","source":"ndw"}},{"type":"Feature","geometry":{"type":"Point","coordinates":[6.226836,52.245789]},"properties":{"type":"charge","layer":"passenger","locationId":"bac59364-711c-11e9-bcf7-42010a840003","name":"NLD, Paalakker 2, Deventer","address":"Paalakker 2","city":"Deventer","operatorName":"Allego","maxPowerKw":0,"isMegawatt":false,"status":"AVAILABLE","source":"ndw"}},{"type":"Feature","geometry":{"type":"Point","coordinates":[6.198681,52.269754]},"properties":{"type":"charge","layer":"passenger","locationId":"c746803e-67e4-11ea-9d4a-42010a840003","name":"NL, de Ganzeboom 144, 7433GA, Schalkhaar","address":"de Ganzeboom 144","city":"Schalkhaar","operatorName":"Allego","maxPowerKw":0,"isMegawatt":false,"status":"AVAILABLE","source":"ndw"}},{"type":"Feature","geometry":{"type":"Point","coordinates":[6.220276,52.259579]},"properties":{"type":"charge","layer":"passenger","locationId":"f5b4f35f-cf86-427c-91ae-e95311f3f6d9","name":"Johan Wagenaarlaan 89","address":"Johan Wagenaarlaan 89","city":"Deventer","operatorName":"Vattenfall InCharge","maxPowerKw":11,"isMegawatt":false,"status":"AVAILABLE","source":"ndw"}},{"type":"Feature","geometry":{"type":"Point","coordinates":[6.209522,52.246068]},"properties":{"type":"charge","layer":"passenger","locationId":"bdc93f2d-501a-4c61-8019-9330120376de","name":"Rolklaver 112","address":"Rolklaver 112","city":"Deventer","operatorName":"Vattenfall InCharge","maxPowerKw":11,"isMegawatt":false,"status":"AVAILABLE","source":"ndw"}},{"type":"Feature","geometry":{"type":"Point","coordinates":[6.227219,52.241975]},"properties":{"type":"charge","layer":"passenger","locationId":"f75d8737-1710-4bf9-992d-d6ffc35755da","name":"Carry Pothuisstraat ","address":"Carry Pothuisstraat  25","city":"Deventer","operatorName":"Vattenfall InCharge","maxPowerKw":11,"isMegawatt":false,"status":"AVAILABLE","source":"ndw"}},{"type":"Feature","geometry":{"type":"Point","coordinates":[6.154757,52.252416]},"properties":{"type":"charge","layer":"passenger","locationId":"4227437","name":"Laadnet VvE Hegius Woningen","address":"Hofstraat 24","city":"Deventer","operatorName":"Laadnet","maxPowerKw":22,"isMegawatt":false,"status":"AVAILABLE","source":"ndw"}},{"type":"Feature","geometry":{"type":"Point","coordinates":[6.154826,52.257007]},"properties":{"type":"charge","layer":"passenger","locationId":"f2d5eaa9c85440f0a55be19b81b060b9","name":"Deventer 00124 Curo Vastgoed Binnensingel ","address":"Binnensingel 3","city":"Deventer","operatorName":"Opcharge","maxPowerKw":22,"isMegawatt":false,"status":"AVAILABLE","source":"ndw"}},{"type":"Feature","geometry":{"type":"Point","coordinates":[6.165823,52.254921]},"properties":{"type":"charge","layer":"passenger","locationId":"7275ecb0-fc35-11ec-a052-42010aa40003","name":"Eneco eMobility Tauw Groep B.V. - Deventer","address":"Handelskade 37","city":"Deventer","operatorName":"Eneco","maxPowerKw":11,"isMegawatt":false,"status":"AVAILABLE","source":"ndw"}},{"type":"Feature","geometry":{"type":"Point","coordinates":[6.293897,52.247776]},"properties":{"type":"charge","layer":"passenger","locationId":"818d5d5e-5e86-467b-a345-df746b0428d4","name":"Rietakker","address":"Rietakker 13","city":"Bathmen","operatorName":"Vattenfall InCharge","maxPowerKw":11,"isMegawatt":false,"status":"AVAILABLE","source":"ndw"}},{"type":"Feature","geometry":{"type":"Point","coordinates":[6.20454,52.24975]},"properties":{"type":"charge","layer":"passenger","locationId":"2cf8bf39-f371-4976-9d71-544a9d2f84f5","name":"Piet van Donkplein","address":"Piet van Donkplein 12","city":"Deventer","operatorName":"Vattenfall InCharge","maxPowerKw":50,"isMegawatt":false,"status":"AVAILABLE","source":"ndw"}},{"type":"Feature","geometry":{"type":"Point","coordinates":[6.23323,52.262751]},"properties":{"type":"charge","layer":"passenger","locationId":"0d5f3772e33c8b508b92b29a14b8b538","name":"Abraham Rademakerstraat 41","address":"Abraham Rademakerstraat 41","city":"Deventer","operatorName":"Vattenfall InCharge","maxPowerKw":11,"isMegawatt":false,"status":"AVAILABLE","source":"ndw"}},{"type":"Feature","geometry":{"type":"Point","coordinates":[6.207663,52.255794]},"properties":{"type":"charge","layer":"passenger","locationId":"NLLOC001311","name":"NLD, Deventer, Vogelslag 48","address":"Vogelslag 48","city":"Deventer","operatorName":"Allego","maxPowerKw":0,"isMegawatt":false,"status":"AVAILABLE","source":"ndw"}},{"type":"Feature","geometry":{"type":"Point","coordinates":[6.210279,52.247594]},"properties":{"type":"charge","layer":"passenger","locationId":"NLLOC010096","name":"NL, Grote Ratelaar 141, 7422 NK, Deventer","address":"Grote Ratelaar 141","city":"Deventer","operatorName":"Allego","maxPowerKw":0,"isMegawatt":false,"status":"AVAILABLE","source":"ndw"}},{"type":"Feature","geometry":{"type":"Point","coordinates":[6.203108,52.238547]},"properties":{"type":"charge","layer":"passenger","locationId":"OST23P0005_0061_0","name":"OST23P0005_0061_0","address":"Rigastraat 18","city":"Deventer","operatorName":"e-VOLTT","maxPowerKw":0,"isMegawatt":false,"status":"AVAILABLE","source":"ndw"}},{"type":"Feature","geometry":{"type":"Point","coordinates":[6.170938,52.265619]},"properties":{"type":"charge","layer":"passenger","locationId":"04f2a5d5353e45a34b7123474e2b9760","name":"Herman Boerhaavelaan 46","address":"Herman Boerhaavelaan 46","city":"Deventer","operatorName":"Vattenfall InCharge","maxPowerKw":11,"isMegawatt":false,"status":"AVAILABLE","source":"ndw"}},{"type":"Feature","geometry":{"type":"Point","coordinates":[6.149938,52.261298]},"properties":{"type":"charge","layer":"passenger","locationId":"8b3d87cd-67cf-4d5d-8a7e-8c4e9bf10c3e","name":"Sint Jurrienstraat","address":"Sint Jurrienstraat 39","city":"Deventer","operatorName":"Vattenfall InCharge","maxPowerKw":11,"isMegawatt":false,"status":"AVAILABLE","source":"ndw"}},{"type":"Feature","geometry":{"type":"Point","coordinates":[6.167995,52.276185]},"properties":{"type":"charge","layer":"passenger","locationId":"0938a606-72af-11e9-9197-42010a840003","name":"NLD, Steven Coldeweijpad 1, Deventer","address":"Steven Coldeweijpad 1","city":"Deventer","operatorName":"Allego","maxPowerKw":0,"isMegawatt":false,"status":"AVAILABLE","source":"ndw"}},{"type":"Feature","geometry":{"type":"Point","coordinates":[6.168728,52.247175]},"properties":{"type":"charge","layer":"passenger","locationId":"3ee4a12e-1602-11e9-8d59-42010a840003","name":"NLD Meester H. F. de Boerlaan 151, 7411 AH Deventer","address":"Meester H.F. de Boerlaan 151","city":"Deventer","operatorName":"Allego","maxPowerKw":0,"isMegawatt":false,"status":"AVAILABLE","source":"ndw"}},{"type":"Feature","geometry":{"type":"Point","coordinates":[6.165233,52.257316]},"properties":{"type":"charge","layer":"passenger","locationId":"6255c6dc-6f00-11ed-b747-42010aa40fc0","name":"NL, Beestenmarkt 5c, 7413ZA, Deventer","address":"Beestenmarkt 5c","city":"Deventer","operatorName":"Allego","maxPowerKw":0,"isMegawatt":false,"status":"AVAILABLE","source":"ndw"}},{"type":"Feature","geometry":{"type":"Point","coordinates":[6.159004,52.264641]},"properties":{"type":"charge","layer":"passenger","locationId":"NLLOC007238","name":"NL, Ceintuurbaan 46, 7415 AM, Deventer","address":"Ceintuurbaan 46","city":"Deventer","operatorName":"Allego","maxPowerKw":0,"isMegawatt":false,"status":"AVAILABLE","source":"ndw"}},{"type":"Feature","geometry":{"type":"Point","coordinates":[6.179259,52.240716]},"properties":{"type":"charge","layer":"passenger","locationId":"3f226d8e-fc35-11ec-8e56-42010aa40fc7","name":"Eneco eMobility Visbystraat 5 Deventer","address":"Visbystraat 5","city":"Deventer","operatorName":"Eneco","maxPowerKw":0,"isMegawatt":false,"status":"AVAILABLE","source":"ndw"}},{"type":"Feature","geometry":{"type":"Point","coordinates":[6.22704,52.242578]},"properties":{"type":"charge","layer":"passenger","locationId":"89932c95-be39-45ba-be24-b2f3f6684686","name":"Wilhelmina Druckerstraat","address":"Wilhelmina Druckerstraat 55","city":"Deventer","operatorName":"Vattenfall InCharge","maxPowerKw":11,"isMegawatt":false,"status":"AVAILABLE","source":"ndw"}},{"type":"Feature","geometry":{"type":"Point","coordinates":[6.19088,52.24346]},"properties":{"type":"charge","layer":"passenger","locationId":"f921117c-fc35-11ec-b8f8-42010aa40070","name":"Eneco eMobility Broekhuis Peugeot-Citroën Deventer","address":"Dortmundstraat 4","city":"Deventer","operatorName":"Eneco","maxPowerKw":0,"isMegawatt":false,"status":"AVAILABLE","source":"ndw"}},{"type":"Feature","geometry":{"type":"Point","coordinates":[6.156158,52.260268]},"properties":{"type":"charge","layer":"passenger","locationId":"d4f71220-995c-4505-b087-f0f075fff4e5","name":"Enkstraat 7","address":"Enkstraat 7","city":"Deventer","operatorName":"Vattenfall InCharge","maxPowerKw":11,"isMegawatt":false,"status":"AVAILABLE","source":"ndw"}},{"type":"Feature","geometry":{"type":"Point","coordinates":[6.163593,52.265834]},"properties":{"type":"charge","layer":"passenger","locationId":"d8fba8be-3eb1-4fa0-a9fb-c997becbc45e","name":"Putmanstraat 54","address":"Putmanstraat 54","city":"Deventer","operatorName":"Vattenfall InCharge","maxPowerKw":11,"isMegawatt":false,"status":"AVAILABLE","source":"ndw"}},{"type":"Feature","geometry":{"type":"Point","coordinates":[6.182278,52.23878]},"properties":{"type":"charge","layer":"passenger","locationId":"663a2d1c039c57001c85aeb1","name":"Appelhof 2","address":"munsterstraat 26","city":"Deventer","operatorName":"E-Flux by Road","maxPowerKw":11,"isMegawatt":false,"status":"AVAILABLE","source":"ndw"}},{"type":"Feature","geometry":{"type":"Point","coordinates":[6.18819,52.239053]},"properties":{"type":"charge","layer":"passenger","locationId":"07523df4-594f-11ed-9644-42010aa40fc0","name":"Eneco eMobility 1618 Vastgoed CV","address":"Keulenstraat 18","city":"Deventer","operatorName":"Eneco","maxPowerKw":22,"isMegawatt":false,"status":"AVAILABLE","source":"ndw"}},{"type":"Feature","geometry":{"type":"Point","coordinates":[6.177948,52.236089]},"properties":{"type":"charge","layer":"passenger","locationId":"7901ec5f-a86f-451a-be29-c09904529e2a","name":"Deventerweg","address":"Deventerweg 121 A","city":"Deventer","operatorName":"Vattenfall InCharge","maxPowerKw":50,"isMegawatt":false,"status":"AVAILABLE","source":"ndw"}},{"type":"Feature","geometry":{"type":"Point","coordinates":[6.16006,52.262571]},"properties":{"type":"charge","layer":"passenger","locationId":"6bc118e8442df94cd3122da31f8f3316","name":"President Steynstraat 26","address":"President Steynstraat 26","city":"Deventer","operatorName":"Vattenfall InCharge","maxPowerKw":11,"isMegawatt":false,"status":"AVAILABLE","source":"ndw"}},{"type":"Feature","geometry":{"type":"Point","coordinates":[6.169678,52.262431]},"properties":{"type":"charge","layer":"passenger","locationId":"f4ceeb4b4748cc255cc21a5799dd1936","name":"H.J.Ph. Fesevurstraat 33","address":"H.J.Ph. Fesevurstraat 33","city":"Deventer","operatorName":"Vattenfall InCharge","maxPowerKw":11,"isMegawatt":false,"status":"AVAILABLE","source":"ndw"}},{"type":"Feature","geometry":{"type":"Point","coordinates":[6.225129,52.261645]},"properties":{"type":"charge","layer":"passenger","locationId":"NLLOC003321","name":"NLD, Brandts Buyspark 73, Deventer 7425GG","address":"Brandts Buyspark 73","city":"Deventer","operatorName":"Allego","maxPowerKw":0,"isMegawatt":false,"status":"AVAILABLE","source":"ndw"}},{"type":"Feature","geometry":{"type":"Point","coordinates":[6.137931,52.275086]},"properties":{"type":"charge","layer":"passenger","locationId":"NLLOC005248","name":"NLD, Nijenhofgaarde 2, 7414WG, Deventer","address":"Nijhoffgaarde 2","city":"Deventer","operatorName":"Allego","maxPowerKw":0,"isMegawatt":false,"status":"AVAILABLE","source":"ndw"}},{"type":"Feature","geometry":{"type":"Point","coordinates":[6.153948,52.264685]},"properties":{"type":"charge","layer":"passenger","locationId":"NLLOC007135","name":"NL, Boxbergerweg 176, 7413 EM, Deventer","address":"Boxbergerweg 176","city":"Deventer","operatorName":"Allego","maxPowerKw":0,"isMegawatt":false,"status":"AVAILABLE","source":"ndw"}},{"type":"Feature","geometry":{"type":"Point","coordinates":[6.16564,52.25262]},"properties":{"type":"charge","layer":"passenger","locationId":"1a4904fc-c1a6-11f0-94dd-42010aa400b8","name":"Q-Park Deventer De Boreel","address":"Boreelplein 45","city":"Deventer","operatorName":"Q-Park Netherlands","maxPowerKw":11,"isMegawatt":false,"status":"AVAILABLE","source":"ndw"}},{"type":"Feature","geometry":{"type":"Point","coordinates":[6.158968,52.254747]},"properties":{"type":"charge","layer":"passenger","locationId":"6272291b2aa688afe2ed2f42","name":"Centrumgarage Deventer","address":"Op de Keizer 1","city":"Deventer","operatorName":"E-Flux by Road","maxPowerKw":11,"isMegawatt":false,"status":"AVAILABLE","source":"ndw"}},{"type":"Feature","geometry":{"type":"Point","coordinates":[6.232649,52.264381]},"properties":{"type":"charge","layer":"passenger","locationId":"66d85248289bf2001ca24f71","name":"Zorggroep solis - MC Escher","address":"M.C. Escherweg 2","city":"Deventer","operatorName":"Pluq","maxPowerKw":22,"isMegawatt":false,"status":"AVAILABLE","source":"ndw"}},{"type":"Feature","geometry":{"type":"Point","coordinates":[6.20028,52.2337]},"properties":{"type":"charge","layer":"passenger","locationId":"5d26876a-6d49-11f0-83fd-42010aa400b8","name":"Porsche Sales & Marketplace PC Twente Charge Point 2","address":"Birnieweg 11","city":"Deventer","operatorName":"Porsche Sales & Marketplace","maxPowerKw":0,"isMegawatt":false,"status":"AVAILABLE","source":"ndw"}},{"type":"Feature","geometry":{"type":"Point","coordinates":[6.199787,52.240722]},"properties":{"type":"charge","layer":"passenger","locationId":"691337ad5322b96d5c16bc9d","name":"Stef Broeks 's station","address":"Koningsbergenstraat 4","city":"Deventer","operatorName":"E-Flux by Road","maxPowerKw":11,"isMegawatt":false,"status":"AVAILABLE","source":"ndw"}},{"type":"Feature","geometry":{"type":"Point","coordinates":[6.214033,52.263626]},"properties":{"type":"charge","layer":"passenger","locationId":"ac73ce1d2b45b05a87f0c894fb8b7e78","name":"Vincent van Goghstraat 52","address":"Vincent van Goghstraat 52","city":"Deventer","operatorName":"Vattenfall InCharge","maxPowerKw":11,"isMegawatt":false,"status":"AVAILABLE","source":"ndw"}},{"type":"Feature","geometry":{"type":"Point","coordinates":[6.286123,52.249945]},"properties":{"type":"charge","layer":"passenger","locationId":"6667c188-0ae3-4f11-aad0-f90c821de530","name":"Schoolstraat","address":"Schoolstraat 7","city":"Bathmen","operatorName":"Vattenfall InCharge","maxPowerKw":11,"isMegawatt":false,"status":"AVAILABLE","source":"ndw"}},{"type":"Feature","geometry":{"type":"Point","coordinates":[6.209657,52.255744]},"properties":{"type":"charge","layer":"passenger","locationId":"a147b8203d99d3cbd79af13b773c694e","name":"Koperwiek 29","address":"Koperwiek 29","city":"Deventer","operatorName":"Vattenfall InCharge","maxPowerKw":11,"isMegawatt":false,"status":"AVAILABLE","source":"ndw"}},{"type":"Feature","geometry":{"type":"Point","coordinates":[6.203393,52.250728]},"properties":{"type":"charge","layer":"passenger","locationId":"NLLOC015302","name":"NL, Atalanta 76, 7423GB Deventer","address":"Atalanta 76","city":"Deventer","operatorName":"Allego","maxPowerKw":0,"isMegawatt":false,"status":"AVAILABLE","source":"ndw"}},{"type":"Feature","geometry":{"type":"Point","coordinates":[6.15012,52.25028]},"properties":{"type":"charge","layer":"passenger","locationId":"a0c9419abc674c2d98b5135d3020a785","name":"Deventer - Pillows Hotel ","address":"Worp 2","city":"Deventer","operatorName":"Opcharge","maxPowerKw":22,"isMegawatt":false,"status":"AVAILABLE","source":"ndw"}},{"type":"Feature","geometry":{"type":"Point","coordinates":[6.14439,52.265115]},"properties":{"type":"charge","layer":"passenger","locationId":"3b433f90-934a-11eb-8b02-42010a840003","name":"NL, Zwolseweg 158, 7412 AS Deventer","address":"Zwolseweg 158","city":"Deventer","operatorName":"Allego","maxPowerKw":0,"isMegawatt":false,"status":"AVAILABLE","source":"ndw"}},{"type":"Feature","geometry":{"type":"Point","coordinates":[6.136792,52.27043]},"properties":{"type":"charge","layer":"passenger","locationId":"497f72b4-6b09-11ea-9fd0-42010a840003","name":"NL, De Deckerstraat 1, 7412NL, Deventer","address":"De Deckerstraat 1","city":"Deventer","operatorName":"Allego","maxPowerKw":0,"isMegawatt":false,"status":"AVAILABLE","source":"ndw"}},{"type":"Feature","geometry":{"type":"Point","coordinates":[6.140734,52.275647]},"properties":{"type":"charge","layer":"passenger","locationId":"5c7329ba-5376-11ea-aa0f-42010a840003","name":"NL, Marsmangaarde 100, 7414 XE, Deventer","address":"Marsmangaarde 100","city":"Deventer","operatorName":"Allego","maxPowerKw":0,"isMegawatt":false,"status":"AVAILABLE","source":"ndw"}},{"type":"Feature","geometry":{"type":"Point","coordinates":[6.188299,52.238311]},"properties":{"type":"charge","layer":"passenger","locationId":"6be6f4b1b91745f1bd0f3e9ba33fb448","name":"Deventer - ER Capital","address":"Keulenstraat 19","city":"Deventer","operatorName":"Opcharge","maxPowerKw":22,"isMegawatt":false,"status":"AVAILABLE","source":"ndw"}},{"type":"Feature","geometry":{"type":"Point","coordinates":[6.134865,52.268112]},"properties":{"type":"charge","layer":"passenger","locationId":"add5a3062622d447dcc71e477c7cbe78","name":"Zandweerdtuinen 4","address":"Zandweerdtuinen 4","city":"Deventer","operatorName":"Vattenfall InCharge","maxPowerKw":11,"isMegawatt":false,"status":"AVAILABLE","source":"ndw"}},{"type":"Feature","geometry":{"type":"Point","coordinates":[6.219717,52.261807]},"properties":{"type":"charge","layer":"passenger","locationId":"d1fad14a-a6b1-11ea-8e6d-42010a840003","name":"NL, Andries Vierlingweg 14, 7424 AL, Deventer","address":"Andries Vierlingweg 14","city":"Deventer","operatorName":"Allego","maxPowerKw":0,"isMegawatt":false,"status":"AVAILABLE","source":"ndw"}},{"type":"Feature","geometry":{"type":"Point","coordinates":[6.171779,52.262384]},"properties":{"type":"charge","layer":"passenger","locationId":"8aa5c300-4f3c-11e8-8591-42010a840002","name":"NLD, Deventer, G. Westenbergstraat 10","address":"G. Westenbergstraat 10","city":"Deventer","operatorName":"Allego","maxPowerKw":0,"isMegawatt":false,"status":"AVAILABLE","source":"ndw"}},{"type":"Feature","geometry":{"type":"Point","coordinates":[6.201285,52.263466]},"properties":{"type":"charge","layer":"passenger","locationId":"b45acdd6-d54d-11eb-aa6c-42010a840003","name":"NL, Rondekamp 4, 7433 SJ Schalkhaar","address":"Rondekamp 4","city":"Schalkhaar","operatorName":"Allego","maxPowerKw":0,"isMegawatt":false,"status":"AVAILABLE","source":"ndw"}},{"type":"Feature","geometry":{"type":"Point","coordinates":[6.297144,52.249144]},"properties":{"type":"charge","layer":"passenger","locationId":"b9d4e098-4f3c-11e8-af99-42010a840002","name":"NLD, Koningin Wilhelminalaan 12, 7437 XS, Bathmen","address":"Koningin Wilhelminalaan 12","city":"Bathmen","operatorName":"Allego","maxPowerKw":0,"isMegawatt":false,"status":"AVAILABLE","source":"ndw"}},{"type":"Feature","geometry":{"type":"Point","coordinates":[6.158865,52.259181]},"properties":{"type":"charge","layer":"passenger","locationId":"d5e6b03e-4875-11ea-b93f-42010a840003","name":"NL, Diepenveenseweg 76, 7413AS, Deventer","address":"Diepenveenseweg 76","city":"Deventer","operatorName":"Allego","maxPowerKw":0,"isMegawatt":false,"status":"AVAILABLE","source":"ndw"}},{"type":"Feature","geometry":{"type":"Point","coordinates":[6.20068,52.24712]},"properties":{"type":"charge","layer":"passenger","locationId":"989940164b4d4c1bb59010b52ab21a3a","name":"DMG - Revalstraat 1, Deventer","address":"Revalstraat 1","city":"Deventer","operatorName":"Opcharge","maxPowerKw":22,"isMegawatt":false,"status":"AVAILABLE","source":"ndw"}},{"type":"Feature","geometry":{"type":"Point","coordinates":[6.207302,52.249609]},"properties":{"type":"charge","layer":"passenger","locationId":"2c1c3ffd-ea18-4dd8-b51b-284a4dbfb075","name":"Tango Deventer PVD 1-2-3","address":"Piet Van Donkplein 3","city":"Deventer","operatorName":"Tango electric","maxPowerKw":200,"isMegawatt":false,"status":"AVAILABLE","source":"ndw"}},{"type":"Feature","geometry":{"type":"Point","coordinates":[6.199153,52.242672]},"properties":{"type":"charge","layer":"passenger","locationId":"78ea2194eecb4df587d9","name":"IClean Deventer","address":"Rostockstraat 2","city":"Deventer","operatorName":"Opcharge","maxPowerKw":50,"isMegawatt":false,"status":"AVAILABLE","source":"ndw"}},{"type":"Feature","geometry":{"type":"Point","coordinates":[6.133089,52.263415]},"properties":{"type":"charge","layer":"passenger","locationId":"1708c8d0-493f-11ea-9f2f-42010a840003","name":"NL, Rembrandtkade 33, 7412HC, Deventer","address":"Rembrandtkade 33","city":"Deventer","operatorName":"Allego","maxPowerKw":0,"isMegawatt":false,"status":"AVAILABLE","source":"ndw"}},{"type":"Feature","geometry":{"type":"Point","coordinates":[6.144185,52.248252]},"properties":{"type":"charge","layer":"passenger","locationId":"812ab72c-4f3c-11e8-a101-42010a840002","name":"NLD, Deventer, Rozenstraat 79","address":"Rozenstraat 79","city":"Deventer","operatorName":"Allego","maxPowerKw":0,"isMegawatt":false,"status":"AVAILABLE","source":"ndw"}},{"type":"Feature","geometry":{"type":"Point","coordinates":[6.14664,52.258272]},"properties":{"type":"charge","layer":"passenger","locationId":"825b9e5e-4f3c-11e8-a76d-42010a840002","name":"NLD, Deventer, Lange Zandstraat 18","address":"Lange Zandstraat 18","city":"Deventer","operatorName":"Allego","maxPowerKw":0,"isMegawatt":false,"status":"AVAILABLE","source":"ndw"}},{"type":"Feature","geometry":{"type":"Point","coordinates":[6.217999,52.248005]},"properties":{"type":"charge","layer":"passenger","locationId":"8d5c520e-b61b-11ec-8241-42010a840003","name":"NL, Salomonszegel 6, 7422 LK Deventer","address":"Salomonszegel 6","city":"Deventer","operatorName":"Allego","maxPowerKw":0,"isMegawatt":false,"status":"CHARGING","source":"ndw"}},{"type":"Feature","geometry":{"type":"Point","coordinates":[6.16702,52.26121]},"properties":{"type":"charge","layer":"passenger","locationId":"b336a5c0-b7fc-11ea-8348-42010a840003","name":"NL, Ceintuurbaan 9, 7413 DA Deventer","address":"Ceintuurbaan 9","city":"Deventer","operatorName":"Allego","maxPowerKw":0,"isMegawatt":false,"status":"AVAILABLE","source":"ndw"}},{"type":"Feature","geometry":{"type":"Point","coordinates":[6.156585,52.262943]},"properties":{"type":"charge","layer":"passenger","locationId":"b54652c8-4f3c-11e8-9dc3-42010a840002","name":"NLD, Diepenveenseweg 136, 7413 AV Deventer","address":"Diepenveenseweg 136","city":"Deventer","operatorName":"Allego","maxPowerKw":0,"isMegawatt":false,"status":"AVAILABLE","source":"ndw"}},{"type":"Feature","geometry":{"type":"Point","coordinates":[6.227445,52.263687]},"properties":{"type":"charge","layer":"passenger","locationId":"bcbd8fa6-1d3c-11ea-bf33-42010a840003","name":"NLD, Bernard van Dierenhof 37, 7425 HN Deventer","address":"Bernard van Dierenhof 37","city":"Deventer","operatorName":"Allego","maxPowerKw":0,"isMegawatt":false,"status":"AVAILABLE","source":"ndw"}},{"type":"Feature","geometry":{"type":"Point","coordinates":[6.137931,52.275086]},"properties":{"type":"charge","layer":"passenger","locationId":"d77d643c-f457-11e9-ac6b-42010a840003","name":"NLD, Nijenhofgaarde 2, 7414WG, Deventer","address":"Nijhoffgaarde 2","city":"Deventer","operatorName":"Allego","maxPowerKw":0,"isMegawatt":false,"status":"CHARGING","source":"ndw"}},{"type":"Feature","geometry":{"type":"Point","coordinates":[6.173058,52.259374]},"properties":{"type":"charge","layer":"passenger","locationId":"d905e4ca-1c33-11ee-90b7-42010aa40fc0","name":"NL, Hof van Colmschate 2, 7416 XS Deventer","address":"Hof van Colmschate 2","city":"Deventer","operatorName":"Allego","maxPowerKw":0,"isMegawatt":false,"status":"AVAILABLE","source":"ndw"}},{"type":"Feature","geometry":{"type":"Point","coordinates":[6.131375,52.266334]},"properties":{"type":"charge","layer":"passenger","locationId":"0f12b74d-28ad-424d-b1d7-6b330b8c3ca6","name":"Stien Kaiserstraat  1","address":"Stien Kaiserstraat  1","city":"Deventer","operatorName":"Vattenfall InCharge","maxPowerKw":11,"isMegawatt":false,"status":"AVAILABLE","source":"ndw"}},{"type":"Feature","geometry":{"type":"Point","coordinates":[6.152145,52.256363]},"properties":{"type":"charge","layer":"passenger","locationId":"NLLOC000062","name":"NLD, Deventer Parkeergarage Stadspoort, Binnensingel 6","address":"Binnensingel 6","city":"Deventer","operatorName":"Allego","maxPowerKw":0,"isMegawatt":false,"status":"AVAILABLE","source":"ndw"}},{"type":"Feature","geometry":{"type":"Point","coordinates":[6.206979,52.253043]},"properties":{"type":"charge","layer":"passenger","locationId":"cd0fbad6-9e7f-44e7-b084-b43f0558b328","name":"Toutenburg","address":"Toutenburg 401","city":"Deventer","operatorName":"Vattenfall InCharge","maxPowerKw":11,"isMegawatt":false,"status":"AVAILABLE","source":"ndw"}},{"type":"Feature","geometry":{"type":"Point","coordinates":[6.171946,52.243016]},"properties":{"type":"charge","layer":"passenger","locationId":"4227463","name":"Laadnet GasHub","address":"Zutphenseweg 23","city":"Deventer","operatorName":"Laadnet","maxPowerKw":22,"isMegawatt":false,"status":"CHARGING","source":"ndw"}},{"type":"Feature","geometry":{"type":"Point","coordinates":[6.210897,52.238595]},"properties":{"type":"charge","layer":"passenger","locationId":"c3a30288-7e5c-11f0-998a-42010aa40043","name":"Tango Deventer Siemelinksweg 51-52","address":"Siemelinksweg 25","city":"Deventer","operatorName":"Tango electric","maxPowerKw":22,"isMegawatt":false,"status":"AVAILABLE","source":"ndw"}},{"type":"Feature","geometry":{"type":"Point","coordinates":[6.175815,52.247009]},"properties":{"type":"charge","layer":"passenger","locationId":"785671","name":"Vastgoedmaatschap Bogert Hanzeweg 20-26 Deventer","address":"Hanzeweg 20","city":"Deventer","operatorName":"Laadnet","maxPowerKw":22,"isMegawatt":false,"status":"AVAILABLE","source":"ndw"}},{"type":"Feature","geometry":{"type":"Point","coordinates":[6.205233,52.239778]},"properties":{"type":"charge","layer":"passenger","locationId":"923034","name":"191_DAE_NL_2000761","address":"Rigastraat 17","city":"Deventer","operatorName":"DAEN Mobility","maxPowerKw":11,"isMegawatt":false,"status":"AVAILABLE","source":"ndw"}},{"type":"Feature","geometry":{"type":"Point","coordinates":[6.190631,52.261399]},"properties":{"type":"charge","layer":"passenger","locationId":"657c2a37fcaae6001c79ee51","name":"Deventer Ziekenhuis Parkeergarage","address":"Nico Bolkesteinlaan 75","city":"Deventer","operatorName":"E-Flux by Road","maxPowerKw":22,"isMegawatt":false,"status":"AVAILABLE","source":"ndw"}},{"type":"Feature","geometry":{"type":"Point","coordinates":[6.141601,52.271036]},"properties":{"type":"charge","layer":"passenger","locationId":"3f1df438-bf7c-11ed-aaa2-42010aa40fc0","name":"NL, Willem Kloosstraat 43, 7412 CR Deventer","address":"Willem Kloosstraat 43","city":"Deventer","operatorName":"Allego","maxPowerKw":0,"isMegawatt":false,"status":"AVAILABLE","source":"ndw"}},{"type":"Feature","geometry":{"type":"Point","coordinates":[6.21646,52.250277]},"properties":{"type":"charge","layer":"passenger","locationId":"NLLOC006867","name":"NL, Koggeschip 150, 7429BH, Colmschate","address":"Koggeschip 150","city":"Colmschate","operatorName":"Allego","maxPowerKw":0,"isMegawatt":false,"status":"AVAILABLE","source":"ndw"}},{"type":"Feature","geometry":{"type":"Point","coordinates":[6.155424,52.274767]},"properties":{"type":"charge","layer":"passenger","locationId":"5ecec104-0b28-11ec-ba77-42010a840003","name":"NL, Laan van Borgele 115, 7414GT, Deventer","address":"Laan van Borgele 115","city":"Deventer","operatorName":"Allego","maxPowerKw":0,"isMegawatt":false,"status":"AVAILABLE","source":"ndw"}},{"type":"Feature","geometry":{"type":"Point","coordinates":[6.165501,52.262821]},"properties":{"type":"charge","layer":"passenger","locationId":"74476466-9349-11eb-a51a-42010a840003","name":"NL, Gooszenhof, 22, 7415CZ, Deventer","address":"Gooszenhof 22","city":"Deventer","operatorName":"Allego","maxPowerKw":0,"isMegawatt":false,"status":"AVAILABLE","source":"ndw"}},{"type":"Feature","geometry":{"type":"Point","coordinates":[6.152431,52.261908]},"properties":{"type":"charge","layer":"passenger","locationId":"ad5475ee-c2a1-11ed-8453-42010aa40fc0","name":"NL, Boxbergerweg 138, 7413 EL Deventer","address":"Boxbergerweg 138","city":"Deventer","operatorName":"Allego","maxPowerKw":0,"isMegawatt":false,"status":"AVAILABLE","source":"ndw"}},{"type":"Feature","geometry":{"type":"Point","coordinates":[6.230569,52.26544]},"properties":{"type":"charge","layer":"passenger","locationId":"168f1b5e-ec7c-11e9-8fbc-42010a840003","name":"NLD, S.H. de Roosstraat 1, 7425RD, Deventer","address":"S.H. de Roosstraat 1","city":"Deventer","operatorName":"Allego","maxPowerKw":0,"isMegawatt":false,"status":"AVAILABLE","source":"ndw"}},{"type":"Feature","geometry":{"type":"Point","coordinates":[6.187949,52.237133]},"properties":{"type":"charge","layer":"passenger","locationId":"4122792","name":"Laadnet Facto Geo","address":"Keulenstraat 17","city":"Deventer","operatorName":"Laadnet","maxPowerKw":22,"isMegawatt":false,"status":"AVAILABLE","source":"ndw"}},{"type":"Feature","geometry":{"type":"Point","coordinates":[6.168608,52.249998]},"properties":{"type":"charge","layer":"passenger","locationId":"9ca67f9f-fad9-403a-a462-c26163982cbf","name":"Teugseplein","address":"Teugseplein 1","city":"Deventer","operatorName":"Vattenfall InCharge","maxPowerKw":11,"isMegawatt":false,"status":"AVAILABLE","source":"ndw"}},{"type":"Feature","geometry":{"type":"Point","coordinates":[6.14429,52.261187]},"properties":{"type":"charge","layer":"passenger","locationId":"c72b7276-67e4-11ea-b4d3-42010a840003","name":"NL, 1e Weerdsweg 69a, 7412 WV, Deventer","address":"1e Weerdsweg 69a","city":"Deventer","operatorName":"Allego","maxPowerKw":0,"isMegawatt":false,"status":"CHARGING","source":"ndw"}},{"type":"Feature","geometry":{"type":"Point","coordinates":[6.233208,52.266329]},"properties":{"type":"charge","layer":"passenger","locationId":"fd3dde5a-1ddd-11e9-b206-42010a840003","name":"NLD, Bé van den Doolstraat 1, 7425RR, Deventer","address":"Bé van den Doolstraat 1","city":"Deventer","operatorName":"Allego","maxPowerKw":0,"isMegawatt":false,"status":"AVAILABLE","source":"ndw"}},{"type":"Feature","geometry":{"type":"Point","coordinates":[6.161838,52.25013]},"properties":{"type":"charge","layer":"passenger","locationId":"NLLOC003629","name":"NLD, Emmastraat 1, Deventer","address":"Emmastraat 1","city":"Deventer","operatorName":"Allego","maxPowerKw":0,"isMegawatt":false,"status":"AVAILABLE","source":"ndw"}},{"type":"Feature","geometry":{"type":"Point","coordinates":[6.210277,52.233431]},"properties":{"type":"charge","layer":"passenger","locationId":"331a4069-bbdc-4bb8-bb94-09a58271ea1d","name":"Deventer, Netherlands","address":"4, Birnieweg","city":"Deventer","operatorName":"Tesla","maxPowerKw":250,"isMegawatt":false,"status":"AVAILABLE","source":"ndw"}},{"type":"Feature","geometry":{"type":"Point","coordinates":[6.19088,52.24346]},"properties":{"type":"charge","layer":"passenger","locationId":"FA0F01D2-2454-46BC-AE32-9CB2030CE7D0","name":"Eneco eMobility Broekhuis Peugeot-Citroën Deventer","address":"Dortmundstraat 4","city":"Deventer","operatorName":"Eneco","maxPowerKw":0,"isMegawatt":false,"status":"AVAILABLE","source":"ndw"}},{"type":"Feature","geometry":{"type":"Point","coordinates":[6.214434,52.266499]},"properties":{"type":"charge","layer":"passenger","locationId":"6442a1d32ccd1800122c03ab","name":"Wout van Dieren 's station","address":"Willem Roelofsstraat 49","city":"Deventer","operatorName":"E-Flux by Road","maxPowerKw":11,"isMegawatt":false,"status":"AVAILABLE","source":"ndw"}},{"type":"Feature","geometry":{"type":"Point","coordinates":[6.219844,52.257759]},"properties":{"type":"charge","layer":"passenger","locationId":"00a510f6-bf7c-11ed-bab4-42010aa40fc0","name":"NL, Baandersweg 16, 7425 BA Deventer","address":"Baandersweg 16","city":"Deventer","operatorName":"Allego","maxPowerKw":0,"isMegawatt":false,"status":"AVAILABLE","source":"ndw"}},{"type":"Feature","geometry":{"type":"Point","coordinates":[6.168866,52.271557]},"properties":{"type":"charge","layer":"passenger","locationId":"3eac96a8-1602-11e9-9d8d-42010a840003","name":"NLD, Koningin Julianastraat 94, 7415 GN Deventer","address":"Koningin Julianastraat 94","city":"Deventer","operatorName":"Allego","maxPowerKw":0,"isMegawatt":false,"status":"CHARGING","source":"ndw"}},{"type":"Feature","geometry":{"type":"Point","coordinates":[6.176518,52.236442]},"properties":{"type":"charge","layer":"passenger","locationId":"9683d6f8-4f3c-11e8-af4b-42010a840002","name":"Allego - Postillion Deventer A1","address":"Deventerweg 121","city":"Deventer","operatorName":"Allego","maxPowerKw":0,"isMegawatt":false,"status":"AVAILABLE","source":"ndw"}},{"type":"Feature","geometry":{"type":"Point","coordinates":[6.173774,52.256933]},"properties":{"type":"charge","layer":"passenger","locationId":"fde42706-1ddd-11e9-861f-42010a840003","name":"NLD, Frits Drijverstraat 11, 7416 WB, Deventer","address":"Frits Drijverstraat 11","city":"Deventer","operatorName":"Allego","maxPowerKw":0,"isMegawatt":false,"status":"AVAILABLE","source":"ndw"}},{"type":"Feature","geometry":{"type":"Point","coordinates":[6.219717,52.261807]},"properties":{"type":"charge","layer":"passenger","locationId":"NLLOC006391","name":"NL, Andries Vierlingweg 14, 7424 AL, Deventer","address":"Andries Vierlingweg 14","city":"Deventer","operatorName":"Allego","maxPowerKw":0,"isMegawatt":false,"status":"AVAILABLE","source":"ndw"}},{"type":"Feature","geometry":{"type":"Point","coordinates":[6.210897,52.238595]},"properties":{"type":"charge","layer":"passenger","locationId":"a1d43187-a053-425c-8a52-95c5ff90630d","name":"Tango Deventer Siemelinksweg 51-52","address":"Siemelinksweg 25","city":"Deventer","operatorName":"Tango electric","maxPowerKw":22,"isMegawatt":false,"status":"AVAILABLE","source":"ndw"}},{"type":"Feature","geometry":{"type":"Point","coordinates":[6.152189,52.273063]},"properties":{"type":"charge","layer":"passenger","locationId":"NLLOC024279","name":"NL, Arkelstein 29T, 7414 EP Deventer","address":"Arkelstein 29","city":"Deventer","operatorName":"Allego","maxPowerKw":0,"isMegawatt":false,"status":"AVAILABLE","source":"ndw"}},{"type":"Feature","geometry":{"type":"Point","coordinates":[6.190599,52.260533]},"properties":{"type":"charge","layer":"passenger","locationId":"608ffa7cd15c8c260aabffa0","name":"Deventer Ziekenhuis  Parkeerterrein","address":"Nico Bolkesteinlaan 75","city":"DEVENTER","operatorName":"E-Flux by Road","maxPowerKw":22,"isMegawatt":false,"status":"CHARGING","source":"ndw"}},{"type":"Feature","geometry":{"type":"Point","coordinates":[6.16903,52.269546]},"properties":{"type":"charge","layer":"passenger","locationId":"NLLOC003549","name":"NLD, Koningin Wilhelminalaan 13 A, 7415 KP, Deventer","address":"Koningin Wilhelminalaan 13 A","city":"Deventer","operatorName":"Allego","maxPowerKw":0,"isMegawatt":false,"status":"AVAILABLE","source":"ndw"}},{"type":"Feature","geometry":{"type":"Point","coordinates":[6.140131,52.273604]},"properties":{"type":"charge","layer":"passenger","locationId":"2c5a18c8-917a-11ea-a019-42010a840003","name":"NL, Boutensgaarde 7, 7414WD, Deventer","address":"Boutensgaarde 7","city":"Deventer","operatorName":"Allego","maxPowerKw":0,"isMegawatt":false,"status":"AVAILABLE","source":"ndw"}},{"type":"Feature","geometry":{"type":"Point","coordinates":[6.146369,52.261884]},"properties":{"type":"charge","layer":"passenger","locationId":"8a7d2b84-4f3c-11e8-b67f-42010a840002","name":"NLD, Deventer, Florens Radewijnszstraat 1","address":"Florens Radewijnszstraat 1","city":"Deventer","operatorName":"Allego","maxPowerKw":0,"isMegawatt":false,"status":"AVAILABLE","source":"ndw"}},{"type":"Feature","geometry":{"type":"Point","coordinates":[6.163308,52.253872]},"properties":{"type":"charge","layer":"passenger","locationId":"9214b542-d3b9-11eb-8d4a-42010a840003","name":"NL, Pikeursbaan 62, 7411GW, Deventer","address":"Pikeursbaan 62","city":"Deventer","operatorName":"Allego","maxPowerKw":0,"isMegawatt":false,"status":"AVAILABLE","source":"ndw"}},{"type":"Feature","geometry":{"type":"Point","coordinates":[6.144891,52.286544]},"properties":{"type":"charge","layer":"passenger","locationId":"e10c04f8-1324-11eb-bed5-42010a840033","name":"NL, Wethouder Veldwachterhof 12, 7431 ES, Diepenveen","address":"Wethouder Veldwachterhof 12","city":"Diepenveen","operatorName":"Allego","maxPowerKw":0,"isMegawatt":false,"status":"AVAILABLE","source":"ndw"}},{"type":"Feature","geometry":{"type":"Point","coordinates":[6.225491,52.241472]},"properties":{"type":"charge","layer":"passenger","locationId":"070b1294-609c-11e9-addf-42010a840003","name":"NLD, Annette Versluysstraat 2 7421LB Deventer","address":"Annette Versluysstraat 2","city":"Deventer","operatorName":"Allego","maxPowerKw":0,"isMegawatt":false,"status":"AVAILABLE","source":"ndw"}},{"type":"Feature","geometry":{"type":"Point","coordinates":[6.21646,52.250277]},"properties":{"type":"charge","layer":"passenger","locationId":"1ca30bac-79f0-11ea-8843-42010a840003","name":"NL, Koggeschip 150, 7429BH, Colmschate","address":"Koggeschip 150","city":"Colmschate","operatorName":"Allego","maxPowerKw":0,"isMegawatt":false,"status":"AVAILABLE","source":"ndw"}},{"type":"Feature","geometry":{"type":"Point","coordinates":[6.161838,52.25013]},"properties":{"type":"charge","layer":"passenger","locationId":"3ed0d784-4f5f-11e9-871b-42010a840003","name":"NLD, Emmastraat 1, Deventer","address":"Emmastraat 1","city":"Deventer","operatorName":"Allego","maxPowerKw":0,"isMegawatt":false,"status":"AVAILABLE","source":"ndw"}},{"type":"Feature","geometry":{"type":"Point","coordinates":[6.218617,52.26566]},"properties":{"type":"charge","layer":"passenger","locationId":"92082db6-c9b4-11ed-8d4e-42010aa40fc0","name":"NL, Johannes Broekhuysenstraat 18, 7424 GT Deventer","address":"Johannes Broekhuysenstraat 18","city":"Deventer","operatorName":"Allego","maxPowerKw":0,"isMegawatt":false,"status":"AVAILABLE","source":"ndw"}},{"type":"Feature","geometry":{"type":"Point","coordinates":[6.20028,52.2337]},"properties":{"type":"charge","layer":"passenger","locationId":"NL9110000404_CPN02","name":"Porsche Sales & Marketplace PC Twente Charge Point 2","address":"Birnieweg 11","city":"Deventer","operatorName":"Porsche Sales & Marketplace","maxPowerKw":0,"isMegawatt":false,"status":"AVAILABLE","source":"ndw"}},{"type":"Feature","geometry":{"type":"Point","coordinates":[6.140734,52.275647]},"properties":{"type":"charge","layer":"passenger","locationId":"NLLOC007385","name":"NL, Marsmangaarde 100, 7414 XE, Deventer","address":"Marsmangaarde 100","city":"Deventer","operatorName":"Allego","maxPowerKw":0,"isMegawatt":false,"status":"AVAILABLE","source":"ndw"}},{"type":"Feature","geometry":{"type":"Point","coordinates":[6.156928,52.291201]},"properties":{"type":"charge","layer":"passenger","locationId":"1d54a16e-50ed-11e9-a238-42010a840003","name":"NLD, Diepenveen, Melchior van Brielstraat 36","address":"Melchior van Brielstraat 36","city":"Diepenveen","operatorName":"Allego","maxPowerKw":0,"isMegawatt":false,"status":"AVAILABLE","source":"ndw"}},{"type":"Feature","geometry":{"type":"Point","coordinates":[6.142392,52.266691]},"properties":{"type":"charge","layer":"passenger","locationId":"2af4e200-f5ea-11e9-bdaf-42010a840003","name":"NLD, Johannes sinthenstraat 90, 7412EG, Deventer","address":"Johannes Sinthenstraat 90","city":"Deventer","operatorName":"Allego","maxPowerKw":0,"isMegawatt":false,"status":"AVAILABLE","source":"ndw"}},{"type":"Feature","geometry":{"type":"Point","coordinates":[6.150822,52.255786]},"properties":{"type":"charge","layer":"passenger","locationId":"55243a72-4d93-11e8-84e4-42010a840002","name":"NL, van Twickelostraat 1, 7411SC, Deventer","address":"van Twickelostraat 1","city":"Deventer","operatorName":"Allego","maxPowerKw":0,"isMegawatt":false,"status":"CHARGING","source":"ndw"}},{"type":"Feature","geometry":{"type":"Point","coordinates":[6.181866,52.259432]},"properties":{"type":"charge","layer":"passenger","locationId":"6877ec04-1173-11ea-bd78-42010a840003","name":"NLD, Deventer, Harfsenstraat 1","address":"Harfsenstraat 1","city":"Deventer","operatorName":"Allego","maxPowerKw":0,"isMegawatt":false,"status":"AVAILABLE","source":"ndw"}},{"type":"Feature","geometry":{"type":"Point","coordinates":[6.152189,52.273063]},"properties":{"type":"charge","layer":"passenger","locationId":"69ba40ea-b9fd-11ed-aa26-42010aa40fc0","name":"NL, Arkelstein 29T, 7414 EP Deventer","address":"Arkelstein 29","city":"Deventer","operatorName":"Allego","maxPowerKw":0,"isMegawatt":false,"status":"AVAILABLE","source":"ndw"}},{"type":"Feature","geometry":{"type":"Point","coordinates":[6.158804,52.26258]},"properties":{"type":"charge","layer":"passenger","locationId":"8abc0702-9992-11eb-8099-42010a840003","name":"NL, Oude Goedstraat 30, 7413 EG, Deventer","address":"Oude Goedstraat 30","city":"Deventer","operatorName":"Allego","maxPowerKw":0,"isMegawatt":false,"status":"AVAILABLE","source":"ndw"}},{"type":"Feature","geometry":{"type":"Point","coordinates":[6.149566,52.259384]},"properties":{"type":"charge","layer":"passenger","locationId":"d6ce25fe-4875-11ea-aed7-42010a840003","name":"NL, Korte Schoolstraat 1, 7412 VM, Deventer","address":"Korte Schoolstraat 1","city":"Deventer","operatorName":"Allego","maxPowerKw":0,"isMegawatt":false,"status":"AVAILABLE","source":"ndw"}},{"type":"Feature","geometry":{"type":"Point","coordinates":[6.141425,52.268753]},"properties":{"type":"charge","layer":"passenger","locationId":"dd1862a6-2c8c-11ec-ac72-42010a840003","name":"NL, Jacob Catslaan 1, 7412 MC, Deventer","address":"Jacob Catslaan 1","city":"Deventer","operatorName":"Allego","maxPowerKw":0,"isMegawatt":false,"status":"AVAILABLE","source":"ndw"}},{"type":"Feature","geometry":{"type":"Point","coordinates":[6.202475,52.25211]},"properties":{"type":"charge","layer":"passenger","locationId":"26a37973c8c9721de7360b5477c72b67","name":"Pijlstaart 11","address":"Pijlstaart 11","city":"Deventer","operatorName":"Vattenfall InCharge","maxPowerKw":11,"isMegawatt":false,"status":"AVAILABLE","source":"ndw"}},{"type":"Feature","geometry":{"type":"Point","coordinates":[6.170718,52.252164]},"properties":{"type":"charge","layer":"passenger","locationId":"NLLOC016648","name":"NL, RJ Schimmelpenninckhof 19, 7418 BX Deventer","address":"RJ Schimmelpenninckhof 19","city":"Deventer","operatorName":"Allego","maxPowerKw":0,"isMegawatt":false,"status":"AVAILABLE","source":"ndw"}},{"type":"Feature","geometry":{"type":"Point","coordinates":[6.181496,52.238779]},"properties":{"type":"charge","layer":"passenger","locationId":"652e7423cb3529001cdd5a1b","name":"Achterzijde","address":"Bergweidedijk 20","city":"Deventer","operatorName":"E-Flux by Road","maxPowerKw":11,"isMegawatt":false,"status":"AVAILABLE","source":"ndw"}},{"type":"Feature","geometry":{"type":"Point","coordinates":[6.137613,52.261484]},"properties":{"type":"charge","layer":"passenger","locationId":"1ad5775a-1539-11e9-aa32-42010a840003","name":"NLD Jan Steenstraat 61 7412 TX Deventer","address":"Jan Steenstraat 61","city":"Deventer","operatorName":"Allego","maxPowerKw":0,"isMegawatt":false,"status":"AVAILABLE","source":"ndw"}},{"type":"Feature","geometry":{"type":"Point","coordinates":[6.164158,52.262732]},"properties":{"type":"charge","layer":"passenger","locationId":"3ede50d0-4f5f-11e9-a8f5-42010a840003","name":"NLD, Ceintuurbaan 10 Deventer","address":"Ceintuurbaan 10","city":"Deventer","operatorName":"Allego","maxPowerKw":0,"isMegawatt":false,"status":"CHARGING","source":"ndw"}},{"type":"Feature","geometry":{"type":"Point","coordinates":[6.216932,52.258723]},"properties":{"type":"charge","layer":"passenger","locationId":"6890d37c-1173-11ea-8457-42010a840003","name":"NLD, Melchior Bolstraat 4, Deventer","address":"Melchior Bolstraat 4","city":"Deventer","operatorName":"Allego","maxPowerKw":0,"isMegawatt":false,"status":"AVAILABLE","source":"ndw"}},{"type":"Feature","geometry":{"type":"Point","coordinates":[6.156592,52.25163]},"properties":{"type":"charge","layer":"passenger","locationId":"832cf8d2-4f3c-11e8-99bf-42010a840002","name":"NLD, Deventer, P-garage Stadskantoor Grote Kerkhof 1, 7411 KT Deventer","address":"Grote Kerkhof 1","city":"Deventer","operatorName":"Allego","maxPowerKw":0,"isMegawatt":false,"status":"AVAILABLE","source":"ndw"}},{"type":"Feature","geometry":{"type":"Point","coordinates":[6.207663,52.255794]},"properties":{"type":"charge","layer":"passenger","locationId":"8a03e9a4-4f3c-11e8-9309-42010a840002","name":"NLD, Deventer, Vogelslag 48","address":"Vogelslag 48","city":"Deventer","operatorName":"Allego","maxPowerKw":0,"isMegawatt":false,"status":"AVAILABLE","source":"ndw"}},{"type":"Feature","geometry":{"type":"Point","coordinates":[6.16197,52.256334]},"properties":{"type":"charge","layer":"passenger","locationId":"96765fc8-4f3c-11e8-8e33-42010a840002","name":"NLD, Deventer Parkeergarage Stationsplein","address":"Leeuwenbrug 33","city":"Deventer","operatorName":"Allego","maxPowerKw":0,"isMegawatt":false,"status":"CHARGING","source":"ndw"}},{"type":"Feature","geometry":{"type":"Point","coordinates":[6.213123,52.248474]},"properties":{"type":"charge","layer":"passenger","locationId":"bfb490aa-ba09-11ea-a017-42010a840003","name":"NL, Flora 259, 7422LP, Deventer","address":"Flora 259","city":"Deventer","operatorName":"Allego","maxPowerKw":0,"isMegawatt":false,"status":"AVAILABLE","source":"ndw"}},{"type":"Feature","geometry":{"type":"Point","coordinates":[6.164654,52.250607]},"properties":{"type":"charge","layer":"passenger","locationId":"NLLOC016853","name":"NL, Werfstraat 1, 7411CX, Deventer","address":"Werfstraat 1","city":"Deventer","operatorName":"Allego","maxPowerKw":0,"isMegawatt":false,"status":"AVAILABLE","source":"ndw"}},{"type":"Feature","geometry":{"type":"Point","coordinates":[6.20079,52.24665]},"properties":{"type":"charge","layer":"passenger","locationId":"A6BD1AD9-AC07-4166-9E45-37DACDD30230","name":"Eneco eMobility Broekhuis Opel Deventer","address":"Revalstraat 10","city":"Deventer","operatorName":"Eneco","maxPowerKw":0,"isMegawatt":false,"status":"AVAILABLE","source":"ndw"}},{"type":"Feature","geometry":{"type":"Point","coordinates":[6.140265,52.261425]},"properties":{"type":"charge","layer":"passenger","locationId":"d74e1131-4f01-47d5-bbfa-ad59d2702dfa","name":"J. Strieningstraat","address":"J. Strieningstraat 69","city":"Deventer","operatorName":"Vattenfall InCharge","maxPowerKw":11,"isMegawatt":false,"status":"AVAILABLE","source":"ndw"}},{"type":"Feature","geometry":{"type":"Point","coordinates":[6.214694,52.248925]},"properties":{"type":"charge","layer":"passenger","locationId":"0831d25a-beb4-11ed-b3f5-42010aa40fc0","name":"NL, Piet van Donkplein, 1, 7422LW, Deventer","address":"Piet van Donkplein 1","city":"Deventer","operatorName":"Allego","maxPowerKw":0,"isMegawatt":false,"status":"AVAILABLE","source":"ndw"}},{"type":"Feature","geometry":{"type":"Point","coordinates":[6.170718,52.252164]},"properties":{"type":"charge","layer":"passenger","locationId":"033bf1fa-bdeb-11ed-94ba-42010aa40fc0","name":"NL, RJ Schimmelpenninckhof 19, 7418 BX Deventer","address":"RJ Schimmelpenninckhof 19","city":"Deventer","operatorName":"Allego","maxPowerKw":0,"isMegawatt":false,"status":"AVAILABLE","source":"ndw"}},{"type":"Feature","geometry":{"type":"Point","coordinates":[6.224822,52.255747]},"properties":{"type":"charge","layer":"passenger","locationId":"2e655b22-267b-11ec-8f17-42010a840003","name":"NL, Leonard Springerlaan 94, 7425CB, Deventer","address":"Leonard Springerlaan 94","city":"Deventer","operatorName":"Allego","maxPowerKw":0,"isMegawatt":false,"status":"AVAILABLE","source":"ndw"}},{"type":"Feature","geometry":{"type":"Point","coordinates":[6.219048,52.262395]},"properties":{"type":"charge","layer":"passenger","locationId":"b76f078e-4f3c-11e8-b70a-42010a840002","name":"NLD, Leeghwaterlaan 54, 7424 AE, Deventer","address":"Leeghwaterlaan 54","city":"Deventer","operatorName":"Allego","maxPowerKw":0,"isMegawatt":false,"status":"AVAILABLE","source":"ndw"}},{"type":"Feature","geometry":{"type":"Point","coordinates":[6.165352,52.247945]},"properties":{"type":"charge","layer":"passenger","locationId":"f73c027c-79b6-11ee-b6af-42010aa40fc0","name":"NL, Yprompstraat 1, 7411 AX Deventer","address":"Yprompstraat 1","city":"Deventer","operatorName":"Allego","maxPowerKw":0,"isMegawatt":false,"status":"AVAILABLE","source":"ndw"}},{"type":"Feature","geometry":{"type":"Point","coordinates":[6.176897,52.258859]},"properties":{"type":"charge","layer":"passenger","locationId":"NLLOC015994","name":"NL, Tjoenerstraat 52, 7416XN, Deventer","address":"Tjoenerstraat 52","city":"Deventer","operatorName":"Allego","maxPowerKw":0,"isMegawatt":false,"status":"AVAILABLE","source":"ndw"}},{"type":"Feature","geometry":{"type":"Point","coordinates":[6.203393,52.250728]},"properties":{"type":"charge","layer":"passenger","locationId":"de4bc0c8-2c8c-11ec-9f46-42010a840003","name":"NL, Atalanta 76, 7423GB Deventer","address":"Atalanta 76","city":"Deventer","operatorName":"Allego","maxPowerKw":0,"isMegawatt":false,"status":"AVAILABLE","source":"ndw"}},{"type":"Feature","geometry":{"type":"Point","coordinates":[6.173461,52.25426]},"properties":{"type":"charge","layer":"passenger","locationId":"9dd78c5c-e0d9-11ea-868c-42010a840003","name":"NL, Schipbeekstraat 74, 7417 AA Deventer","address":"Schipbeekstraat 74","city":"Deventer","operatorName":"Allego","maxPowerKw":0,"isMegawatt":false,"status":"AVAILABLE","source":"ndw"}},{"type":"Feature","geometry":{"type":"Point","coordinates":[6.144497,52.259441]},"properties":{"type":"charge","layer":"passenger","locationId":"d233147c-a4d1-11ec-9573-42010a840003","name":"NL, Zandweerdsweg 1, 7412 XW Deventer","address":"Zandweerdsweg 1","city":"Deventer","operatorName":"Allego","maxPowerKw":0,"isMegawatt":false,"status":"AVAILABLE","source":"ndw"}},{"type":"Feature","geometry":{"type":"Point","coordinates":[6.146843,52.276388]},"properties":{"type":"charge","layer":"passenger","locationId":"664db374-b9fd-11ed-abf2-42010aa40fc0","name":"NL, Het Vlier 30, 7414 AS Deventer","address":"Het Vlier 30","city":"Deventer","operatorName":"Allego","maxPowerKw":0,"isMegawatt":false,"status":"AVAILABLE","source":"ndw"}},{"type":"Feature","geometry":{"type":"Point","coordinates":[6.230652,52.261715]},"properties":{"type":"charge","layer":"passenger","locationId":"b9db79f8-4f3c-11e8-b83a-42010a840002","name":"NLD, Hendrick Goltziusstraat 2, 7425 PK, Deventer","address":"Hendrick Goltziusstraat","city":"Deventer","operatorName":"Allego","maxPowerKw":0,"isMegawatt":false,"status":"CHARGING","source":"ndw"}},{"type":"Feature","geometry":{"type":"Point","coordinates":[6.186281,52.254746]},"properties":{"type":"charge","layer":"passenger","locationId":"18cb56f8-d4e9-11e9-be0b-42010a840003","name":"NLD, Roerstraat 37, Deventer","address":"Roerstraat 37","city":"Deventer","operatorName":"Allego","maxPowerKw":0,"isMegawatt":false,"status":"AVAILABLE","source":"ndw"}},{"type":"Feature","geometry":{"type":"Point","coordinates":[6.152286,52.259188]},"properties":{"type":"charge","layer":"passenger","locationId":"697d18aa-b9fd-11ed-9bb8-42010aa40fc0","name":"NL, Rijsterborgherweg 20-F9, 7412VA Deventer","address":"Rijsterborgherweg 20-F9","city":"Deventer","operatorName":"Allego","maxPowerKw":0,"isMegawatt":false,"status":"AVAILABLE","source":"ndw"}},{"type":"Feature","geometry":{"type":"Point","coordinates":[6.141075,52.250589]},"properties":{"type":"charge","layer":"passenger","locationId":"7df09514-9349-11eb-9506-42010a840003","name":"NL, Kortestraat 53 G 7, 7419 CK Deventer","address":"Kortestraat 53 G 7","city":"Deventer","operatorName":"Allego","maxPowerKw":0,"isMegawatt":false,"status":"AVAILABLE","source":"ndw"}},{"type":"Feature","geometry":{"type":"Point","coordinates":[6.153948,52.264685]},"properties":{"type":"charge","layer":"passenger","locationId":"be2186ba-80f9-11ea-a20e-42010a840003","name":"NL, Boxbergerweg 176, 7413 EM, Deventer","address":"Boxbergerweg 176","city":"Deventer","operatorName":"Allego","maxPowerKw":0,"isMegawatt":false,"status":"AVAILABLE","source":"ndw"}},{"type":"Feature","geometry":{"type":"Point","coordinates":[6.228295,52.24387]},"properties":{"type":"charge","layer":"passenger","locationId":"d6669722-9a1e-11ea-8bb3-42010a840003","name":"NL, Joke Smitstraat 8, 7421HL, Deventer","address":"Joke Smitstraat 8","city":"Deventer","operatorName":"Allego","maxPowerKw":0,"isMegawatt":false,"status":"AVAILABLE","source":"ndw"}},{"type":"Feature","geometry":{"type":"Point","coordinates":[6.15314,52.276407]},"properties":{"type":"charge","layer":"passenger","locationId":"fa4498ec-7f66-11ea-9149-42010a840003","name":"NL, Havezatelaan 109, 7414 GG Deventer","address":"Havezatelaan 109","city":"Deventer","operatorName":"Allego","maxPowerKw":0,"isMegawatt":false,"status":"AVAILABLE","source":"ndw"}},{"type":"Feature","geometry":{"type":"Point","coordinates":[6.191466,52.253958]},"properties":{"type":"charge","layer":"passenger","locationId":"c903957a-4c63-11ea-8e2d-42010a840003","name":"NL, Kilstraat 10G1, 7417CD, Deventer","address":"Kilstraat 10G1","city":"Deventer","operatorName":"Allego","maxPowerKw":0,"isMegawatt":false,"status":"AVAILABLE","source":"ndw"}},{"type":"Feature","geometry":{"type":"Point","coordinates":[6.150822,52.255786]},"properties":{"type":"charge","layer":"passenger","locationId":"NLLOC009177","name":"NL, van Twickelostraat 1, 7411SC, Deventer","address":"van Twickelostraat 1","city":"Deventer","operatorName":"Allego","maxPowerKw":0,"isMegawatt":false,"status":"AVAILABLE","source":"ndw"}},{"type":"Feature","geometry":{"type":"Point","coordinates":[6.15314,52.276407]},"properties":{"type":"charge","layer":"passenger","locationId":"NLLOC026055","name":"NL, Havezatelaan 109, 7414 GG Deventer","address":"Havezatelaan 109","city":"Deventer","operatorName":"Allego","maxPowerKw":0,"isMegawatt":false,"status":"AVAILABLE","source":"ndw"}},{"type":"Feature","geometry":{"type":"Point","coordinates":[6.210736,52.251181]},"properties":{"type":"charge","layer":"passenger","locationId":"00dd8274-beb4-11ed-94e2-42010aa40fc0","name":"NL, Batenburg 802, 7423 XW Deventer","address":"Batenburg 802","city":"Deventer","operatorName":"Allego","maxPowerKw":0,"isMegawatt":false,"status":"AVAILABLE","source":"ndw"}},{"type":"Feature","geometry":{"type":"Point","coordinates":[6.160508,52.268874]},"properties":{"type":"charge","layer":"passenger","locationId":"46f499a0-bf7c-11ed-9ab9-42010aa40fc0","name":"NL, Varlarstraat 2-T, 7415 MA Deventer","address":"Varlarstraat 2-T","city":"Deventer","operatorName":"Allego","maxPowerKw":0,"isMegawatt":false,"status":"AVAILABLE","source":"ndw"}},{"type":"Feature","geometry":{"type":"Point","coordinates":[6.193592,52.27065]},"properties":{"type":"charge","layer":"passenger","locationId":"907fe512-4f3c-11e8-bbd5-42010a840002","name":"NLD, Deventer, Het Hooiland 45","address":"Het Hooiland 45","city":"Deventer","operatorName":"Allego","maxPowerKw":0,"isMegawatt":false,"status":"AVAILABLE","source":"ndw"}},{"type":"Feature","geometry":{"type":"Point","coordinates":[6.164654,52.250607]},"properties":{"type":"charge","layer":"passenger","locationId":"db941aac-7349-11ec-8b8e-42010a840003","name":"NL, Werfstraat 1, 7411CX, Deventer","address":"Werfstraat 1","city":"Deventer","operatorName":"Allego","maxPowerKw":0,"isMegawatt":false,"status":"AVAILABLE","source":"ndw"}},{"type":"Feature","geometry":{"type":"Point","coordinates":[6.20535,52.239117]},"properties":{"type":"charge","layer":"passenger","locationId":"923035","name":"154_DAE_NL_2000759","address":"Rigastraat 17","city":"Deventer","operatorName":"DAEN Mobility","maxPowerKw":11,"isMegawatt":false,"status":"AVAILABLE","source":"ndw"}},{"type":"Feature","geometry":{"type":"Point","coordinates":[6.167831,52.243065]},"properties":{"type":"charge","layer":"passenger","locationId":"4227464","name":"Laadnet Gasfabriek Nieuw","address":"Zutphenseweg 6","city":"Deventer","operatorName":"Laadnet","maxPowerKw":22,"isMegawatt":false,"status":"CHARGING","source":"ndw"}},{"type":"Feature","geometry":{"type":"Point","coordinates":[6.156585,52.262943]},"properties":{"type":"charge","layer":"passenger","locationId":"NLLOC002235","name":"NLD, Diepenveenseweg 136, 7413 AV Deventer","address":"Diepenveenseweg 136","city":"Deventer","operatorName":"Allego","maxPowerKw":0,"isMegawatt":false,"status":"AVAILABLE","source":"ndw"}},{"type":"Feature","geometry":{"type":"Point","coordinates":[6.208408,52.257338]},"properties":{"type":"charge","layer":"passenger","locationId":"161c4812-6a40-11ea-ad6a-42010a840003","name":"NL, Wielewaal 31, 7423DN, Deventer","address":"Wielewaal 31","city":"Deventer","operatorName":"Allego","maxPowerKw":0,"isMegawatt":false,"status":"CHARGING","source":"ndw"}},{"type":"Feature","geometry":{"type":"Point","coordinates":[6.16903,52.269546]},"properties":{"type":"charge","layer":"passenger","locationId":"20f2250e-be1f-11e9-8500-42010a840003","name":"NLD, Koningin Wilhelminalaan 13 A, 7415 KP, Deventer","address":"Koningin Wilhelminalaan 13 A","city":"Deventer","operatorName":"Allego","maxPowerKw":0,"isMegawatt":false,"status":"CHARGING","source":"ndw"}},{"type":"Feature","geometry":{"type":"Point","coordinates":[6.176897,52.258859]},"properties":{"type":"charge","layer":"passenger","locationId":"92a55994-d3b9-11eb-8bf0-42010a840003","name":"NL, Tjoenerstraat 52, 7416XN, Deventer","address":"Tjoenerstraat 52","city":"Deventer","operatorName":"Allego","maxPowerKw":0,"isMegawatt":false,"status":"CHARGING","source":"ndw"}},{"type":"Feature","geometry":{"type":"Point","coordinates":[6.152145,52.256363]},"properties":{"type":"charge","layer":"passenger","locationId":"b251d146-5b1b-11e9-9e45-42010a840003","name":"NLD, Deventer Parkeergarage Stadspoort, Binnensingel 6","address":"Binnensingel 6","city":"Deventer","operatorName":"Allego","maxPowerKw":0,"isMegawatt":false,"status":"AVAILABLE","source":"ndw"}},{"type":"Feature","geometry":{"type":"Point","coordinates":[6.218021,52.265027]},"properties":{"type":"charge","layer":"passenger","locationId":"bcb374da-1d3c-11ea-aa4e-42010a840003","name":"NLD, Johannes bosboomstraat 2, 7424GM, Devente","address":"Johannes bosboomstraat 2","city":"Deventer","operatorName":"Allego","maxPowerKw":0,"isMegawatt":false,"status":"AVAILABLE","source":"ndw"}},{"type":"Feature","geometry":{"type":"Point","coordinates":[6.171156,52.27625]},"properties":{"type":"charge","layer":"passenger","locationId":"07e49482-ac32-11ea-a281-42010a840003","name":"NL, Rien Ditzelstraat 27, 7415 ND Deventer","address":"Rien Ditzelstraat 27","city":"Deventer","operatorName":"Allego","maxPowerKw":0,"isMegawatt":false,"status":"CHARGING","source":"ndw"}},{"type":"Feature","geometry":{"type":"Point","coordinates":[6.179045,52.23822]},"properties":{"type":"charge","layer":"passenger","locationId":"E3CAD79A-9EB3-425E-9E1B-A280B9D876D8","name":"Eneco eMobility Edelbox Apeldoorn II B.V. - Deventer","address":"Bergweidedijk 10","city":"Deventer","operatorName":"Eneco","maxPowerKw":11,"isMegawatt":false,"status":"UNAVAILABLE","source":"ndw"}},{"type":"Feature","geometry":{"type":"Point","coordinates":[6.201743,52.268364]},"properties":{"type":"charge","layer":"passenger","locationId":"bd5abf82-f914-48f2-86a7-dfc68b4f5396","name":"Vosmanskamp","address":"Vosmanskamp 29","city":"Schalkhaar","operatorName":"Vattenfall InCharge","maxPowerKw":11,"isMegawatt":false,"status":"AVAILABLE","source":"ndw"}},{"type":"Feature","geometry":{"type":"Point","coordinates":[6.220668,52.265204]},"properties":{"type":"charge","layer":"passenger","locationId":"e65e543e-9992-11eb-a3f6-42010a840003","name":"NL, Theda Mansholtstraat 18, 7424 GX Deventer","address":"Theda Mansholtstraat 18","city":"Deventer","operatorName":"Allego","maxPowerKw":0,"isMegawatt":false,"status":"AVAILABLE","source":"ndw"}},{"type":"Feature","geometry":{"type":"Point","coordinates":[6.225139,52.244417]},"properties":{"type":"charge","layer":"passenger","locationId":"872d050e-bedd-4665-8f46-5a2f0e6b626e","name":"Bronsinklaan 123","address":"Bronsinklaan 123","city":"Deventer","operatorName":"Vattenfall InCharge","maxPowerKw":11,"isMegawatt":false,"status":"AVAILABLE","source":"ndw"}},{"type":"Feature","geometry":{"type":"Point","coordinates":[6.205233,52.239778]},"properties":{"type":"charge","layer":"passenger","locationId":"923029","name":"190_DAE_NL_2000764","address":"Rigastraat 17","city":"Deventer","operatorName":"DAEN Mobility","maxPowerKw":11,"isMegawatt":false,"status":"AVAILABLE","source":"ndw"}},{"type":"Feature","geometry":{"type":"Point","coordinates":[6.14751,52.248273]},"properties":{"type":"charge","layer":"passenger","locationId":"88426b42-8bfb-11ea-ab93-42010a840003","name":"NL, Langestraat 3, 7419AT, Deventer","address":"Langestraat 3","city":"Deventer","operatorName":"Allego","maxPowerKw":0,"isMegawatt":false,"status":"AVAILABLE","source":"ndw"}},{"type":"Feature","geometry":{"type":"Point","coordinates":[6.161281,52.271938]},"properties":{"type":"charge","layer":"passenger","locationId":"0634d8c2-bdeb-11ed-8268-42010aa40fc0","name":"NL, Jan van Arkelstraat 10, 7415XE, Deventer","address":"Jan van Arkelstraat 10","city":"Deventer","operatorName":"Allego","maxPowerKw":0,"isMegawatt":false,"status":"AVAILABLE","source":"ndw"}},{"type":"Feature","geometry":{"type":"Point","coordinates":[6.15942,52.249961]},"properties":{"type":"charge","layer":"passenger","locationId":"679b893e-5082-11ed-b8ba-42010aa40fc0","name":"Emmastraat 7411, 7411 ZJ, Deventer","address":"Emmastraat 7411","city":"Deventer","operatorName":"Allego","maxPowerKw":0,"isMegawatt":false,"status":"AVAILABLE","source":"ndw"}},{"type":"Feature","geometry":{"type":"Point","coordinates":[6.225129,52.261645]},"properties":{"type":"charge","layer":"passenger","locationId":"bb6f52a4-88c1-11ec-ac5c-42010a840003","name":"NLD, Brandts Buyspark 73, Deventer 7425GG","address":"Brandts Buyspark 73","city":"Deventer","operatorName":"Allego","maxPowerKw":0,"isMegawatt":false,"status":"AVAILABLE","source":"ndw"}},{"type":"Feature","geometry":{"type":"Point","coordinates":[6.149677,52.261001]},"properties":{"type":"charge","layer":"passenger","locationId":"d010278c-8b30-11ea-a1d6-42010a840003","name":"NL, Sint Jurrienstraat 38, 7412XJ, Deventer","address":"Sint Jurrienstraat 38","city":"Deventer","operatorName":"Allego","maxPowerKw":0,"isMegawatt":false,"status":"AVAILABLE","source":"ndw"}},{"type":"Feature","geometry":{"type":"Point","coordinates":[6.180696,52.249009]},"properties":{"type":"charge","layer":"passenger","locationId":"67a554a5573fe54c5e157598","name":"Salland Storage Bussen","address":"Duurstedeweg 6","city":"Deventer","operatorName":"E-Flux by Road","maxPowerKw":14,"isMegawatt":false,"status":"UNAVAILABLE","source":"ndw"}},{"type":"Feature","geometry":{"type":"Point","coordinates":[6.14751,52.248273]},"properties":{"type":"charge","layer":"passenger","locationId":"NLLOC006460","name":"NL, Langestraat 3, 7419AT, Deventer","address":"Langestraat 3","city":"Deventer","operatorName":"Allego","maxPowerKw":0,"isMegawatt":false,"status":"AVAILABLE","source":"ndw"}},{"type":"Feature","geometry":{"type":"Point","coordinates":[6.292997,52.251087]},"properties":{"type":"charge","layer":"passenger","locationId":"923368","name":"PBLR-0012182","address":"Schipbeeksweg 6A","city":"Bathmen","operatorName":"DAEN Mobility","maxPowerKw":11,"isMegawatt":false,"status":"AVAILABLE","source":"ndw"}},{"type":"Feature","geometry":{"type":"Point","coordinates":[6.165352,52.247945]},"properties":{"type":"charge","layer":"passenger","locationId":"NLLOC019302","name":"NL, Yprompstraat 1, 7411 AX Deventer","address":"Yprompstraat 1","city":"Deventer","operatorName":"Allego","maxPowerKw":0,"isMegawatt":false,"status":"AVAILABLE","source":"ndw"}},{"type":"Feature","geometry":{"type":"Point","coordinates":[6.205233,52.239778]},"properties":{"type":"charge","layer":"passenger","locationId":"923026","name":"158_DAE_NL_2000753","address":"Rigastraat 17","city":"Deventer","operatorName":"DAEN Mobility","maxPowerKw":11,"isMegawatt":false,"status":"AVAILABLE","source":"ndw"}},{"type":"Feature","geometry":{"type":"Point","coordinates":[6.144497,52.259441]},"properties":{"type":"charge","layer":"passenger","locationId":"NLLOC017892","name":"NL, Zandweerdsweg 1, 7412 XW Deventer","address":"Zandweerdsweg 1","city":"Deventer","operatorName":"Allego","maxPowerKw":0,"isMegawatt":false,"status":"AVAILABLE","source":"ndw"}},{"type":"Feature","geometry":{"type":"Point","coordinates":[6.20535,52.239117]},"properties":{"type":"charge","layer":"passenger","locationId":"923032","name":"155_DAE_NL_2000757","address":"Rigastraat 17","city":"Deventer","operatorName":"DAEN Mobility","maxPowerKw":11,"isMegawatt":false,"status":"CHARGING","source":"ndw"}},{"type":"Feature","geometry":{"type":"Point","coordinates":[6.136792,52.27043]},"properties":{"type":"charge","layer":"passenger","locationId":"NLLOC007343","name":"NL, De Deckerstraat 1, 7412NL, Deventer","address":"De Deckerstraat 1","city":"Deventer","operatorName":"Allego","maxPowerKw":0,"isMegawatt":false,"status":"AVAILABLE","source":"ndw"}},{"type":"Feature","geometry":{"type":"Point","coordinates":[6.208967,52.242674]},"properties":{"type":"charge","layer":"passenger","locationId":"0b8782be-eb3d-4930-a442-1bab4a41fc6b","name":"Duindoorn","address":"Duindoorn 25","city":"Deventer","operatorName":"Vattenfall InCharge","maxPowerKw":11,"isMegawatt":false,"status":"AVAILABLE","source":"ndw"}},{"type":"Feature","geometry":{"type":"Point","coordinates":[6.220668,52.265204]},"properties":{"type":"charge","layer":"passenger","locationId":"NLLOC012203","name":"NL, Theda Mansholtstraat 18, 7424 GX Deventer","address":"Theda Mansholtstraat 18","city":"Deventer","operatorName":"Allego","maxPowerKw":0,"isMegawatt":false,"status":"AVAILABLE","source":"ndw"}},{"type":"Feature","geometry":{"type":"Point","coordinates":[6.201285,52.263466]},"properties":{"type":"charge","layer":"passenger","locationId":"NLLOC012642","name":"NL, Rondekamp 4, 7433 SJ Schalkhaar","address":"Rondekamp 4","city":"Schalkhaar","operatorName":"Allego","maxPowerKw":0,"isMegawatt":false,"status":"AVAILABLE","source":"ndw"}},{"type":"Feature","geometry":{"type":"Point","coordinates":[6.230569,52.26544]},"properties":{"type":"charge","layer":"passenger","locationId":"NLLOC005132","name":"NLD, S.H. de Roosstraat 1, 7425RD, Deventer","address":"S.H. de Roosstraat 1","city":"Deventer","operatorName":"Allego","maxPowerKw":0,"isMegawatt":false,"status":"AVAILABLE","source":"ndw"}},{"type":"Feature","geometry":{"type":"Point","coordinates":[6.16197,52.256334]},"properties":{"type":"charge","layer":"passenger","locationId":"NLLOC000060","name":"NLD, Deventer Parkeergarage Stationsplein","address":"Leeuwenbrug 33","city":"Deventer","operatorName":"Allego","maxPowerKw":0,"isMegawatt":false,"status":"AVAILABLE","source":"ndw"}},{"type":"Feature","geometry":{"type":"Point","coordinates":[6.162737,52.269312]},"properties":{"type":"charge","layer":"passenger","locationId":"afe23528-af84-4727-883a-a6e57f51432b","name":"Graaf Reinoldstraat","address":"Graaf Reinoldstraat 8","city":"Deventer","operatorName":"Vattenfall InCharge","maxPowerKw":11,"isMegawatt":false,"status":"AVAILABLE","source":"ndw"}},{"type":"Feature","geometry":{"type":"Point","coordinates":[6.162672,52.274698]},"properties":{"type":"charge","layer":"passenger","locationId":"f54112f31bf38f0e7a5f6a408f3e6c74","name":"Keizer Karellaan 88","address":"Keizer Karellaan 88","city":"Deventer","operatorName":"Vattenfall InCharge","maxPowerKw":11,"isMegawatt":false,"status":"AVAILABLE","source":"ndw"}},{"type":"Feature","geometry":{"type":"Point","coordinates":[6.181167,52.238793]},"properties":{"type":"charge","layer":"passenger","locationId":"695bcee2bc63f11ed9545472","name":"Achterzijde Links","address":"osnabruckstraat 20","city":"Deventer","operatorName":"E-Flux by Road","maxPowerKw":22,"isMegawatt":false,"status":"CHARGING","source":"ndw"}},{"type":"Feature","geometry":{"type":"Point","coordinates":[6.216835,52.262269]},"properties":{"type":"charge","layer":"passenger","locationId":"71ebd286-718b-49fd-99b7-84680c1024f2","name":"Cruquiushof","address":"Cruquiushof 5","city":"Deventer","operatorName":"Vattenfall InCharge","maxPowerKw":11,"isMegawatt":false,"status":"AVAILABLE","source":"ndw"}},{"type":"Feature","geometry":{"type":"Point","coordinates":[6.148302,52.248723]},"properties":{"type":"charge","layer":"passenger","locationId":"9e86c604a776d2c65a918de3b5b0054d","name":"Worp 25","address":"Worp 25","city":"Deventer","operatorName":"Vattenfall InCharge","maxPowerKw":11,"isMegawatt":false,"status":"AVAILABLE","source":"ndw"}},{"type":"Feature","geometry":{"type":"Point","coordinates":[6.213123,52.248474]},"properties":{"type":"charge","layer":"passenger","locationId":"NLLOC007277","name":"NL, Flora 259, 7422LP, Deventer","address":"Flora 259","city":"Deventer","operatorName":"Allego","maxPowerKw":0,"isMegawatt":false,"status":"AVAILABLE","source":"ndw"}},{"type":"Feature","geometry":{"type":"Point","coordinates":[6.191505,52.266283]},"properties":{"type":"charge","layer":"passenger","locationId":"c71705a7-d918-42b4-9e8d-c800ffa25cd6","name":"Kampweg","address":"Kampweg 3","city":"Schalkhaar","operatorName":"Vattenfall InCharge","maxPowerKw":11,"isMegawatt":false,"status":"AVAILABLE","source":"ndw"}},{"type":"Feature","geometry":{"type":"Point","coordinates":[6.171779,52.262384]},"properties":{"type":"charge","layer":"passenger","locationId":"NLLOC001728","name":"NLD, Deventer, G. Westenbergstraat 10","address":"G. Westenbergstraat 10","city":"Deventer","operatorName":"Allego","maxPowerKw":0,"isMegawatt":false,"status":"AVAILABLE","source":"ndw"}},{"type":"Feature","geometry":{"type":"Point","coordinates":[6.168728,52.247175]},"properties":{"type":"charge","layer":"passenger","locationId":"NLLOC003276","name":"NLD Meester H. F. de Boerlaan 151, 7411 AH Deventer","address":"Meester H.F. de Boerlaan 151","city":"Deventer","operatorName":"Allego","maxPowerKw":0,"isMegawatt":false,"status":"AVAILABLE","source":"ndw"}},{"type":"Feature","geometry":{"type":"Point","coordinates":[6.149566,52.259384]},"properties":{"type":"charge","layer":"passenger","locationId":"NLLOC007205","name":"NL, Korte Schoolstraat 1, 7412 VM, Deventer","address":"Korte Schoolstraat 1","city":"Deventer","operatorName":"Allego","maxPowerKw":0,"isMegawatt":false,"status":"AVAILABLE","source":"ndw"}},{"type":"Feature","geometry":{"type":"Point","coordinates":[6.216932,52.258723]},"properties":{"type":"charge","layer":"passenger","locationId":"NLLOC005728","name":"NLD, Melchior Bolstraat 4, Deventer","address":"Melchior Bolstraat 4","city":"Deventer","operatorName":"Allego","maxPowerKw":0,"isMegawatt":false,"status":"AVAILABLE","source":"ndw"}},{"type":"Feature","geometry":{"type":"Point","coordinates":[6.291037,52.251709]},"properties":{"type":"charge","layer":"passenger","locationId":"37639413-74ef-4a84-b866-e94a7394b868","name":"De Kuiperij","address":"De Kuiperij 5","city":"Bathmen","operatorName":"Vattenfall InCharge","maxPowerKw":11,"isMegawatt":false,"status":"AVAILABLE","source":"ndw"}},{"type":"Feature","geometry":{"type":"Point","coordinates":[6.158804,52.26258]},"properties":{"type":"charge","layer":"passenger","locationId":"NLLOC010303","name":"NL, Oude Goedstraat 30, 7413 EG, Deventer","address":"Oude Goedstraat 30","city":"Deventer","operatorName":"Allego","maxPowerKw":0,"isMegawatt":false,"status":"AVAILABLE","source":"ndw"}},{"type":"Feature","geometry":{"type":"Point","coordinates":[6.181045,52.25608]},"properties":{"type":"charge","layer":"passenger","locationId":"a14fc8ec24e21a281d228c40eddf83a9","name":"Zaanstraat 1","address":"Zaanstraat 1","city":"Deventer","operatorName":"Vattenfall InCharge","maxPowerKw":11,"isMegawatt":false,"status":"AVAILABLE","source":"ndw"}},{"type":"Feature","geometry":{"type":"Point","coordinates":[6.226836,52.245789]},"properties":{"type":"charge","layer":"passenger","locationId":"NLLOC003989","name":"NLD, Paalakker 2, Deventer","address":"Paalakker 2","city":"Deventer","operatorName":"Allego","maxPowerKw":0,"isMegawatt":false,"status":"CHARGING","source":"ndw"}},{"type":"Feature","geometry":{"type":"Point","coordinates":[6.217442,52.264352]},"properties":{"type":"charge","layer":"passenger","locationId":"321a799eba08149ee282e00751ce8469","name":"Anton Mauvestraat 2","address":"Anton Mauvestraat 2","city":"Deventer","operatorName":"Vattenfall InCharge","maxPowerKw":11,"isMegawatt":false,"status":"AVAILABLE","source":"ndw"}},{"type":"Feature","geometry":{"type":"Point","coordinates":[6.174687,52.242819]},"properties":{"type":"charge","layer":"passenger","locationId":"689dea5c68d109b0e11f39c3","name":"Interplate vof","address":"Gotlandstraat 9","city":"Deventer","operatorName":"E-Flux by Road","maxPowerKw":8,"isMegawatt":false,"status":"AVAILABLE","source":"ndw"}},{"type":"Feature","geometry":{"type":"Point","coordinates":[6.227445,52.263687]},"properties":{"type":"charge","layer":"passenger","locationId":"NLLOC005897","name":"NLD, Bernard van Dierenhof 37, 7425 HN Deventer","address":"Bernard van Dierenhof 37","city":"Deventer","operatorName":"Allego","maxPowerKw":0,"isMegawatt":false,"status":"AVAILABLE","source":"ndw"}},{"type":"Feature","geometry":{"type":"Point","coordinates":[6.16125,52.260228]},"properties":{"type":"charge","layer":"passenger","locationId":"NLLOC023617","name":"NL, Smyrnastraat 48, 7413 BC Deventer","address":"Smyrnastraat 48","city":"Deventer","operatorName":"Allego","maxPowerKw":0,"isMegawatt":false,"status":"AVAILABLE","source":"ndw"}},{"type":"Feature","geometry":{"type":"Point","coordinates":[6.179259,52.240716]},"properties":{"type":"charge","layer":"passenger","locationId":"59681DEA-FF7D-4568-8661-6C140CE87F19","name":"Eneco eMobility Visbystraat 5 Deventer","address":"Visbystraat 5","city":"Deventer","operatorName":"Eneco","maxPowerKw":0,"isMegawatt":false,"status":"UNAVAILABLE","source":"ndw"}},{"type":"Feature","geometry":{"type":"Point","coordinates":[6.165125,52.248037]},"properties":{"type":"charge","layer":"passenger","locationId":"d45af09839ce9ea647e133ec31b2f04d","name":"G.J. Leonard Ankersmitlaan 1R","address":"G.J. Leonard Ankersmitlaan 1R","city":"Deventer","operatorName":"Vattenfall InCharge","maxPowerKw":11,"isMegawatt":false,"status":"AVAILABLE","source":"ndw"}},{"type":"Feature","geometry":{"type":"Point","coordinates":[6.177064,52.2416]},"properties":{"type":"charge","layer":"passenger","locationId":"68594511f9ca7449713e70a3","name":"Gotlandstraat 6 (links) - CZB","address":"Gotlandstraat  6","city":"Deventer","operatorName":"E-Flux by Road","maxPowerKw":14,"isMegawatt":false,"status":"AVAILABLE","source":"ndw"}},{"type":"Feature","geometry":{"type":"Point","coordinates":[6.274827,52.280069]},"properties":{"type":"charge","layer":"passenger","locationId":"25e9875ba5739fccc15ad010e30bea31","name":"Korenkamp 56","address":"Korenkamp 56","city":"Lettele","operatorName":"Vattenfall InCharge","maxPowerKw":11,"isMegawatt":false,"status":"AVAILABLE","source":"ndw"}},{"type":"Feature","geometry":{"type":"Point","coordinates":[6.205233,52.239778]},"properties":{"type":"charge","layer":"passenger","locationId":"923027","name":"157_DAE_NL_2000754","address":"Rigastraat 17","city":"Deventer","operatorName":"DAEN Mobility","maxPowerKw":11,"isMegawatt":false,"status":"AVAILABLE","source":"ndw"}},{"type":"Feature","geometry":{"type":"Point","coordinates":[6.165501,52.262821]},"properties":{"type":"charge","layer":"passenger","locationId":"NLLOC012599","name":"NL, Gooszenhof, 22, 7415CZ, Deventer","address":"Gooszenhof 22","city":"Deventer","operatorName":"Allego","maxPowerKw":0,"isMegawatt":false,"status":"AVAILABLE","source":"ndw"}},{"type":"Feature","geometry":{"type":"Point","coordinates":[6.168582,52.263141]},"properties":{"type":"charge","layer":"passenger","locationId":"7d6e5f86a2ab90054f24620630eefdca","name":"H.J.Ph. Fesevurstraat 2e","address":"H.J.Ph. Fesevurstraat 2e","city":"Deventer","operatorName":"Vattenfall InCharge","maxPowerKw":11,"isMegawatt":false,"status":"AVAILABLE","source":"ndw"}},{"type":"Feature","geometry":{"type":"Point","coordinates":[6.210736,52.251181]},"properties":{"type":"charge","layer":"passenger","locationId":"NLLOC021421","name":"NL, Batenburg 802, 7423 XW Deventer","address":"Batenburg 802","city":"Deventer","operatorName":"Allego","maxPowerKw":0,"isMegawatt":false,"status":"AVAILABLE","source":"ndw"}},{"type":"Feature","geometry":{"type":"Point","coordinates":[6.158865,52.259181]},"properties":{"type":"charge","layer":"passenger","locationId":"NLLOC006336","name":"NL, Diepenveenseweg 76, 7413AS, Deventer","address":"Diepenveenseweg 76","city":"Deventer","operatorName":"Allego","maxPowerKw":0,"isMegawatt":false,"status":"AVAILABLE","source":"ndw"}},{"type":"Feature","geometry":{"type":"Point","coordinates":[6.139975,52.270073]},"properties":{"type":"charge","layer":"passenger","locationId":"36f41268-1efe-43af-9641-ecbdf9ec0980","name":"Joost van Den Vondellaan 12","address":"Joost van Den Vondellaan 12","city":"Deventer","operatorName":"Vattenfall InCharge","maxPowerKw":11,"isMegawatt":false,"status":"AVAILABLE","source":"ndw"}},{"type":"Feature","geometry":{"type":"Point","coordinates":[6.149677,52.261001]},"properties":{"type":"charge","layer":"passenger","locationId":"NLLOC006406","name":"NL, Sint Jurrienstraat 38, 7412XJ, Deventer","address":"Sint Jurrienstraat 38","city":"Deventer","operatorName":"Allego","maxPowerKw":0,"isMegawatt":false,"status":"AVAILABLE","source":"ndw"}},{"type":"Feature","geometry":{"type":"Point","coordinates":[6.141212,52.258869]},"properties":{"type":"charge","layer":"passenger","locationId":"daa67cf5-9717-4720-b582-dc0d5c19fc5a","name":"IJsselkade","address":"IJsselkade 95","city":"Deventer","operatorName":"Vattenfall InCharge","maxPowerKw":11,"isMegawatt":false,"status":"AVAILABLE","source":"ndw"}},{"type":"Feature","geometry":{"type":"Point","coordinates":[6.16564,52.25262]},"properties":{"type":"charge","layer":"passenger","locationId":"B6307658-5ECE-43A4-9938-37D177178322","name":"Q-Park Deventer De Boreel","address":"Boreelplein 45","city":"Deventer","operatorName":"Q-Park Netherlands","maxPowerKw":11,"isMegawatt":false,"status":"AVAILABLE","source":"ndw"}},{"type":"Feature","geometry":{"type":"Point","coordinates":[6.209881,52.233034]},"properties":{"type":"charge","layer":"passenger","locationId":"58d974b4-913f-4dbb-9441-cf4fdc23ac7d","name":"Birnieweg 2","address":"Birnieweg 2","city":"Deventer","operatorName":"Vattenfall InCharge","maxPowerKw":22,"isMegawatt":false,"status":"UNAVAILABLE","source":"ndw"}},{"type":"Feature","geometry":{"type":"Point","coordinates":[6.198681,52.269754]},"properties":{"type":"charge","layer":"passenger","locationId":"NLLOC007424","name":"NL, de Ganzeboom 144, 7433GA, Schalkhaar","address":"de Ganzeboom 144","city":"Schalkhaar","operatorName":"Allego","maxPowerKw":0,"isMegawatt":false,"status":"AVAILABLE","source":"ndw"}},{"type":"Feature","geometry":{"type":"Point","coordinates":[6.171156,52.27625]},"properties":{"type":"charge","layer":"passenger","locationId":"NLLOC007493","name":"NL, Rien Ditzelstraat 27, 7415 ND Deventer","address":"Rien Ditzelstraat 27","city":"Deventer","operatorName":"Allego","maxPowerKw":0,"isMegawatt":false,"status":"AVAILABLE","source":"ndw"}},{"type":"Feature","geometry":{"type":"Point","coordinates":[6.148255,52.255648]},"properties":{"type":"charge","layer":"passenger","locationId":"edf2337f-e100-4981-8dea-0f5743c75574","name":"Parkweg","address":"Parkweg 15","city":"Deventer","operatorName":"Vattenfall InCharge","maxPowerKw":11,"isMegawatt":false,"status":"AVAILABLE","source":"ndw"}},{"type":"Feature","geometry":{"type":"Point","coordinates":[6.146843,52.276388]},"properties":{"type":"charge","layer":"passenger","locationId":"NLLOC021163","name":"NL, Het Vlier 30, 7414 AS Deventer","address":"Het Vlier 30","city":"Deventer","operatorName":"Allego","maxPowerKw":0,"isMegawatt":false,"status":"AVAILABLE","source":"ndw"}},{"type":"Feature","geometry":{"type":"Point","coordinates":[6.141187,52.262623]},"properties":{"type":"charge","layer":"passenger","locationId":"decb8b7571ad9f877e9ec7ac5dd28e13","name":"Gerhard ter Borchstraat 73","address":"Gerhard ter Borchstraat 73","city":"Deventer","operatorName":"Vattenfall InCharge","maxPowerKw":11,"isMegawatt":false,"status":"AVAILABLE","source":"ndw"}},{"type":"Feature","geometry":{"type":"Point","coordinates":[6.224025,52.243375]},"properties":{"type":"charge","layer":"passenger","locationId":"d5beeb31-6434-4d21-bdad-3ed9b2fc50f4","name":"Stoevenbeld","address":"Stoevenbeld 3","city":"Deventer","operatorName":"Vattenfall InCharge","maxPowerKw":11,"isMegawatt":false,"status":"AVAILABLE","source":"ndw"}},{"type":"Feature","geometry":{"type":"Point","coordinates":[6.168866,52.271557]},"properties":{"type":"charge","layer":"passenger","locationId":"NLLOC003274","name":"NLD, Koningin Julianastraat 94, 7415 GN Deventer","address":"Koningin Julianastraat 94","city":"Deventer","operatorName":"Allego","maxPowerKw":0,"isMegawatt":false,"status":"AVAILABLE","source":"ndw"}},{"type":"Feature","geometry":{"type":"Point","coordinates":[6.148946,52.259804]},"properties":{"type":"charge","layer":"passenger","locationId":"aa1d7cd2-b18e-4391-9766-fe3a38ee8fcc","name":"Schoolstraat","address":"Schoolstraat 3A","city":"Deventer","operatorName":"Vattenfall InCharge","maxPowerKw":11,"isMegawatt":false,"status":"AVAILABLE","source":"ndw"}},{"type":"Feature","geometry":{"type":"Point","coordinates":[6.218021,52.265027]},"properties":{"type":"charge","layer":"passenger","locationId":"NLLOC005888","name":"NLD, Johannes bosboomstraat 2, 7424GM, Devente","address":"Johannes bosboomstraat 2","city":"Deventer","operatorName":"Allego","maxPowerKw":0,"isMegawatt":false,"status":"AVAILABLE","source":"ndw"}},{"type":"Feature","geometry":{"type":"Point","coordinates":[6.164158,52.262732]},"properties":{"type":"charge","layer":"passenger","locationId":"NLLOC003628","name":"NLD, Ceintuurbaan 10 Deventer","address":"Ceintuurbaan 10","city":"Deventer","operatorName":"Allego","maxPowerKw":0,"isMegawatt":false,"status":"AVAILABLE","source":"ndw"}},{"type":"Feature","geometry":{"type":"Point","coordinates":[6.205233,52.239778]},"properties":{"type":"charge","layer":"passenger","locationId":"923025","name":"161_DAE_NL_2000752","address":"Rigastraat 17","city":"Deventer","operatorName":"DAEN Mobility","maxPowerKw":11,"isMegawatt":false,"status":"CHARGING","source":"ndw"}},{"type":"Feature","geometry":{"type":"Point","coordinates":[6.133089,52.263415]},"properties":{"type":"charge","layer":"passenger","locationId":"NLLOC006337","name":"NL, Rembrandtkade 33, 7412HC, Deventer","address":"Rembrandtkade 33","city":"Deventer","operatorName":"Allego","maxPowerKw":0,"isMegawatt":false,"status":"AVAILABLE","source":"ndw"}},{"type":"Feature","geometry":{"type":"Point","coordinates":[6.218617,52.26566]},"properties":{"type":"charge","layer":"passenger","locationId":"NLLOC021855","name":"NL, Johannes Broekhuysenstraat 18, 7424 GT Deventer","address":"Johannes Broekhuysenstraat 18","city":"Deventer","operatorName":"Allego","maxPowerKw":0,"isMegawatt":false,"status":"AVAILABLE","source":"ndw"}},{"type":"Feature","geometry":{"type":"Point","coordinates":[6.205233,52.239778]},"properties":{"type":"charge","layer":"passenger","locationId":"923067","name":"188_DAE_NL_2000844","address":"Rigastraat 17","city":"Deventer","operatorName":"DAEN Mobility","maxPowerKw":11,"isMegawatt":false,"status":"AVAILABLE","source":"ndw"}},{"type":"Feature","geometry":{"type":"Point","coordinates":[6.144077,52.265997]},"properties":{"type":"charge","layer":"passenger","locationId":"1ebec80df6ee8406afe24a0810457335","name":"Longoliusstraat 2","address":"Longoliusstraat 2","city":"Deventer","operatorName":"Vattenfall InCharge","maxPowerKw":11,"isMegawatt":false,"status":"AVAILABLE","source":"ndw"}},{"type":"Feature","geometry":{"type":"Point","coordinates":[6.230237,52.241328]},"properties":{"type":"charge","layer":"passenger","locationId":"29d1ab8d-73bc-4731-9ac2-229ee20d06c2","name":"Mina Krusemanlaan","address":"Mina Krusemanlaan 5","city":"Deventer","operatorName":"Vattenfall InCharge","maxPowerKw":11,"isMegawatt":false,"status":"AVAILABLE","source":"ndw"}},{"type":"Feature","geometry":{"type":"Point","coordinates":[6.142392,52.266691]},"properties":{"type":"charge","layer":"passenger","locationId":"NLLOC005287","name":"NLD, Johannes sinthenstraat 90, 7412EG, Deventer","address":"Johannes Sinthenstraat 90","city":"Deventer","operatorName":"Allego","maxPowerKw":0,"isMegawatt":false,"status":"AVAILABLE","source":"ndw"}},{"type":"Feature","geometry":{"type":"Point","coordinates":[6.171806,52.265006]},"properties":{"type":"charge","layer":"passenger","locationId":"656daf384b2c29001c3fb36d","name":"Sint Jozefplein","address":"Sint Jozefplein 1","city":"Deventer","operatorName":"E-Flux by Road","maxPowerKw":22,"isMegawatt":false,"status":"AVAILABLE","source":"ndw"}},{"type":"Feature","geometry":{"type":"Point","coordinates":[6.29365,52.24902]},"properties":{"type":"charge","layer":"passenger","locationId":"00e3a8d36b3156718133bd2fb7476f77","name":"Prins Constantijnlaan 1","address":"Prins Constantijnlaan 1","city":"Bathmen","operatorName":"Vattenfall InCharge","maxPowerKw":11,"isMegawatt":false,"status":"AVAILABLE","source":"ndw"}},{"type":"Feature","geometry":{"type":"Point","coordinates":[6.161624,52.254976]},"properties":{"type":"charge","layer":"passenger","locationId":"33799456-297A-452F-A813-CFF7E3BA60E6","name":"Eneco eMobility Witteveen & Bos - Deventer","address":"Leeuwenbrug 8","city":"Deventer","operatorName":"Eneco","maxPowerKw":0,"isMegawatt":false,"status":"UNAVAILABLE","source":"ndw"}},{"type":"Feature","geometry":{"type":"Point","coordinates":[6.284623,52.248414]},"properties":{"type":"charge","layer":"passenger","locationId":"673b3f492232a831bc00ba94fa27717e","name":"Kerkdijk 10","address":"Kerkdijk 10","city":"Bathmen","operatorName":"Vattenfall InCharge","maxPowerKw":11,"isMegawatt":false,"status":"AVAILABLE","source":"ndw"}},{"type":"Feature","geometry":{"type":"Point","coordinates":[6.195096,52.267055]},"properties":{"type":"charge","layer":"passenger","locationId":"698c7b5de7ee855b32323efb","name":"Snack Plaza (1-B)","address":"Lindeboomsweg 1-B","city":"Schalkhaar","operatorName":"E-Flux by Road","maxPowerKw":22,"isMegawatt":false,"status":"AVAILABLE","source":"ndw"}},{"type":"Feature","geometry":{"type":"Point","coordinates":[6.227209,52.265056]},"properties":{"type":"charge","layer":"passenger","locationId":"3cc1fb68-8a19-447e-87d8-fa4a666b3848","name":"J.W. Jansenpad","address":"J.W. Jansenpad 2","city":"Deventer","operatorName":"Vattenfall InCharge","maxPowerKw":11,"isMegawatt":false,"status":"AVAILABLE","source":"ndw"}},{"type":"Feature","geometry":{"type":"Point","coordinates":[6.227366,52.26129]},"properties":{"type":"charge","layer":"passenger","locationId":"c8ec3ec4-4764-4211-ad91-a76cee0b61b6","name":"Jan Rijkenstraat ","address":"Jan Rijkenstraat  1","city":"Deventer","operatorName":"Vattenfall InCharge","maxPowerKw":11,"isMegawatt":false,"status":"AVAILABLE","source":"ndw"}},{"type":"Feature","geometry":{"type":"Point","coordinates":[6.211914,52.240592]},"properties":{"type":"charge","layer":"passenger","locationId":"22dbd491-9932-455d-9ea5-57c1942a80e1","name":"Kamperfoelie","address":"Kamperfoelie 37","city":"Deventer","operatorName":"Vattenfall InCharge","maxPowerKw":11,"isMegawatt":false,"status":"AVAILABLE","source":"ndw"}},{"type":"Feature","geometry":{"type":"Point","coordinates":[6.157638,52.266927]},"properties":{"type":"charge","layer":"passenger","locationId":"5e2b0b90-f787-4887-9e56-e10e1da45eff","name":"Mariënburghplein","address":"Mariënburghplein 1","city":"Deventer","operatorName":"Vattenfall InCharge","maxPowerKw":11,"isMegawatt":false,"status":"AVAILABLE","source":"ndw"}},{"type":"Feature","geometry":{"type":"Point","coordinates":[6.163308,52.253872]},"properties":{"type":"charge","layer":"passenger","locationId":"NLLOC011687","name":"NL, Pikeursbaan 62, 7411GW, Deventer","address":"Pikeursbaan 62","city":"Deventer","operatorName":"Allego","maxPowerKw":0,"isMegawatt":false,"status":"AVAILABLE","source":"ndw"}},{"type":"Feature","geometry":{"type":"Point","coordinates":[6.212207,52.261581]},"properties":{"type":"charge","layer":"passenger","locationId":"33042c9f-b272-4691-bc4e-7dc6dc714de2","name":"Ary Schefferstraat ","address":"Ary Schefferstraat  7","city":"Deventer","operatorName":"Vattenfall InCharge","maxPowerKw":11,"isMegawatt":false,"status":"AVAILABLE","source":"ndw"}},{"type":"Feature","geometry":{"type":"Point","coordinates":[6.16702,52.26121]},"properties":{"type":"charge","layer":"passenger","locationId":"NLLOC008144","name":"NL, Ceintuurbaan 9, 7413 DA Deventer","address":"Ceintuurbaan 9","city":"Deventer","operatorName":"Allego","maxPowerKw":0,"isMegawatt":false,"status":"AVAILABLE","source":"ndw"}},{"type":"Feature","geometry":{"type":"Point","coordinates":[6.173058,52.259374]},"properties":{"type":"charge","layer":"passenger","locationId":"NLLOC022433","name":"NL, Hof van Colmschate 2, 7416 XS Deventer","address":"Hof van Colmschate 2","city":"Deventer","operatorName":"Allego","maxPowerKw":0,"isMegawatt":false,"status":"AVAILABLE","source":"ndw"}},{"type":"Feature","geometry":{"type":"Point","coordinates":[6.147889,52.260551]},