{"type":"FeatureCollection","metadata":{"gemeente":"Dijk en Waard","slug":"dijk-en-waard","code":"GM1980","generated_at":"2026-06-02T13:19:22.438Z","total_passenger":464,"total_freight":1,"bounds":[4.728852593218037,52.632678294144576,4.899879617009194,52.73141131118753],"operators":["DAEN Mobility","E-Flux by Road","Eneco","Laadnet","NXT Charging Solutions","NXT50Five","Tango electric","TotalEnergies","Ubitricity","Vattenfall InCharge","bp pulse"]},"features":[{"type":"Feature","geometry":{"type":"Point","coordinates":[4.792972,52.644624]},"properties":{"type":"charge","layer":"passenger","locationId":"930b2632-4b4e-11f0-b9aa-42010aa40043","name":"bp pulse Westerweg","address":"Westerweg 2","city":"Heerhugowaard","operatorName":"bp pulse","maxPowerKw":150,"isMegawatt":false,"status":"AVAILABLE","source":"ndw"}},{"type":"Feature","geometry":{"type":"Point","coordinates":[4.818719,52.65902]},"properties":{"type":"charge","layer":"passenger","locationId":"B6912C0A-50EB-4122-9A09-F015EE8D2662","name":"TNLP008262","address":"Amatist 72","city":"Heerhugowaard","operatorName":"TotalEnergies","maxPowerKw":11,"isMegawatt":false,"status":"AVAILABLE","source":"ndw"}},{"type":"Feature","geometry":{"type":"Point","coordinates":[4.799967,52.686285]},"properties":{"type":"charge","layer":"passenger","locationId":"282e7aee-e701-11ec-9676-42010aa4005f","name":"TNLP006939","address":"Bosgroet 77","city":"Zuid-Scharwoude","operatorName":"TotalEnergies","maxPowerKw":17,"isMegawatt":false,"status":"UNAVAILABLE","source":"ndw"}},{"type":"Feature","geometry":{"type":"Point","coordinates":[4.820662,52.641281]},"properties":{"type":"charge","layer":"passenger","locationId":"71e8664c-bfc0-11ee-a069-42010aa40fc0","name":"TNLP009385","address":"Tine Tammesplantsoen 2","city":"Heerhugowaard","operatorName":"TotalEnergies","maxPowerKw":17,"isMegawatt":false,"status":"UNAVAILABLE","source":"ndw"}},{"type":"Feature","geometry":{"type":"Point","coordinates":[4.810447,52.656476]},"properties":{"type":"charge","layer":"passenger","locationId":"1c254b48-95ad-11f0-858a-42010aa400b8","name":"Shell Recharge NL Renhagedis 40, Heerhugowaard","address":"Renhagedis 40","city":"Heerhugowaard","operatorName":"Ubitricity","maxPowerKw":22,"isMegawatt":false,"status":"AVAILABLE","source":"ndw"}},{"type":"Feature","geometry":{"type":"Point","coordinates":[4.803394,52.663215]},"properties":{"type":"charge","layer":"passenger","locationId":"76492b68-c0e5-11f0-ad5a-42010aa400b8","name":"Shell Recharge NL Vrederiksakker 36, Heerhugowaard","address":"Vrederiksakker 36","city":"Heerhugowaard","operatorName":"Ubitricity","maxPowerKw":22,"isMegawatt":false,"status":"AVAILABLE","source":"ndw"}},{"type":"Feature","geometry":{"type":"Point","coordinates":[4.84553,52.669236]},"properties":{"type":"charge","layer":"passenger","locationId":"8fb48d16-05df-11f0-89f1-42010aa400b8","name":"Shell Recharge NL Middenweg 206, Heerhugowaard","address":"Middenweg 206","city":"Heerhugowaard","operatorName":"Ubitricity","maxPowerKw":22,"isMegawatt":false,"status":"AVAILABLE","source":"ndw"}},{"type":"Feature","geometry":{"type":"Point","coordinates":[4.8578,52.6777]},"properties":{"type":"charge","layer":"passenger","locationId":"a1b597dc-4f3c-11e8-b3dc-42010a840002","name":"Shell Recharge NL Jan Mostaertlaan 18 Dijk en Waard","address":"Jan Mostaertlaan 18","city":"Dijk en Waard","operatorName":"Ubitricity","maxPowerKw":11,"isMegawatt":false,"status":"AVAILABLE","source":"ndw"}},{"type":"Feature","geometry":{"type":"Point","coordinates":[4.844655,52.663878]},"properties":{"type":"charge","layer":"passenger","locationId":"c40e6828-2766-450e-8ef7-faf155699cb0","name":"TNLP034217","address":"Olmenlaan 29","city":"Heerhugowaard","operatorName":"TotalEnergies","maxPowerKw":14,"isMegawatt":false,"status":"CHARGING","source":"ndw"}},{"type":"Feature","geometry":{"type":"Point","coordinates":[4.80839,52.69411]},"properties":{"type":"charge","layer":"passenger","locationId":"31","name":"Shell Recharge NL Voorburggracht 202","address":"Voorburggracht 202","city":"Zuid-Scharwoude","operatorName":"Ubitricity","maxPowerKw":11,"isMegawatt":false,"status":"AVAILABLE","source":"ndw"}},{"type":"Feature","geometry":{"type":"Point","coordinates":[4.862217,52.66406]},"properties":{"type":"charge","layer":"passenger","locationId":"19473940-85ef-11f0-86b2-42010aa400b8","name":"TNLP015359","address":"Merelweg 46","city":"Heerhugowaard","operatorName":"TotalEnergies","maxPowerKw":17,"isMegawatt":false,"status":"AVAILABLE","source":"ndw"}},{"type":"Feature","geometry":{"type":"Point","coordinates":[4.80365,52.69364]},"properties":{"type":"charge","layer":"passenger","locationId":"99875d92-41a3-11ea-898a-42010a840fd6","name":"PP004215","address":"Langeweide 258","city":"Zuid-Scharwoude","operatorName":"TotalEnergies","maxPowerKw":0,"isMegawatt":false,"status":"UNAVAILABLE","source":"ndw"}},{"type":"Feature","geometry":{"type":"Point","coordinates":[4.849198,52.664608]},"properties":{"type":"charge","layer":"passenger","locationId":"af9b24f8-13d4-11ef-8eb2-42010aa400b8","name":"TNLP009546","address":"Beukenlaan 1","city":"Heerhugowaard","operatorName":"TotalEnergies","maxPowerKw":17,"isMegawatt":false,"status":"UNAVAILABLE","source":"ndw"}},{"type":"Feature","geometry":{"type":"Point","coordinates":[4.864182,52.670702]},"properties":{"type":"charge","layer":"passenger","locationId":"dc57d6e2-1cd3-11ee-b3c3-42010aa40047","name":"TNLP009294","address":"Zeebiesstraat 10","city":"Heerhugowaard","operatorName":"TotalEnergies","maxPowerKw":17,"isMegawatt":false,"status":"UNAVAILABLE","source":"ndw"}},{"type":"Feature","geometry":{"type":"Point","coordinates":[4.801652,52.647268]},"properties":{"type":"charge","layer":"passenger","locationId":"F7044B6D-9EF0-46B6-A9BD-AE67D7A2D992","name":"TNLP008281","address":"Noorderlicht 101","city":"Heerhugowaard","operatorName":"TotalEnergies","maxPowerKw":14,"isMegawatt":false,"status":"AVAILABLE","source":"ndw"}},{"type":"Feature","geometry":{"type":"Point","coordinates":[4.817194,52.652498]},"properties":{"type":"charge","layer":"passenger","locationId":"b02c0352-06a8-11f0-baff-42010aa400b8","name":"Shell Recharge NL Catharina van Rennes Erf 4, Heerhugowaard","address":"Catharina van Rennes Erf 4","city":"Heerhugowaard","operatorName":"Ubitricity","maxPowerKw":22,"isMegawatt":false,"status":"AVAILABLE","source":"ndw"}},{"type":"Feature","geometry":{"type":"Point","coordinates":[4.82842,52.664247]},"properties":{"type":"charge","layer":"passenger","locationId":"67f621f6-72bd-11ee-9b56-42010aa40fc0","name":"bp pulse Middenwaard","address":"Zuidtangent 1","city":"Heerhugowaard","operatorName":"bp pulse","maxPowerKw":150,"isMegawatt":false,"status":"CHARGING","source":"ndw"}},{"type":"Feature","geometry":{"type":"Point","coordinates":[4.809306,52.657211]},"properties":{"type":"charge","layer":"passenger","locationId":"a33a3534-2c65-11ee-b261-42010aa40fc0","name":"TNLP009390","address":"IJsbeer 2","city":"Heerhugowaard","operatorName":"TotalEnergies","maxPowerKw":17,"isMegawatt":false,"status":"CHARGING","source":"ndw"}},{"type":"Feature","geometry":{"type":"Point","coordinates":[4.86442,52.66729]},"properties":{"type":"charge","layer":"passenger","locationId":"257921a2-4f3c-11e8-a615-42010a840002","name":"Shell Recharge NL Witte Klaverweide 27 Heerhugowaard","address":"Witte Klaverweide 27","city":"Heerhugowaard","operatorName":"Ubitricity","maxPowerKw":11,"isMegawatt":false,"status":"AVAILABLE","source":"ndw"}},{"type":"Feature","geometry":{"type":"Point","coordinates":[4.843077,52.674276]},"properties":{"type":"charge","layer":"passenger","locationId":"81d0ecc2-9fe4-11f0-8584-42010aa400b8","name":"Shell Recharge NL Jac. Coorenlaan 1, Heerhugowaard","address":"Jac. Coorenlaan 1","city":"Heerhugowaard","operatorName":"Ubitricity","maxPowerKw":22,"isMegawatt":false,"status":"AVAILABLE","source":"ndw"}},{"type":"Feature","geometry":{"type":"Point","coordinates":[4.796609,52.71908]},"properties":{"type":"charge","layer":"passenger","locationId":"6874f4f408856d1cee4f208a","name":"Kroonstraat 6","address":"Kroonstraat 6","city":"Oudkarspel","operatorName":"E-Flux by Road","maxPowerKw":11,"isMegawatt":false,"status":"CHARGING","source":"ndw"}},{"type":"Feature","geometry":{"type":"Point","coordinates":[4.81846,52.66739]},"properties":{"type":"charge","layer":"passenger","locationId":"e2643f6c-79de-11ef-aa3c-42010aa400b8","name":"Eneco eMobility VWML - Dudokweg 19 - Heerhugowaard","address":"W.M. Dudokweg 19","city":"Heerhugowaard","operatorName":"Eneco","maxPowerKw":11,"isMegawatt":false,"status":"AVAILABLE","source":"ndw"}},{"type":"Feature","geometry":{"type":"Point","coordinates":[4.816117,52.642113]},"properties":{"type":"charge","layer":"passenger","locationId":"62bf9566-6172-11ee-baed-42010aa40fc0","name":"TNLP009610","address":"Tijm 23","city":"Heerhugowaard","operatorName":"TotalEnergies","maxPowerKw":17,"isMegawatt":false,"status":"UNAVAILABLE","source":"ndw"}},{"type":"Feature","geometry":{"type":"Point","coordinates":[4.832593,52.649664]},"properties":{"type":"charge","layer":"passenger","locationId":"c7d21872-902b-11f0-8fdf-42010aa400b8","name":"PP005545","address":"Weerelaan 123","city":"Heerhugowaard","operatorName":"TotalEnergies","maxPowerKw":0,"isMegawatt":false,"status":"AVAILABLE","source":"ndw"}},{"type":"Feature","geometry":{"type":"Point","coordinates":[4.816639,52.700403]},"properties":{"type":"charge","layer":"passenger","locationId":"cb3ad1aa-5c5d-11ea-8d83-42010a840fd1","name":"PP004061","address":"Dokter Wilminkstraat 3","city":"Noord-Scharwoude","operatorName":"TotalEnergies","maxPowerKw":0,"isMegawatt":false,"status":"UNAVAILABLE","source":"ndw"}},{"type":"Feature","geometry":{"type":"Point","coordinates":[4.793374,52.681084]},"properties":{"type":"charge","layer":"passenger","locationId":"ff733c62-9c85-11ed-b835-42010aa40fda","name":"TNLP007998","address":"Langoort 7","city":"Broek op Langedijk","operatorName":"TotalEnergies","maxPowerKw":17,"isMegawatt":false,"status":"CHARGING","source":"ndw"}},{"type":"Feature","geometry":{"type":"Point","coordinates":[4.861986,52.665673]},"properties":{"type":"charge","layer":"passenger","locationId":"094eff0e-88ee-11ef-a8c5-42010aa400b8","name":"Shell Recharge NL Nachtegaalstraat 24, Heerhugowaard","address":"Nachtegaalstraat 24","city":"Heerhugowaard","operatorName":"Ubitricity","maxPowerKw":22,"isMegawatt":false,"status":"AVAILABLE","source":"ndw"}},{"type":"Feature","geometry":{"type":"Point","coordinates":[4.8619863,52.6656727]},"properties":{"type":"charge","layer":"passenger","locationId":"1160","name":"Shell Recharge NL Nachtegaalstraat 24","address":"Nachtegaalstraat 24","city":"Heerhugowaard","operatorName":"Ubitricity","maxPowerKw":22,"isMegawatt":false,"status":"AVAILABLE","source":"ndw"}},{"type":"Feature","geometry":{"type":"Point","coordinates":[4.854453,52.670426]},"properties":{"type":"charge","layer":"passenger","locationId":"3d18867f7ee376c4428502aa05e13c29","name":"Gerard Douplantsoen 80","address":"Gerard Douplantsoen 80","city":"Heerhugowaard","operatorName":"Vattenfall InCharge","maxPowerKw":11,"isMegawatt":false,"status":"AVAILABLE","source":"ndw"}},{"type":"Feature","geometry":{"type":"Point","coordinates":[4.81133,52.64663]},"properties":{"type":"charge","layer":"passenger","locationId":"8724af14-8f30-11e8-921d-42010a840002","name":"Shell Recharge NL Zuiderlicht 399 Heerhugowaard","address":"Zuiderlicht 399","city":"Heerhugowaard","operatorName":"Ubitricity","maxPowerKw":11,"isMegawatt":false,"status":"AVAILABLE","source":"ndw"}},{"type":"Feature","geometry":{"type":"Point","coordinates":[4.80008,52.67647]},"properties":{"type":"charge","layer":"passenger","locationId":"877c719e-d546-11ec-a109-42010a840003","name":"Shell Recharge NL Hornweg 16 Broek op Langedijk","address":"Hornweg 16","city":"Broek op Langedijk","operatorName":"Ubitricity","maxPowerKw":11,"isMegawatt":false,"status":"AVAILABLE","source":"ndw"}},{"type":"Feature","geometry":{"type":"Point","coordinates":[4.831326,52.645401]},"properties":{"type":"charge","layer":"passenger","locationId":"7f164ae9db35d8b60c53936e95273f3f","name":"R. Neter-Montanhestuin 31","address":"R. Neter-Montanhestuin 31","city":"Heerhugowaard","operatorName":"Vattenfall InCharge","maxPowerKw":11,"isMegawatt":false,"status":"CHARGING","source":"ndw"}},{"type":"Feature","geometry":{"type":"Point","coordinates":[4.828384,52.648394]},"properties":{"type":"charge","layer":"passenger","locationId":"67ee2636f319371a55ef4c75","name":"AC op 't Landtplantsoen 48","address":"Anna Clasina op 't Landtplantsoen 48","city":"Heerhugowaard","operatorName":"E-Flux by Road","maxPowerKw":11,"isMegawatt":false,"status":"CHARGING","source":"ndw"}},{"type":"Feature","geometry":{"type":"Point","coordinates":[4.820271,52.656821]},"properties":{"type":"charge","layer":"passenger","locationId":"0b5ce78e60326c5efe42da219612522e","name":"Beryl 16","address":"Beryl 16","city":"Heerhugowaard","operatorName":"Vattenfall InCharge","maxPowerKw":11,"isMegawatt":false,"status":"AVAILABLE","source":"ndw"}},{"type":"Feature","geometry":{"type":"Point","coordinates":[4.808208,52.702021]},"properties":{"type":"charge","layer":"passenger","locationId":"840250ac-7834-42c7-bd0c-1829dbf76f2a","name":"TNLP007014","address":"Fransepad 12","city":"Noord-Scharwoude","operatorName":"TotalEnergies","maxPowerKw":17,"isMegawatt":false,"status":"AVAILABLE","source":"ndw"}},{"type":"Feature","geometry":{"type":"Point","coordinates":[4.832826,52.652911]},"properties":{"type":"charge","layer":"passenger","locationId":"40dcf190-971b-4c03-acc0-b18a917902f4","name":"TNLP034635","address":"Neslaan 9","city":"Heerhugowaard","operatorName":"TotalEnergies","maxPowerKw":14,"isMegawatt":false,"status":"AVAILABLE","source":"ndw"}},{"type":"Feature","geometry":{"type":"Point","coordinates":[4.824067,52.660092]},"properties":{"type":"charge","layer":"passenger","locationId":"22A6637C-05FD-474F-9927-6CB8B29A6748","name":"TNLP009688","address":"Bergkristal 6","city":"Heerhugowaard","operatorName":"TotalEnergies","maxPowerKw":17,"isMegawatt":false,"status":"AVAILABLE","source":"ndw"}},{"type":"Feature","geometry":{"type":"Point","coordinates":[4.815744,52.655984]},"properties":{"type":"charge","layer":"passenger","locationId":"d385e2e2-dc07-11ec-8344-42010aa40019","name":"TNLP006745","address":"Zeearend 2","city":"Heerhugowaard","operatorName":"TotalEnergies","maxPowerKw":17,"isMegawatt":false,"status":"AVAILABLE","source":"ndw"}},{"type":"Feature","geometry":{"type":"Point","coordinates":[4.814454,52.705992]},"properties":{"type":"charge","layer":"passenger","locationId":"c78385ab-9324-4b6c-a780-08c82f40683c","name":"TNLP006726","address":"Nova Zembla 18","city":"Noord-Scharwoude","operatorName":"TotalEnergies","maxPowerKw":17,"isMegawatt":false,"status":"AVAILABLE","source":"ndw"}},{"type":"Feature","geometry":{"type":"Point","coordinates":[4.801188,52.6773]},"properties":{"type":"charge","layer":"passenger","locationId":"67ee4f4ff84d3752f66ee0fa","name":"Statedijk 5","address":"Statedijk 1","city":"Broek op Langedijk","operatorName":"E-Flux by Road","maxPowerKw":11,"isMegawatt":false,"status":"CHARGING","source":"ndw"}},{"type":"Feature","geometry":{"type":"Point","coordinates":[4.8036455,52.644596]},"properties":{"type":"charge","layer":"passenger","locationId":"1892","name":"Shell Recharge NL Hemelboog Binnen 8","address":"Hemelboog Binnen 8","city":"Heerhugowaard","operatorName":"Ubitricity","maxPowerKw":22,"isMegawatt":false,"status":"AVAILABLE","source":"ndw"}},{"type":"Feature","geometry":{"type":"Point","coordinates":[4.816046,52.701404]},"properties":{"type":"charge","layer":"passenger","locationId":"3653F72C-47C8-4643-8D0F-487629023A66","name":"TNLP008198","address":"Oosterstraat 71","city":"Noord-Scharwoude","operatorName":"TotalEnergies","maxPowerKw":17,"isMegawatt":false,"status":"AVAILABLE","source":"ndw"}},{"type":"Feature","geometry":{"type":"Point","coordinates":[4.81126,52.6534]},"properties":{"type":"charge","layer":"passenger","locationId":"39dc2d40-ca75-432f-a94d-a9a7125951bc","name":"PP004040","address":"Keizerfazant 35","city":"Heerhugowaard","operatorName":"TotalEnergies","maxPowerKw":11,"isMegawatt":false,"status":"AVAILABLE","source":"ndw"}},{"type":"Feature","geometry":{"type":"Point","coordinates":[4.82063,52.66053]},"properties":{"type":"charge","layer":"passenger","locationId":"125","name":"Shell Recharge NL Opaal 48","address":"Opaal 48","city":"Heerhugowaard","operatorName":"Ubitricity","maxPowerKw":11,"isMegawatt":false,"status":"AVAILABLE","source":"ndw"}},{"type":"Feature","geometry":{"type":"Point","coordinates":[4.796946,52.680151]},"properties":{"type":"charge","layer":"passenger","locationId":"dcfc24a9-8b48-465b-8e1e-c0687175c6e0","name":"TNLP007002","address":"Zuidersloot 34","city":"Broek op Langedijk","operatorName":"TotalEnergies","maxPowerKw":17,"isMegawatt":false,"status":"AVAILABLE","source":"ndw"}},{"type":"Feature","geometry":{"type":"Point","coordinates":[4.81198,52.70145]},"properties":{"type":"charge","layer":"passenger","locationId":"1b89a178-d54b-11ec-aa89-42010a840003","name":"TNLP007001","address":"Zonoord 4","city":"Noord-Scharwoude","operatorName":"TotalEnergies","maxPowerKw":17,"isMegawatt":false,"status":"UNAVAILABLE","source":"ndw"}},{"type":"Feature","geometry":{"type":"Point","coordinates":[4.792451,52.660818]},"properties":{"type":"charge","layer":"passenger","locationId":"1be1571c-5e57-11ec-862d-42010a840037","name":"TNLP006920","address":"Magnolialaan 89","city":"Sint Pancras","operatorName":"TotalEnergies","maxPowerKw":17,"isMegawatt":false,"status":"UNAVAILABLE","source":"ndw"}},{"type":"Feature","geometry":{"type":"Point","coordinates":[4.844008,52.683578]},"properties":{"type":"charge","layer":"passenger","locationId":"3e5bf96a-68de-11f0-8b79-42010aa400b8","name":"TNLP015162","address":"Het Schild 1","city":"Heerhugowaard","operatorName":"TotalEnergies","maxPowerKw":17,"isMegawatt":false,"status":"AVAILABLE","source":"ndw"}},{"type":"Feature","geometry":{"type":"Point","coordinates":[4.78937,52.65835]},"properties":{"type":"charge","layer":"passenger","locationId":"b633a89c-895b-11ea-85bc-42010a840fcd","name":"PP005147","address":"Prunuslaan 34","city":"Sint Pancras","operatorName":"TotalEnergies","maxPowerKw":0,"isMegawatt":false,"status":"CHARGING","source":"ndw"}},{"type":"Feature","geometry":{"type":"Point","coordinates":[4.842089,52.660437]},"properties":{"type":"charge","layer":"passenger","locationId":"e7d39cd0-2b39-11ee-8752-42010aa40fc0","name":"TNLP009379","address":"Berkenlaan 55","city":"Heerhugowaard","operatorName":"TotalEnergies","maxPowerKw":17,"isMegawatt":false,"status":"UNAVAILABLE","source":"ndw"}},{"type":"Feature","geometry":{"type":"Point","coordinates":[4.82145,52.64879]},"properties":{"type":"charge","layer":"passenger","locationId":"62b5584a-8f30-11e8-ad9f-42010a840002","name":"Shell Recharge NL Aagje Dekentuin 13 Heerhugowaard","address":"Aagje Dekentuin 13","city":"Heerhugowaard","operatorName":"Ubitricity","maxPowerKw":11,"isMegawatt":false,"status":"AVAILABLE","source":"ndw"}},{"type":"Feature","geometry":{"type":"Point","coordinates":[4.807405,52.674707]},"properties":{"type":"charge","layer":"passenger","locationId":"62e70e3c-4f3c-11e8-bc12-42010a840002","name":"Shell Recharge NL Havenplein 24, Broek op Langedijk","address":"Havenplein 24","city":"Broek op Langedijk","operatorName":"Ubitricity","maxPowerKw":22,"isMegawatt":false,"status":"AVAILABLE","source":"ndw"}},{"type":"Feature","geometry":{"type":"Point","coordinates":[4.845417,52.665036]},"properties":{"type":"charge","layer":"passenger","locationId":"764cc2da-92a4-11e9-9414-42010a840fc4","name":"Shell Recharge NL Spirealaan 16 Heerhugowaard","address":"Spirealaan 16","city":"Heerhugowaard","operatorName":"Ubitricity","maxPowerKw":11,"isMegawatt":false,"status":"AVAILABLE","source":"ndw"}},{"type":"Feature","geometry":{"type":"Point","coordinates":[4.803646,52.644596]},"properties":{"type":"charge","layer":"passenger","locationId":"cc2067a0-7319-11f0-8233-42010aa400b8","name":"Shell Recharge NL Hemelboog Binnen 8, Heerhugowaard","address":"Hemelboog Binnen 8","city":"Heerhugowaard","operatorName":"Ubitricity","maxPowerKw":22,"isMegawatt":false,"status":"AVAILABLE","source":"ndw"}},{"type":"Feature","geometry":{"type":"Point","coordinates":[4.819969,52.660692]},"properties":{"type":"charge","layer":"passenger","locationId":"A2CABE80-38EE-42DA-84B1-64C48DF3E175","name":"TNLP009921","address":"Opaal 64","city":"Heerhugowaard","operatorName":"TotalEnergies","maxPowerKw":17,"isMegawatt":false,"status":"AVAILABLE","source":"ndw"}},{"type":"Feature","geometry":{"type":"Point","coordinates":[4.8587,52.67841]},"properties":{"type":"charge","layer":"passenger","locationId":"569348e5fc21c22aec9a8634baecbad1","name":"Aert de Gelderlaan 4","address":"Aert de Gelderlaan 4","city":"Heerhugowaard","operatorName":"Vattenfall InCharge","maxPowerKw":11,"isMegawatt":false,"status":"AVAILABLE","source":"ndw"}},{"type":"Feature","geometry":{"type":"Point","coordinates":[4.808845,52.692984]},"properties":{"type":"charge","layer":"passenger","locationId":"FE7533F1-B26D-4D88-A057-DB92C3F1FCB3","name":"TNLP008287","address":"Voorburggracht 168","city":"Zuid-Scharwoude","operatorName":"TotalEnergies","maxPowerKw":14,"isMegawatt":false,"status":"AVAILABLE","source":"ndw"}},{"type":"Feature","geometry":{"type":"Point","coordinates":[4.808208,52.702021]},"properties":{"type":"charge","layer":"passenger","locationId":"54bf820e-8b50-11ec-a3c6-42010a840051","name":"TNLP007014","address":"Fransepad 12","city":"Noord-Scharwoude","operatorName":"TotalEnergies","maxPowerKw":17,"isMegawatt":false,"status":"AVAILABLE","source":"ndw"}},{"type":"Feature","geometry":{"type":"Point","coordinates":[4.817047,52.638732]},"properties":{"type":"charge","layer":"passenger","locationId":"e96660ec-1fd0-11ee-92ae-42010aa4003c","name":"TNLP009234","address":"Valeriaan 8","city":"Heerhugowaard","operatorName":"TotalEnergies","maxPowerKw":17,"isMegawatt":false,"status":"UNAVAILABLE","source":"ndw"}},{"type":"Feature","geometry":{"type":"Point","coordinates":[4.81222,52.65493]},"properties":{"type":"charge","layer":"passenger","locationId":"200","name":"Shell Recharge NL Zwarte Kaaiman 40","address":"Zwarte Kaaiman 40","city":"Heerhugowaard","operatorName":"Ubitricity","maxPowerKw":11,"isMegawatt":false,"status":"UNAVAILABLE","source":"ndw"}},{"type":"Feature","geometry":{"type":"Point","coordinates":[4.8377,52.67269]},"properties":{"type":"charge","layer":"passenger","locationId":"271","name":"Shell Recharge NL Callistolaan 3","address":"Callistolaan 3","city":"Heerhugowaard","operatorName":"Ubitricity","maxPowerKw":22,"isMegawatt":false,"status":"AVAILABLE","source":"ndw"}},{"type":"Feature","geometry":{"type":"Point","coordinates":[4.7894,52.66268]},"properties":{"type":"charge","layer":"passenger","locationId":"1b6dcd22-d546-11ec-b405-42010a840003","name":"Shell Recharge NL Rozenlaan 38 Sint Pancras","address":"Rozenlaan 38","city":"Sint Pancras","operatorName":"Ubitricity","maxPowerKw":11,"isMegawatt":false,"status":"AVAILABLE","source":"ndw"}},{"type":"Feature","geometry":{"type":"Point","coordinates":[4.83946,52.66941]},"properties":{"type":"charge","layer":"passenger","locationId":"440567cc-4fc5-11e9-bc01-42010a840fe0","name":"Shell Recharge NL Staringlaan 61 Heerhugowaard","address":"Staringlaan 61","city":"Heerhugowaard","operatorName":"Ubitricity","maxPowerKw":11,"isMegawatt":false,"status":"AVAILABLE","source":"ndw"}},{"type":"Feature","geometry":{"type":"Point","coordinates":[4.83027,52.64503]},"properties":{"type":"charge","layer":"passenger","locationId":"66aad54a-d547-11ec-a0c1-42010a840003","name":"Shell Recharge NL H.T. Kuipers Rietbergtuin 20 Dijk en Waard","address":"H.T. Kuipers Rietbergtuin 20","city":"Dijk en Waard","operatorName":"Ubitricity","maxPowerKw":11,"isMegawatt":false,"status":"UNAVAILABLE","source":"ndw"}},{"type":"Feature","geometry":{"type":"Point","coordinates":[4.82277,52.64097]},"properties":{"type":"charge","layer":"passenger","locationId":"a1a82570-4f3c-11e8-bb54-42010a840002","name":"Shell Recharge NL Margaret Staalplantsoen 25 Dijk en Waard","address":"Margaret Staalplantsoen 25","city":"Dijk en Waard","operatorName":"Ubitricity","maxPowerKw":11,"isMegawatt":false,"status":"AVAILABLE","source":"ndw"}},{"type":"Feature","geometry":{"type":"Point","coordinates":[4.82477,52.66001]},"properties":{"type":"charge","layer":"passenger","locationId":"a266d916-4f3c-11e8-980e-42010a840002","name":"Shell Recharge NL Bergkristal 1 Dijk en Waard","address":"Bergkristal 1","city":"Dijk en Waard","operatorName":"Ubitricity","maxPowerKw":11,"isMegawatt":false,"status":"AVAILABLE","source":"ndw"}},{"type":"Feature","geometry":{"type":"Point","coordinates":[4.830439,52.683084]},"properties":{"type":"charge","layer":"passenger","locationId":"F2B1CF63-089C-4767-893F-E7FA9531FBB2","name":"Eneco eMobility Sybrandy B.V. - Heerhugowaard","address":"Kelvinstraat 8","city":"Heerhugowaard","operatorName":"Eneco","maxPowerKw":22,"isMegawatt":false,"status":"AVAILABLE","source":"ndw"}},{"type":"Feature","geometry":{"type":"Point","coordinates":[4.835288,52.670384]},"properties":{"type":"charge","layer":"passenger","locationId":"611914b8-7546-11ec-b17a-42010a84003e","name":"TNLP006983","address":"Ariellaan 2","city":"Heerhugowaard","operatorName":"TotalEnergies","maxPowerKw":17,"isMegawatt":false,"status":"AVAILABLE","source":"ndw"}},{"type":"Feature","geometry":{"type":"Point","coordinates":[4.845417,52.665036]},"properties":{"type":"charge","layer":"passenger","locationId":"751","name":"Shell Recharge NL Spirealaan 16","address":"Spirealaan 16","city":"Heerhugowaard","operatorName":"Ubitricity","maxPowerKw":11,"isMegawatt":false,"status":"AVAILABLE","source":"ndw"}},{"type":"Feature","geometry":{"type":"Point","coordinates":[4.821689,52.662242]},"properties":{"type":"charge","layer":"passenger","locationId":"0133a10c-ab74-11ed-a288-42010aa40062","name":"TNLP007981","address":"Straalsteen 35","city":"Heerhugowaard","operatorName":"TotalEnergies","maxPowerKw":17,"isMegawatt":false,"status":"UNAVAILABLE","source":"ndw"}},{"type":"Feature","geometry":{"type":"Point","coordinates":[4.788807,52.665516]},"properties":{"type":"charge","layer":"passenger","locationId":"9f769d8c-c6f0-11ed-8ad6-42010aa4007b","name":"TNLP008096","address":"Domeynen 17","city":"Sint Pancras","operatorName":"TotalEnergies","maxPowerKw":17,"isMegawatt":false,"status":"UNAVAILABLE","source":"ndw"}},{"type":"Feature","geometry":{"type":"Point","coordinates":[4.841,52.67166]},"properties":{"type":"charge","layer":"passenger","locationId":"b5d14558-8d71-11ee-897f-42010aa40fc0","name":"TNLP009907","address":"Van Wijngaardenplein 49","city":"Heerhugowaard","operatorName":"TotalEnergies","maxPowerKw":17,"isMegawatt":false,"status":"CHARGING","source":"ndw"}},{"type":"Feature","geometry":{"type":"Point","coordinates":[4.786858,52.666174]},"properties":{"type":"charge","layer":"passenger","locationId":"c1129110-5e4b-11ee-b364-42010aa40fc0","name":"TNLP009619","address":"Kerkplein 5","city":"Sint Pancras","operatorName":"TotalEnergies","maxPowerKw":17,"isMegawatt":false,"status":"UNAVAILABLE","source":"ndw"}},{"type":"Feature","geometry":{"type":"Point","coordinates":[4.808075,52.681564]},"properties":{"type":"charge","layer":"passenger","locationId":"cce04db0-8406-11f0-9f74-42010aa400b8","name":"TNLP008001","address":"Dorpsstraat 152","city":"Broek op Langedijk","operatorName":"TotalEnergies","maxPowerKw":17,"isMegawatt":false,"status":"CHARGING","source":"ndw"}},{"type":"Feature","geometry":{"type":"Point","coordinates":[4.80985,52.70515]},"properties":{"type":"charge","layer":"passenger","locationId":"44015f4c-4fc5-11e9-8b1b-42010a840038","name":"Shell Recharge NL De Mossel 1 Noord-Scharwoude","address":"De Mossel 1","city":"Noord-Scharwoude","operatorName":"Ubitricity","maxPowerKw":11,"isMegawatt":false,"status":"AVAILABLE","source":"ndw"}},{"type":"Feature","geometry":{"type":"Point","coordinates":[4.835288,52.670384]},"properties":{"type":"charge","layer":"passenger","locationId":"2655c13a-5c50-4011-9be9-77c0d4cf7fd1","name":"TNLP006983","address":"Ariellaan 2","city":"Heerhugowaard","operatorName":"TotalEnergies","maxPowerKw":17,"isMegawatt":false,"status":"AVAILABLE","source":"ndw"}},{"type":"Feature","geometry":{"type":"Point","coordinates":[4.81887,52.70303]},"properties":{"type":"charge","layer":"passenger","locationId":"269057b8-4f3c-11e8-8c12-42010a840002","name":"Shell Recharge NL Hulststraat 27 Noord-Scharwoude","address":"Hulststraat 27","city":"Noord-Scharwoude","operatorName":"Ubitricity","maxPowerKw":11,"isMegawatt":false,"status":"AVAILABLE","source":"ndw"}},{"type":"Feature","geometry":{"type":"Point","coordinates":[4.82649,52.64852]},"properties":{"type":"charge","layer":"passenger","locationId":"de586eaa-d607-11e9-8073-42010a84002a","name":"Shell Recharge NL Clara Wichmanntuin 2 Heerhugowaard","address":"Clara Wichmanntuin 2","city":"Heerhugowaard","operatorName":"Ubitricity","maxPowerKw":11,"isMegawatt":false,"status":"AVAILABLE","source":"ndw"}},{"type":"Feature","geometry":{"type":"Point","coordinates":[4.82277,52.64097]},"properties":{"type":"charge","layer":"passenger","locationId":"1567","name":"Shell Recharge NL Margaret Staalplantsoen 25","address":"Margaret Staalplantsoen 25","city":"Dijk en Waard","operatorName":"Ubitricity","maxPowerKw":11,"isMegawatt":false,"status":"AVAILABLE","source":"ndw"}},{"type":"Feature","geometry":{"type":"Point","coordinates":[4.830527,52.670423]},"properties":{"type":"charge","layer":"passenger","locationId":"E95FEE08-9CA3-417C-9650-08400EBCD619","name":"TNLP008179","address":"Jupiterlaan 28","city":"Heerhugowaard","operatorName":"TotalEnergies","maxPowerKw":17,"isMegawatt":false,"status":"AVAILABLE","source":"ndw"}},{"type":"Feature","geometry":{"type":"Point","coordinates":[4.836654,52.661126]},"properties":{"type":"charge","layer":"passenger","locationId":"d9746cee-b450-11f0-bddb-42010aa400b8","name":"TNLP009381","address":"Mahonialaan 24","city":"Heerhugowaard","operatorName":"TotalEnergies","maxPowerKw":17,"isMegawatt":false,"status":"UNAVAILABLE","source":"ndw"}},{"type":"Feature","geometry":{"type":"Point","coordinates":[4.800021,52.712153]},"properties":{"type":"charge","layer":"passenger","locationId":"ed0cfaac-7fab-11f0-9111-42010aa400b8","name":"TNLP007972","address":"Perzikkruid 2","city":"Oudkarspel","operatorName":"TotalEnergies","maxPowerKw":17,"isMegawatt":false,"status":"UNAVAILABLE","source":"ndw"}},{"type":"Feature","geometry":{"type":"Point","coordinates":[4.800063,52.716545]},"properties":{"type":"charge","layer":"passenger","locationId":"f93eb9e2-96ff-11ed-bf0e-42010aa40077","name":"TNLP007968","address":"Dorpsstraat 920","city":"Oudkarspel","operatorName":"TotalEnergies","maxPowerKw":17,"isMegawatt":false,"status":"UNAVAILABLE","source":"ndw"}},{"type":"Feature","geometry":{"type":"Point","coordinates":[4.828418,52.66605]},"properties":{"type":"charge","layer":"passenger","locationId":"D1D74079-1B93-4357-932F-EC3B9836404E","name":"TNLP009339","address":"Gorterlaan 19","city":"Heerhugowaard","operatorName":"TotalEnergies","maxPowerKw":17,"isMegawatt":false,"status":"AVAILABLE","source":"ndw"}},{"type":"Feature","geometry":{"type":"Point","coordinates":[4.843209,52.667205]},"properties":{"type":"charge","layer":"passenger","locationId":"41e3894c-573b-11ee-b27c-42010aa40fc0","name":"TNLP009484","address":"Acacialaan 2","city":"Heerhugowaard","operatorName":"TotalEnergies","maxPowerKw":17,"isMegawatt":false,"status":"UNAVAILABLE","source":"ndw"}},{"type":"Feature","geometry":{"type":"Point","coordinates":[4.831399,52.669504]},"properties":{"type":"charge","layer":"passenger","locationId":"8d72698e-4ff8-11eb-9c6e-42010a84006a","name":"TNLP005835","address":"Saturnuslaan 25","city":"Heerhugowaard","operatorName":"TotalEnergies","maxPowerKw":0,"isMegawatt":false,"status":"CHARGING","source":"ndw"}},{"type":"Feature","geometry":{"type":"Point","coordinates":[4.791562,52.68202]},"properties":{"type":"charge","layer":"passenger","locationId":"dbdd6c1b-2fd0-4a4d-8022-58f1bd801972","name":"TNLP006728","address":"Bonoort 30","city":"Broek op Langedijk","operatorName":"TotalEnergies","maxPowerKw":17,"isMegawatt":false,"status":"AVAILABLE","source":"ndw"}},{"type":"Feature","geometry":{"type":"Point","coordinates":[4.8061433,52.6993277]},"properties":{"type":"charge","layer":"passenger","locationId":"2342","name":"Shell Recharge NL Weidemolen 22","address":"Weidemolen 22","city":"Noord-Scharwoude","operatorName":"Ubitricity","maxPowerKw":22,"isMegawatt":false,"status":"CHARGING","source":"ndw"}},{"type":"Feature","geometry":{"type":"Point","coordinates":[4.84991,52.70553]},"properties":{"type":"charge","layer":"passenger","locationId":"20e31dc8-4f3c-11e8-a0e1-42010a840002","name":"Shell Recharge NL De Wieder 9 Heerhugowaard","address":"De Wieder 9","city":"Heerhugowaard","operatorName":"Ubitricity","maxPowerKw":11,"isMegawatt":false,"status":"AVAILABLE","source":"ndw"}},{"type":"Feature","geometry":{"type":"Point","coordinates":[4.85949,52.66687]},"properties":{"type":"charge","layer":"passenger","locationId":"034215d2-d546-11ec-a578-42010a840003","name":"Shell Recharge NL Winterkoning Erf 3 Heerhugowaard","address":"Winterkoning Erf 3","city":"Heerhugowaard","operatorName":"Ubitricity","maxPowerKw":11,"isMegawatt":false,"status":"AVAILABLE","source":"ndw"}},{"type":"Feature","geometry":{"type":"Point","coordinates":[4.82241,52.651]},"properties":{"type":"charge","layer":"passenger","locationId":"258713de-4f3c-11e8-b444-42010a840002","name":"Shell Recharge NL Mimi Boesnachhof 4 Heerhugowaard","address":"Mimi Boesnachhof 4","city":"Heerhugowaard","operatorName":"Ubitricity","maxPowerKw":11,"isMegawatt":false,"status":"AVAILABLE","source":"ndw"}},{"type":"Feature","geometry":{"type":"Point","coordinates":[4.81518,52.67271]},"properties":{"type":"charge","layer":"passenger","locationId":"496431d0-8f31-11e8-ab5b-42010a840002","name":"Shell Recharge NL Oost Vlaerdinge 2 Heerhugowaard","address":"Oost Vlaerdinge 2","city":"Heerhugowaard","operatorName":"Ubitricity","maxPowerKw":11,"isMegawatt":false,"status":"AVAILABLE","source":"ndw"}},{"type":"Feature","geometry":{"type":"Point","coordinates":[4.834282,52.673901]},"properties":{"type":"charge","layer":"passenger","locationId":"dbea8760-b8d9-11ef-adc6-42010aa400b8","name":"Shell Recharge NL Eris 41, Heerhugowaard, [AN null]","address":"Eris 41","city":"Heerhugowaard","operatorName":"Ubitricity","maxPowerKw":22,"isMegawatt":false,"status":"CHARGING","source":"ndw"}},{"type":"Feature","geometry":{"type":"Point","coordinates":[4.79617,52.71952]},"properties":{"type":"charge","layer":"passenger","locationId":"e2dbcc96-f147-11e9-bd0c-42010a840003","name":"Shell Recharge NL Kroonstraat 1, Oudkarspel, [AN null]","address":"Kroonstraat 1","city":"Oudkarspel","operatorName":"Ubitricity","maxPowerKw":11,"isMegawatt":false,"status":"AVAILABLE","source":"ndw"}},{"type":"Feature","geometry":{"type":"Point","coordinates":[4.87035,52.671501]},"properties":{"type":"charge","layer":"passenger","locationId":"391dfc4b-6308-4c07-a101-1dd2e77d9b1f","name":"TNLP034062","address":"Vossenstaartpad 11","city":"Heerhugowaard","operatorName":"TotalEnergies","maxPowerKw":14,"isMegawatt":false,"status":"AVAILABLE","source":"ndw"}},{"type":"Feature","geometry":{"type":"Point","coordinates":[4.834868,52.668339]},"properties":{"type":"charge","layer":"passenger","locationId":"2920DDF5-D030-42EF-895C-D123B2FF7C44","name":"TNLP009886","address":"Jan Luykenstraat 1","city":"Heerhugowaard","operatorName":"TotalEnergies","maxPowerKw":17,"isMegawatt":false,"status":"AVAILABLE","source":"ndw"}},{"type":"Feature","geometry":{"type":"Point","coordinates":[4.863968,52.662342]},"properties":{"type":"charge","layer":"passenger","locationId":"da71f3cf67a9f50921db811a33db7d44","name":"Waterjufferpad 16","address":"Waterjufferpad 16","city":"Heerhugowaard","operatorName":"Vattenfall InCharge","maxPowerKw":11,"isMegawatt":false,"status":"CHARGING","source":"ndw"}},{"type":"Feature","geometry":{"type":"Point","coordinates":[4.809911,52.646154]},"properties":{"type":"charge","layer":"passenger","locationId":"8770b2ee-abaa-11f0-bd71-42010aa400b8","name":"TNLP015240","address":"Hof van Ra 57","city":"Heerhugowaard","operatorName":"TotalEnergies","maxPowerKw":15,"isMegawatt":false,"status":"CHARGING","source":"ndw"}},{"type":"Feature","geometry":{"type":"Point","coordinates":[4.827575,52.656112]},"properties":{"type":"charge","layer":"passenger","locationId":"a03ba770-ad06-11ed-8bc5-42010aa4007d","name":"TNLP007794","address":"IJssel 51","city":"Heerhugowaard","operatorName":"TotalEnergies","maxPowerKw":17,"isMegawatt":false,"status":"UNAVAILABLE","source":"ndw"}},{"type":"Feature","geometry":{"type":"Point","coordinates":[4.862134,52.669999]},"properties":{"type":"charge","layer":"passenger","locationId":"b9f7e096-1586-11ee-addf-42010aa4001a","name":"TNLP009179","address":"Oeverzeggeweg 14","city":"Heerhugowaard","operatorName":"TotalEnergies","maxPowerKw":17,"isMegawatt":false,"status":"UNAVAILABLE","source":"ndw"}},{"type":"Feature","geometry":{"type":"Point","coordinates":[4.852077,52.676912]},"properties":{"type":"charge","layer":"passenger","locationId":"07f85038-88ee-11ef-8a4c-42010aa400b8","name":"Shell Recharge NL J. van de Veldelaan 54 Heerhugowaard","address":"J. van de Veldelaan 54","city":"Heerhugowaard","operatorName":"Ubitricity","maxPowerKw":22,"isMegawatt":false,"status":"CHARGING","source":"ndw"}},{"type":"Feature","geometry":{"type":"Point","coordinates":[4.83761,52.66644]},"properties":{"type":"charge","layer":"passenger","locationId":"2badd44e-d545-11ec-8132-42010a840003","name":"Shell Recharge NL Van Eedenplein 122 Heerhugowaard","address":"Van Eedenplein 122","city":"Heerhugowaard","operatorName":"Ubitricity","maxPowerKw":11,"isMegawatt":false,"status":"AVAILABLE","source":"ndw"}},{"type":"Feature","geometry":{"type":"Point","coordinates":[4.81268,52.65812]},"properties":{"type":"charge","layer":"passenger","locationId":"6065d7f8-8f31-11e8-b27e-42010a840002","name":"Shell Recharge NL Nevelpanter 2 Heerhugowaard","address":"Nevelpanter 2","city":"Heerhugowaard","operatorName":"Ubitricity","maxPowerKw":11,"isMegawatt":false,"status":"AVAILABLE","source":"ndw"}},{"type":"Feature","geometry":{"type":"Point","coordinates":[4.80414,52.6545]},"properties":{"type":"charge","layer":"passenger","locationId":"65e9c8a6-8f31-11e8-84ba-42010a840002","name":"Shell Recharge NL Velduil 29 Heerhugowaard","address":"Velduil 29","city":"Heerhugowaard","operatorName":"Ubitricity","maxPowerKw":11,"isMegawatt":false,"status":"CHARGING","source":"ndw"}},{"type":"Feature","geometry":{"type":"Point","coordinates":[4.83678,52.65936]},"properties":{"type":"charge","layer":"passenger","locationId":"6954e89a-d546-11ec-a038-42010a840003","name":"Shell Recharge NL Weidemolen 72 Heerhugowaard","address":"Weidemolen 72","city":"Heerhugowaard","operatorName":"Ubitricity","maxPowerKw":11,"isMegawatt":false,"status":"CHARGING","source":"ndw"}},{"type":"Feature","geometry":{"type":"Point","coordinates":[4.808904,52.694568]},"properties":{"type":"charge","layer":"passenger","locationId":"6b41d704-4c98-11f0-95bf-42010aa400b8","name":"Shell Recharge NL Boomgaard 9, Zuid-Scharwoude, [AN null]","address":"Boomgaard 9","city":"Zuid-Scharwoude","operatorName":"Ubitricity","maxPowerKw":22,"isMegawatt":false,"status":"AVAILABLE","source":"ndw"}},{"type":"Feature","geometry":{"type":"Point","coordinates":[4.82063,52.66053]},"properties":{"type":"charge","layer":"passenger","locationId":"9b54089a-8f30-11e8-94a1-42010a840002","name":"Shell Recharge NL Opaal 48 Heerhugowaard","address":"Opaal 48","city":"Heerhugowaard","operatorName":"Ubitricity","maxPowerKw":11,"isMegawatt":false,"status":"CHARGING","source":"ndw"}},{"type":"Feature","geometry":{"type":"Point","coordinates":[4.807629,52.701882]},"properties":{"type":"charge","layer":"passenger","locationId":"4a1a6985-7413-41cf-ae81-b2ce3fe9b762","name":"TNLP034262","address":"Fransepad 33","city":"Noord-Scharwoude","operatorName":"TotalEnergies","maxPowerKw":14,"isMegawatt":false,"status":"AVAILABLE","source":"ndw"}},{"type":"Feature","geometry":{"type":"Point","coordinates":[4.823758,52.691651]},"properties":{"type":"charge","layer":"passenger","locationId":"676285dc3a2054912508d004","name":"Ronny Van der peet 's station","address":"Reiger 49","city":"Zuid-Scharwoude","operatorName":"E-Flux by Road","maxPowerKw":11,"isMegawatt":false,"status":"CHARGING","source":"ndw"}},{"type":"Feature","geometry":{"type":"Point","coordinates":[4.803511,52.699999]},"properties":{"type":"charge","layer":"passenger","locationId":"1edbfb78-8a4e-11ee-a8fc-42010aa40fc0","name":"TNLP009708","address":"Watermolen 6","city":"Noord-Scharwoude","operatorName":"TotalEnergies","maxPowerKw":17,"isMegawatt":false,"status":"UNAVAILABLE","source":"ndw"}},{"type":"Feature","geometry":{"type":"Point","coordinates":[4.827391,52.651878]},"properties":{"type":"charge","layer":"passenger","locationId":"98ae0368-cf8e-11ed-8b0c-42010aa4007d","name":"TNLP008072","address":"Gouwe 2","city":"Heerhugowaard","operatorName":"TotalEnergies","maxPowerKw":17,"isMegawatt":false,"status":"UNAVAILABLE","source":"ndw"}},{"type":"Feature","geometry":{"type":"Point","coordinates":[4.815246,52.661696]},"properties":{"type":"charge","layer":"passenger","locationId":"c01589f6-1586-11ee-8e56-42010aa40fd7","name":"TNLP009195","address":"Heliotroop 8","city":"Heerhugowaard","operatorName":"TotalEnergies","maxPowerKw":17,"isMegawatt":false,"status":"UNAVAILABLE","source":"ndw"}},{"type":"Feature","geometry":{"type":"Point","coordinates":[4.805703,52.649457]},"properties":{"type":"charge","layer":"passenger","locationId":"40AD984B-81BC-489F-B85D-67D2D43837BA","name":"TNLP009556","address":"Zonnevlam 1A","city":"Heerhugowaard","operatorName":"TotalEnergies","maxPowerKw":17,"isMegawatt":false,"status":"AVAILABLE","source":"ndw"}},{"type":"Feature","geometry":{"type":"Point","coordinates":[4.80839,52.69411]},"properties":{"type":"charge","layer":"passenger","locationId":"23a7f0ec-4f3c-11e8-b8c4-42010a840002","name":"Shell Recharge NL Voorburggracht 202 Zuid-Scharwoude","address":"Voorburggracht 202","city":"Zuid-Scharwoude","operatorName":"Ubitricity","maxPowerKw":11,"isMegawatt":false,"status":"AVAILABLE","source":"ndw"}},{"type":"Feature","geometry":{"type":"Point","coordinates":[4.85617,52.67322]},"properties":{"type":"charge","layer":"passenger","locationId":"2e505838-d546-11ec-86e1-42010a840003","name":"Shell Recharge NL Jacob Marisstraat 8 Heerhugowaard","address":"Jacob Marisstraat 8","city":"Heerhugowaard","operatorName":"Ubitricity","maxPowerKw":11,"isMegawatt":false,"status":"AVAILABLE","source":"ndw"}},{"type":"Feature","geometry":{"type":"Point","coordinates":[4.78251,52.65446]},"properties":{"type":"charge","layer":"passenger","locationId":"41aabfae-cd5c-11e8-9879-42010a840002","name":"Shell Recharge NL Het Sterntje 12 Sint Pancras","address":"Het Sterntje 12","city":"Sint Pancras","operatorName":"Ubitricity","maxPowerKw":11,"isMegawatt":false,"status":"AVAILABLE","source":"ndw"}},{"type":"Feature","geometry":{"type":"Point","coordinates":[4.80544,52.64926]},"properties":{"type":"charge","layer":"passenger","locationId":"876a0460-8f30-11e8-a6cd-42010a840002","name":"Shell Recharge NL Zonnevlam 1 Heerhugowaard","address":"Zonnevlam 1","city":"Heerhugowaard","operatorName":"Ubitricity","maxPowerKw":11,"isMegawatt":false,"status":"AVAILABLE","source":"ndw"}},{"type":"Feature","geometry":{"type":"Point","coordinates":[4.845,52.67609]},"properties":{"type":"charge","layer":"passenger","locationId":"a716913e-8f30-11e8-bf4b-42010a840002","name":"Shell Recharge NL Nuyenburglaan 24 Heerhugowaard","address":"Nuyenburglaan 24","city":"Heerhugowaard","operatorName":"Ubitricity","maxPowerKw":11,"isMegawatt":false,"status":"AVAILABLE","source":"ndw"}},{"type":"Feature","geometry":{"type":"Point","coordinates":[4.815659,52.70527]},"properties":{"type":"charge","layer":"passenger","locationId":"daacfc58-9b00-11ef-81c5-42010aa400b8","name":"Shell Recharge NL Anna van Burenstraat 1, Noord-Scharwoude","address":"Anna van Burenstraat 1","city":"Noord-Scharwoude","operatorName":"Ubitricity","maxPowerKw":22,"isMegawatt":false,"status":"AVAILABLE","source":"ndw"}},{"type":"Feature","geometry":{"type":"Point","coordinates":[4.809911,52.646154]},"properties":{"type":"charge","layer":"passenger","locationId":"cdfdcf86-d29f-41ba-bcb9-d97edf2a3d40","name":"TNLP015240","address":"Hof van Ra 57","city":"Heerhugowaard","operatorName":"TotalEnergies","maxPowerKw":15,"isMegawatt":false,"status":"CHARGING","source":"ndw"}},{"type":"Feature","geometry":{"type":"Point","coordinates":[4.81887,52.70303]},"properties":{"type":"charge","layer":"passenger","locationId":"119","name":"Shell Recharge NL Hulststraat 27","address":"Hulststraat 27","city":"Noord-Scharwoude","operatorName":"Ubitricity","maxPowerKw":11,"isMegawatt":false,"status":"AVAILABLE","source":"ndw"}},{"type":"Feature","geometry":{"type":"Point","coordinates":[4.82504,52.662926]},"properties":{"type":"charge","layer":"passenger","locationId":"0d3a38e0-5d86-11ec-8d4a-42010a840038","name":"TNLP006665","address":"Jade 37","city":"Heerhugowaard","operatorName":"TotalEnergies","maxPowerKw":17,"isMegawatt":false,"status":"AVAILABLE","source":"ndw"}},{"type":"Feature","geometry":{"type":"Point","coordinates":[4.843697,52.669982]},"properties":{"type":"charge","layer":"passenger","locationId":"64111668-4f3c-11e8-b811-42010a840002","name":"PP002517","address":"Raadhuisplein 46","city":"Heerhugowaard","operatorName":"TotalEnergies","maxPowerKw":17,"isMegawatt":false,"status":"AVAILABLE","source":"ndw"}},{"type":"Feature","geometry":{"type":"Point","coordinates":[4.831399,52.669504]},"properties":{"type":"charge","layer":"passenger","locationId":"ed124450-b771-11f0-8c34-42010aa400b8","name":"TNLP005835","address":"Saturnuslaan 25","city":"Heerhugowaard","operatorName":"TotalEnergies","maxPowerKw":0,"isMegawatt":false,"status":"AVAILABLE","source":"ndw"}},{"type":"Feature","geometry":{"type":"Point","coordinates":[4.804419,52.645714]},"properties":{"type":"charge","layer":"passenger","locationId":"dd73481c-f253-47c6-8179-c9d94a656344","name":"TNLP006592","address":"Hemelboog Binnen 31","city":"Heerhugowaard","operatorName":"TotalEnergies","maxPowerKw":17,"isMegawatt":false,"status":"AVAILABLE","source":"ndw"}},{"type":"Feature","geometry":{"type":"Point","coordinates":[4.832593,52.649664]},"properties":{"type":"charge","layer":"passenger","locationId":"05052a16-b5e5-11f0-b305-42010aa400b8","name":"PP005545","address":"Weerelaan 123","city":"Heerhugowaard","operatorName":"TotalEnergies","maxPowerKw":0,"isMegawatt":false,"status":"CHARGING","source":"ndw"}},{"type":"Feature","geometry":{"type":"Point","coordinates":[4.809911,52.646154]},"properties":{"type":"charge","layer":"passenger","locationId":"2c934b7a-bb5e-11f0-a564-42010aa400b8","name":"TNLP015240","address":"Hof van Ra 57","city":"Heerhugowaard","operatorName":"TotalEnergies","maxPowerKw":15,"isMegawatt":false,"status":"AVAILABLE","source":"ndw"}},{"type":"Feature","geometry":{"type":"Point","coordinates":[4.808845,52.692984]},"properties":{"type":"charge","layer":"passenger","locationId":"56ad42a2-6a17-11ee-aa7e-42010aa40fc0","name":"TNLP008287","address":"Voorburggracht 168","city":"Zuid-Scharwoude","operatorName":"TotalEnergies","maxPowerKw":14,"isMegawatt":false,"status":"AVAILABLE","source":"ndw"}},{"type":"Feature","geometry":{"type":"Point","coordinates":[4.831028,52.650315]},"properties":{"type":"charge","layer":"passenger","locationId":"67e4530a-d54d-11f0-ab6e-42010aa400b8","name":"TNLP007966","address":"Burgplantsoen 36","city":"Heerhugowaard","operatorName":"TotalEnergies","maxPowerKw":17,"isMegawatt":false,"status":"AVAILABLE","source":"ndw"}},{"type":"Feature","geometry":{"type":"Point","coordinates":[4.804688,52.712092]},"properties":{"type":"charge","layer":"passenger","locationId":"68219a8c-1605-11ec-9ecd-42010a840050","name":"TNLP005909","address":"Zaagmolenweg 1","city":"Oudkarspel","operatorName":"TotalEnergies","maxPowerKw":17,"isMegawatt":false,"status":"AVAILABLE","source":"ndw"}},{"type":"Feature","geometry":{"type":"Point","coordinates":[4.85617,52.67322]},"properties":{"type":"charge","layer":"passenger","locationId":"476","name":"Shell Recharge NL Jacob Marisstraat 8","address":"Jacob Marisstraat 8","city":"Heerhugowaard","operatorName":"Ubitricity","maxPowerKw":11,"isMegawatt":false,"status":"AVAILABLE","source":"ndw"}},{"type":"Feature","geometry":{"type":"Point","coordinates":[4.824129,52.656992]},"properties":{"type":"charge","layer":"passenger","locationId":"3633a0e8-3931-11ec-b727-42010a840003","name":"TNLP006691","address":"Lek 1","city":"Heerhugowaard","operatorName":"TotalEnergies","maxPowerKw":17,"isMegawatt":false,"status":"AVAILABLE","source":"ndw"}},{"type":"Feature","geometry":{"type":"Point","coordinates":[4.809373,52.668382]},"properties":{"type":"charge","layer":"passenger","locationId":"ea34b466-c88b-11ed-8a4d-42010aa40059","name":"TNLP008180","address":"Laan van Broekhorn 12","city":"Heerhugowaard","operatorName":"TotalEnergies","maxPowerKw":17,"isMegawatt":false,"status":"AVAILABLE","source":"ndw"}},{"type":"Feature","geometry":{"type":"Point","coordinates":[4.84382,52.67289]},"properties":{"type":"charge","layer":"passenger","locationId":"631c948a-4f3c-11e8-9a64-42010a840002","name":"Shell Recharge NL Van Duivenvoordestraat 31, Heerhugowaard","address":"Van Duivenvoordestraat 31","city":"Heerhugowaard","operatorName":"Ubitricity","maxPowerKw":22,"isMegawatt":false,"status":"AVAILABLE","source":"ndw"}},{"type":"Feature","geometry":{"type":"Point","coordinates":[4.79207,52.66269]},"properties":{"type":"charge","layer":"passenger","locationId":"991bd096-996e-11e9-87f8-42010a840036","name":"Shell Recharge NL Middenmander 5 Sint Pancras","address":"Middenmander 5","city":"Sint Pancras","operatorName":"Ubitricity","maxPowerKw":11,"isMegawatt":false,"status":"AVAILABLE","source":"ndw"}},{"type":"Feature","geometry":{"type":"Point","coordinates":[4.853052,52.669443]},"properties":{"type":"charge","layer":"passenger","locationId":"a0cbc16c-d48a-11f0-ba5b-42010aa400b8","name":"Shell Recharge NL Travalje 48, Heerhugowaard","address":"Travalje 48","city":"Heerhugowaard","operatorName":"Ubitricity","maxPowerKw":22,"isMegawatt":false,"status":"AVAILABLE","source":"ndw"}},{"type":"Feature","geometry":{"type":"Point","coordinates":[4.83371,52.67145]},"properties":{"type":"charge","layer":"passenger","locationId":"f17b1a96-3e95-11e9-927f-42010a840fe9","name":"Shell Recharge NL Plutolaan 7 Heerhugowaard","address":"Plutolaan 7","city":"Heerhugowaard","operatorName":"Ubitricity","maxPowerKw":11,"isMegawatt":false,"status":"AVAILABLE","source":"ndw"}},{"type":"Feature","geometry":{"type":"Point","coordinates":[4.81021,52.662827]},"properties":{"type":"charge","layer":"passenger","locationId":"955dc2ad-1720-4dfd-9d44-dd1194acc475","name":"Tango electric Heerhugowaard 3-4","address":"J.J.P. Oudweg 14","city":"Heerhugowaard","operatorName":"Tango electric","maxPowerKw":200,"isMegawatt":false,"status":"AVAILABLE","source":"ndw"}},{"type":"Feature","geometry":{"type":"Point","coordinates":[4.801521,52.681783]},"properties":{"type":"charge","layer":"passenger","locationId":"16a8471a-98cd-11f0-9065-42010aa400b8","name":"TNLP007776","address":"Zandsloot 11","city":"Broek op Langedijk","operatorName":"TotalEnergies","maxPowerKw":17,"isMegawatt":false,"status":"AVAILABLE","source":"ndw"}},{"type":"Feature","geometry":{"type":"Point","coordinates":[4.821005,52.647868]},"properties":{"type":"charge","layer":"passenger","locationId":"3ebcb230-b778-11f0-9bc2-42010aa400b8","name":"TNLP009395","address":"Helena Nordheimland 1","city":"Heerhugowaard","operatorName":"TotalEnergies","maxPowerKw":17,"isMegawatt":false,"status":"AVAILABLE","source":"ndw"}},{"type":"Feature","geometry":{"type":"Point","coordinates":[4.82842,52.664247]},"properties":{"type":"charge","layer":"passenger","locationId":"67f621f6-72bd-11ee-9b56-42010aa40fc0","name":"bp pulse Middenwaard","address":"Zuidtangent 1","city":"Heerhugowaard","operatorName":"bp pulse","maxPowerKw":150,"isMegawatt":false,"status":"AVAILABLE","source":"ndw"}},{"type":"Feature","geometry":{"type":"Point","coordinates":[4.792972,52.644624]},"properties":{"type":"charge","layer":"passenger","locationId":"930b2632-4b4e-11f0-b9aa-42010aa40043","name":"bp pulse Westerweg","address":"Westerweg 2","city":"Heerhugowaard","operatorName":"bp pulse","maxPowerKw":150,"isMegawatt":false,"status":"AVAILABLE","source":"ndw"}},{"type":"Feature","geometry":{"type":"Point","coordinates":[4.832437,52.666473]},"properties":{"type":"charge","layer":"passenger","locationId":"2D38EF43-6B94-44B0-9ED7-780A0FD537C8","name":"TNLP009241","address":"Bilderdijkstraat 47","city":"Heerhugowaard","operatorName":"TotalEnergies","maxPowerKw":17,"isMegawatt":false,"status":"AVAILABLE","source":"ndw"}},{"type":"Feature","geometry":{"type":"Point","coordinates":[4.8244888,52.6682737]},"properties":{"type":"charge","layer":"passenger","locationId":"2320","name":"Shell Recharge NL Nelson Mandelastraat 120","address":"Nelson Mandelastraat 120","city":"Heerhugowaard","operatorName":"Ubitricity","maxPowerKw":22,"isMegawatt":false,"status":"AVAILABLE","source":"ndw"}},{"type":"Feature","geometry":{"type":"Point","coordinates":[4.830047,52.655265]},"properties":{"type":"charge","layer":"passenger","locationId":"651903a4-aa15-11f0-98d7-42010aa400b8","name":"TNLP007497","address":"Wipmolen 1","city":"Heerhugowaard","operatorName":"TotalEnergies","maxPowerKw":17,"isMegawatt":false,"status":"AVAILABLE","source":"ndw"}},{"type":"Feature","geometry":{"type":"Point","coordinates":[4.815816,52.660166]},"properties":{"type":"charge","layer":"passenger","locationId":"31bd4c3a-f0a8-11ef-83de-42010aa400b8","name":"Shell Recharge NL Granaat 14, Heerhugowaard","address":"Granaat 14","city":"Heerhugowaard","operatorName":"Ubitricity","maxPowerKw":22,"isMegawatt":false,"status":"AVAILABLE","source":"ndw"}},{"type":"Feature","geometry":{"type":"Point","coordinates":[4.8364,52.66296]},"properties":{"type":"charge","layer":"passenger","locationId":"a1f1c586-4f3c-11e8-90c4-42010a840002","name":"Shell Recharge NL Hulstlaan 2 Dijk en Waard","address":"Hulstlaan 2","city":"Dijk en Waard","operatorName":"Ubitricity","maxPowerKw":11,"isMegawatt":false,"status":"AVAILABLE","source":"ndw"}},{"type":"Feature","geometry":{"type":"Point","coordinates":[4.8377,52.67269]},"properties":{"type":"charge","layer":"passenger","locationId":"c4eace36-8630-11e8-9165-42010a840002","name":"Shell Recharge NL Callistolaan 3 Heerhugowaard","address":"Callistolaan 3","city":"Heerhugowaard","operatorName":"Ubitricity","maxPowerKw":22,"isMegawatt":false,"status":"CHARGING","source":"ndw"}},{"type":"Feature","geometry":{"type":"Point","coordinates":[4.82477,52.66001]},"properties":{"type":"charge","layer":"passenger","locationId":"1465","name":"Shell Recharge NL Bergkristal 1","address":"Bergkristal 1","city":"Dijk en Waard","operatorName":"Ubitricity","maxPowerKw":11,"isMegawatt":false,"status":"AVAILABLE","source":"ndw"}},{"type":"Feature","geometry":{"type":"Point","coordinates":[4.8103288,52.6468298]},"properties":{"type":"charge","layer":"passenger","locationId":"1888","name":"Shell Recharge NL Hemelboog Binnen 155","address":"Hemelboog Binnen 155","city":"Heerhugowaard","operatorName":"Ubitricity","maxPowerKw":22,"isMegawatt":false,"status":"AVAILABLE","source":"ndw"}},{"type":"Feature","geometry":{"type":"Point","coordinates":[4.820687,52.658712]},"properties":{"type":"charge","layer":"passenger","locationId":"c4f94043-81a9-4c04-a88c-3a710641d4c7","name":"Smaragd","address":"Smaragd 12","city":"Heerhugowaard","operatorName":"Vattenfall InCharge","maxPowerKw":11,"isMegawatt":false,"status":"AVAILABLE","source":"ndw"}},{"type":"Feature","geometry":{"type":"Point","coordinates":[4.8520769,52.6769117]},"properties":{"type":"charge","layer":"passenger","locationId":"959","name":"Shell Recharge NL J. van de Veldelaan 54","address":"J. van de Veldelaan 54","city":"Heerhugowaard","operatorName":"Ubitricity","maxPowerKw":22,"isMegawatt":false,"status":"UNAVAILABLE","source":"ndw"}},{"type":"Feature","geometry":{"type":"Point","coordinates":[4.830759,52.690296]},"properties":{"type":"charge","layer":"passenger","locationId":"67cb0804e7918792b8ad8049","name":"Hoofdkantoor station 1","address":"Amperestraat  44","city":"Heerhugowaard","operatorName":"E-Flux by Road","maxPowerKw":22,"isMegawatt":false,"status":"AVAILABLE","source":"ndw"}},{"type":"Feature","geometry":{"type":"Point","coordinates":[4.85949,52.66687]},"properties":{"type":"charge","layer":"passenger","locationId":"404","name":"Shell Recharge NL Winterkoning Erf 3","address":"Winterkoning Erf 3","city":"Heerhugowaard","operatorName":"Ubitricity","maxPowerKw":11,"isMegawatt":false,"status":"AVAILABLE","source":"ndw"}},{"type":"Feature","geometry":{"type":"Point","coordinates":[4.8171942,52.6524979]},"properties":{"type":"charge","layer":"passenger","locationId":"1142","name":"Shell Recharge NL Catharina van Rennes Erf 4","address":"Catharina van Rennes Erf 4","city":"Heerhugowaard","operatorName":"Ubitricity","maxPowerKw":22,"isMegawatt":false,"status":"AVAILABLE","source":"ndw"}},{"type":"Feature","geometry":{"type":"Point","coordinates":[4.816373,52.695813]},"properties":{"type":"charge","layer":"passenger","locationId":"9657f9fc-806b-11ec-b3dd-42010a840045","name":"TNLP006898","address":"Elzenlaan 22","city":"Zuid-Scharwoude","operatorName":"TotalEnergies","maxPowerKw":17,"isMegawatt":false,"status":"UNAVAILABLE","source":"ndw"}},{"type":"Feature","geometry":{"type":"Point","coordinates":[4.816196,52.652171]},"properties":{"type":"charge","layer":"passenger","locationId":"6778029db483e495bfa7565a","name":"Monique & Fred","address":"Maria Austria erf  7","city":"heerhugowaard","operatorName":"E-Flux by Road","maxPowerKw":11,"isMegawatt":false,"status":"AVAILABLE","source":"ndw"}},{"type":"Feature","geometry":{"type":"Point","coordinates":[4.859745,52.67664]},"properties":{"type":"charge","layer":"passenger","locationId":"580354C6-4478-4E3B-92E8-5E101F15F606","name":"TNLP009238","address":"Matsyslaan 1","city":"Heerhugowaard","operatorName":"TotalEnergies","maxPowerKw":17,"isMegawatt":false,"status":"AVAILABLE","source":"ndw"}},{"type":"Feature","geometry":{"type":"Point","coordinates":[4.80321,52.67823]},"properties":{"type":"charge","layer":"passenger","locationId":"71","name":"Shell Recharge NL Westeinde 1","address":"Westeinde 1","city":"Broek op Langedijk","operatorName":"Ubitricity","maxPowerKw":11,"isMegawatt":false,"status":"AVAILABLE","source":"ndw"}},{"type":"Feature","geometry":{"type":"Point","coordinates":[4.81504,52.64892]},"properties":{"type":"charge","layer":"passenger","locationId":"65e977b0-d547-11ec-b0ac-42010a840003","name":"Shell Recharge NL Steigerdijk 71 Dijk en Waard","address":"Steigerdijk 71","city":"Dijk en Waard","operatorName":"Ubitricity","maxPowerKw":11,"isMegawatt":false,"status":"AVAILABLE","source":"ndw"}},{"type":"Feature","geometry":{"type":"Point","coordinates":[4.80783,52.64626]},"properties":{"type":"charge","layer":"passenger","locationId":"8039e1c8-8f31-11e8-b316-42010a840002","name":"Shell Recharge NL Keerkringzijde van Meridiaan 1, Heerhugowaard, [AN null]","address":"Keerkringzijde van Meridiaan 1","city":"Heerhugowaard","operatorName":"Ubitricity","maxPowerKw":11,"isMegawatt":false,"status":"AVAILABLE","source":"ndw"}},{"type":"Feature","geometry":{"type":"Point","coordinates":[4.810329,52.64683]},"properties":{"type":"charge","layer":"passenger","locationId":"cfe0ed1e-a62d-11f0-98ab-42010aa400b8","name":"Shell Recharge NL Hemelboog Binnen 155, Heerhugowaard","address":"Hemelboog Binnen 155","city":"Heerhugowaard","operatorName":"Ubitricity","maxPowerKw":22,"isMegawatt":false,"status":"AVAILABLE","source":"ndw"}},{"type":"Feature","geometry":{"type":"Point","coordinates":[4.80447,52.680652]},"properties":{"type":"charge","layer":"passenger","locationId":"0ddfd056-b069-48ec-be72-0dae41f54a8e","name":"TNLP006906","address":"Voorburggracht 10","city":"Broek op Langedijk","operatorName":"TotalEnergies","maxPowerKw":17,"isMegawatt":false,"status":"AVAILABLE","source":"ndw"}},{"type":"Feature","geometry":{"type":"Point","coordinates":[4.79274,52.663875]},"properties":{"type":"charge","layer":"passenger","locationId":"d024ce78-3aee-11ee-bad2-42010aa40fc0","name":"TNLP009352","address":"Binnenroe 9","city":"Sint Pancras","operatorName":"TotalEnergies","maxPowerKw":17,"isMegawatt":false,"status":"UNAVAILABLE","source":"ndw"}},{"type":"Feature","geometry":{"type":"Point","coordinates":[4.815709,52.706549]},"properties":{"type":"charge","layer":"passenger","locationId":"4F1E4739-3918-4464-8E0E-B98853477936","name":"TNLP008499","address":"Industriestraat 83","city":"Noord-Scharwoude","operatorName":"TotalEnergies","maxPowerKw":14,"isMegawatt":false,"status":"AVAILABLE","source":"ndw"}},{"type":"Feature","geometry":{"type":"Point","coordinates":[4.80321,52.67823]},"properties":{"type":"charge","layer":"passenger","locationId":"2372603a-4f3c-11e8-938a-42010a840002","name":"Shell Recharge NL Westeinde 1 Broek op Langedijk","address":"Westeinde 1","city":"Broek op Langedijk","operatorName":"Ubitricity","maxPowerKw":11,"isMegawatt":false,"status":"AVAILABLE","source":"ndw"}},{"type":"Feature","geometry":{"type":"Point","coordinates":[4.82504,52.662926]},"properties":{"type":"charge","layer":"passenger","locationId":"c5b4e2df-2e6a-4807-9931-37fc9f470a12","name":"TNLP006665","address":"Jade 37","city":"Heerhugowaard","operatorName":"TotalEnergies","maxPowerKw":17,"isMegawatt":false,"status":"AVAILABLE","source":"ndw"}},{"type":"Feature","geometry":{"type":"Point","coordinates":[4.833401,52.657699]},"properties":{"type":"charge","layer":"passenger","locationId":"01e04ec4-dad4-11f0-bcbe-42010aa400b8","name":"Shell Recharge NL Houtzaagmolen 35, Heerhugowaard","address":"Houtzaagmolen 35","city":"Heerhugowaard","operatorName":"Ubitricity","maxPowerKw":22,"isMegawatt":false,"status":"AVAILABLE","source":"ndw"}},{"type":"Feature","geometry":{"type":"Point","coordinates":[4.83678,52.65936]},"properties":{"type":"charge","layer":"passenger","locationId":"572","name":"Shell Recharge NL Weidemolen 72","address":"Weidemolen 72","city":"Heerhugowaard","operatorName":"Ubitricity","maxPowerKw":11,"isMegawatt":false,"status":"AVAILABLE","source":"ndw"}},{"type":"Feature","geometry":{"type":"Point","coordinates":[4.83417,52.65205]},"properties":{"type":"charge","layer":"passenger","locationId":"4977f9cc-cd5c-11e8-9eae-42010a840002","name":"Shell Recharge NL Neslaan 41 Heerhugowaard","address":"Neslaan 41","city":"Heerhugowaard","operatorName":"Ubitricity","maxPowerKw":11,"isMegawatt":false,"status":"AVAILABLE","source":"ndw"}},{"type":"Feature","geometry":{"type":"Point","coordinates":[4.81222,52.65493]},"properties":{"type":"charge","layer":"passenger","locationId":"63087ef0-4f3c-11e8-876c-42010a840002","name":"Shell Recharge NL Zwarte Kaaiman 40 Heerhugowaard","address":"Zwarte Kaaiman 40","city":"Heerhugowaard","operatorName":"Ubitricity","maxPowerKw":11,"isMegawatt":false,"status":"AVAILABLE","source":"ndw"}},{"type":"Feature","geometry":{"type":"Point","coordinates":[4.83677,52.65605]},"properties":{"type":"charge","layer":"passenger","locationId":"a1aedeec-4f3c-11e8-97be-42010a840002","name":"Shell Recharge NL Mosterdmolen 48 Dijk en Waard","address":"Mosterdmolen 48","city":"Dijk en Waard","operatorName":"Ubitricity","maxPowerKw":11,"isMegawatt":false,"status":"AVAILABLE","source":"ndw"}},{"type":"Feature","geometry":{"type":"Point","coordinates":[4.845677,52.680602]},"properties":{"type":"charge","layer":"passenger","locationId":"dac9fa06-9b00-11ef-96a5-42010aa400b8","name":"Shell Recharge NL Waardereiland 16, Heerhugowaard","address":"Waardereiland 16","city":"Heerhugowaard","operatorName":"Ubitricity","maxPowerKw":22,"isMegawatt":false,"status":"AVAILABLE","source":"ndw"}},{"type":"Feature","geometry":{"type":"Point","coordinates":[4.84326,52.66512]},"properties":{"type":"charge","layer":"passenger","locationId":"eb8edbfa-d545-11ec-ad61-42010a840003","name":"Shell Recharge NL Kastanjelaan 4 Heerhugowaard","address":"Kastanjelaan 4","city":"Heerhugowaard","operatorName":"Ubitricity","maxPowerKw":11,"isMegawatt":false,"status":"AVAILABLE","source":"ndw"}},{"type":"Feature","geometry":{"type":"Point","coordinates":[4.794693,52.664635]},"properties":{"type":"charge","layer":"passenger","locationId":"1b6e0758-5e57-11ec-b35c-42010a840003","name":"TNLP006924","address":"Hondsoor 44","city":"Sint Pancras","operatorName":"TotalEnergies","maxPowerKw":14,"isMegawatt":false,"status":"AVAILABLE","source":"ndw"}},{"type":"Feature","geometry":{"type":"Point","coordinates":[4.818599,52.646817]},"properties":{"type":"charge","layer":"passenger","locationId":"5367a39a-ea5d-11ef-b335-42010aa400b8","name":"TNLP015106","address":"Maria Rutgersland 15","city":"Heerhugowaard","operatorName":"TotalEnergies","maxPowerKw":17,"isMegawatt":false,"status":"AVAILABLE","source":"ndw"}},{"type":"Feature","geometry":{"type":"Point","coordinates":[4.843645,52.672245]},"properties":{"type":"charge","layer":"passenger","locationId":"8bd6f4ba-c0e5-11f0-a1b9-42010aa400b8","name":"TNLP034204","address":"Van Duivenvoordestraat 64","city":"Heerhugowaard","operatorName":"TotalEnergies","maxPowerKw":14,"isMegawatt":false,"status":"AVAILABLE","source":"ndw"}},{"type":"Feature","geometry":{"type":"Point","coordinates":[4.836944,52.651097]},"properties":{"type":"charge","layer":"passenger","locationId":"8fee0e2e-ce39-11f0-80ce-42010aa400b8","name":"TNLP007777","address":"Moerbeeklaan 19","city":"Heerhugowaard","operatorName":"TotalEnergies","maxPowerKw":17,"isMegawatt":false,"status":"AVAILABLE","source":"ndw"}},{"type":"Feature","geometry":{"type":"Point","coordinates":[4.810352,52.64487]},"properties":{"type":"charge","layer":"passenger","locationId":"b691f43c-c8bc-11f0-bc82-42010aa400b8","name":"TNLP034205","address":"Eiland van Inti 29","city":"Heerhugowaard","operatorName":"TotalEnergies","maxPowerKw":14,"isMegawatt":false,"status":"AVAILABLE","source":"ndw"}},{"type":"Feature","geometry":{"type":"Point","coordinates":[4.7914,52.67988]},"properties":{"type":"charge","layer":"passenger","locationId":"daf92b00-5d34-11ea-93dd-42010a84001d","name":"PP005032","address":"Grootoort 41","city":"Broek op langedijk","operatorName":"TotalEnergies","maxPowerKw":0,"isMegawatt":false,"status":"CHARGING","source":"ndw"}},{"type":"Feature","geometry":{"type":"Point","coordinates":[4.808414,52.646359]},"properties":{"type":"charge","layer":"passenger","locationId":"e4b6a3a4-845f-11f0-8cfc-42010aa400b8","name":"TNLP006926","address":"Meridiaan 1","city":"Heerhugowaard","operatorName":"TotalEnergies","maxPowerKw":17,"isMegawatt":false,"status":"AVAILABLE","source":"ndw"}},{"type":"Feature","geometry":{"type":"Point","coordinates":[4.83269,52.658459]},"properties":{"type":"charge","layer":"passenger","locationId":"e61998e4-0340-11ed-88c6-42010aa4006e","name":"TNLP007471","address":"Torenmolen 65","city":"Heerhugowaard","operatorName":"TotalEnergies","maxPowerKw":17,"isMegawatt":false,"status":"AVAILABLE","source":"ndw"}},{"type":"Feature","geometry":{"type":"Point","coordinates":[4.830245,52.658123]},"properties":{"type":"charge","layer":"passenger","locationId":"fc0db718-992c-11eb-ab3f-42010a840023","name":"TNLP005716","address":"Poldermolen 52","city":"Heerhugowaard","operatorName":"TotalEnergies","maxPowerKw":17,"isMegawatt":false,"status":"AVAILABLE","source":"ndw"}},{"type":"Feature","geometry":{"type":"Point","coordinates":[4.834868,52.668339]},"properties":{"type":"charge","layer":"passenger","locationId":"fa0e53a2-9a03-11ee-a0e8-42010aa40fc0","name":"TNLP009886","address":"Jan Luykenstraat 1","city":"Heerhugowaard","operatorName":"TotalEnergies","maxPowerKw":17,"isMegawatt":false,"status":"AVAILABLE","source":"ndw"}},{"type":"Feature","geometry":{"type":"Point","coordinates":[4.853602,52.671502]},"properties":{"type":"charge","layer":"passenger","locationId":"82e4e82e-0f98-4df0-9e85-b8bd29461293","name":"TNLP005870","address":"Carel Willinkstraat 1A","city":"Heerhugowaard","operatorName":"TotalEnergies","maxPowerKw":0,"isMegawatt":false,"status":"AVAILABLE","source":"ndw"}},{"type":"Feature","geometry":{"type":"Point","coordinates":[4.808414,52.646359]},"properties":{"type":"charge","layer":"passenger","locationId":"a000cea2-d966-4209-9269-a465812944f2","name":"TNLP006926","address":"Meridiaan 1","city":"Heerhugowaard","operatorName":"TotalEnergies","maxPowerKw":17,"isMegawatt":false,"status":"AVAILABLE","source":"ndw"}},{"type":"Feature","geometry":{"type":"Point","coordinates":[4.80985,52.70515]},"properties":{"type":"charge","layer":"passenger","locationId":"468","name":"Shell Recharge NL De Mossel 1","address":"De Mossel 1","city":"Noord-Scharwoude","operatorName":"Ubitricity","maxPowerKw":11,"isMegawatt":false,"status":"AVAILABLE","source":"ndw"}},{"type":"Feature","geometry":{"type":"Point","coordinates":[4.82241,52.651]},"properties":{"type":"charge","layer":"passenger","locationId":"95","name":"Shell Recharge NL Mimi Boesnachhof 4","address":"Mimi Boesnachhof 4","city":"Heerhugowaard","operatorName":"Ubitricity","maxPowerKw":11,"isMegawatt":false,"status":"CHARGING","source":"ndw"}},{"type":"Feature","geometry":{"type":"Point","coordinates":[4.81846,52.66739]},"properties":{"type":"charge","layer":"passenger","locationId":"632F6790-8AC0-49E1-86B3-B8E0E565FB26","name":"Eneco eMobility VWML - Dudokweg 19 - Heerhugowaard","address":"W.M. Dudokweg 19","city":"Heerhugowaard","operatorName":"Eneco","maxPowerKw":11,"isMegawatt":false,"status":"AVAILABLE","source":"ndw"}},{"type":"Feature","geometry":{"type":"Point","coordinates":[4.8158164,52.6601657]},"properties":{"type":"charge","layer":"passenger","locationId":"1250","name":"Shell Recharge NL Granaat 14","address":"Granaat 14","city":"Heerhugowaard","operatorName":"Ubitricity","maxPowerKw":22,"isMegawatt":false,"status":"AVAILABLE","source":"ndw"}},{"type":"Feature","geometry":{"type":"Point","coordinates":[4.8334012,52.6576989]},"properties":{"type":"charge","layer":"passenger","locationId":"2091","name":"Shell Recharge NL Houtzaagmolen 35","address":"Houtzaagmolen 35","city":"Heerhugowaard","operatorName":"Ubitricity","maxPowerKw":22,"isMegawatt":false,"status":"AVAILABLE","source":"ndw"}},{"type":"Feature","geometry":{"type":"Point","coordinates":[4.83946,52.66941]},"properties":{"type":"charge","layer":"passenger","locationId":"469","name":"Shell Recharge NL Staringlaan 61","address":"Staringlaan 61","city":"Heerhugowaard","operatorName":"Ubitricity","maxPowerKw":11,"isMegawatt":false,"status":"AVAILABLE","source":"ndw"}},{"type":"Feature","geometry":{"type":"Point","coordinates":[4.808075,52.681564]},"properties":{"type":"charge","layer":"passenger","locationId":"4bb842ce-b9d0-11f0-84aa-42010aa400b8","name":"TNLP008001","address":"Dorpsstraat 152","city":"Broek op Langedijk","operatorName":"TotalEnergies","maxPowerKw":17,"isMegawatt":false,"status":"AVAILABLE","source":"ndw"}},{"type":"Feature","geometry":{"type":"Point","coordinates":[4.832437,52.666473]},"properties":{"type":"charge","layer":"passenger","locationId":"6017ec26-2100-11ee-867a-42010aa40fc0","name":"TNLP009241","address":"Bilderdijkstraat 47","city":"Heerhugowaard","operatorName":"TotalEnergies","maxPowerKw":17,"isMegawatt":false,"status":"AVAILABLE","source":"ndw"}},{"type":"Feature","geometry":{"type":"Point","coordinates":[4.781591,52.652023]},"properties":{"type":"charge","layer":"passenger","locationId":"bb407250-9acf-11ee-b41e-42010aa40fc0","name":"TNLP009877","address":"Fuut 26","city":"Sint Pancras","operatorName":"TotalEnergies","maxPowerKw":14,"isMegawatt":false,"status":"AVAILABLE","source":"ndw"}},{"type":"Feature","geometry":{"type":"Point","coordinates":[4.844008,52.683578]},"properties":{"type":"charge","layer":"passenger","locationId":"6052bacf-629b-4c6e-9ab1-45d320229133","name":"TNLP015162","address":"Het Schild 1","city":"Heerhugowaard","operatorName":"TotalEnergies","maxPowerKw":17,"isMegawatt":false,"status":"AVAILABLE","source":"ndw"}},{"type":"Feature","geometry":{"type":"Point","coordinates":[4.808075,52.681564]},"properties":{"type":"charge","layer":"passenger","locationId":"8842772F-A4B6-49F4-B16B-E36E67307B7D","name":"TNLP008001","address":"Dorpsstraat 152","city":"Broek op Langedijk","operatorName":"TotalEnergies","maxPowerKw":17,"isMegawatt":false,"status":"AVAILABLE","source":"ndw"}},{"type":"Feature","geometry":{"type":"Point","coordinates":[4.83424,52.673912]},"properties":{"type":"charge","layer":"passenger","locationId":"31b08da1-58bb-4c38-849d-e60280c2dc47","name":"TNLP015173","address":"Eris 41","city":"Heerhugowaard","operatorName":"TotalEnergies","maxPowerKw":17,"isMegawatt":false,"status":"AVAILABLE","source":"ndw"}},{"type":"Feature","geometry":{"type":"Point","coordinates":[4.845858,52.661273]},"properties":{"type":"charge","layer":"passenger","locationId":"0a6c68a6-cd36-11ed-9450-42010aa40032","name":"TNLP008210","address":"Platanenlaan 88","city":"Heerhugowaard","operatorName":"TotalEnergies","maxPowerKw":17,"isMegawatt":false,"status":"AVAILABLE","source":"ndw"}},{"type":"Feature","geometry":{"type":"Point","coordinates":[4.822743,52.643894]},"properties":{"type":"charge","layer":"passenger","locationId":"40df797c-c983-11f0-8fe2-42010aa400b8","name":"TNLP006232","address":"Else van den Banlaan 6","city":"Heerhugowaard","operatorName":"TotalEnergies","maxPowerKw":17,"isMegawatt":false,"status":"AVAILABLE","source":"ndw"}},{"type":"Feature","geometry":{"type":"Point","coordinates":[4.824067,52.660092]},"properties":{"type":"charge","layer":"passenger","locationId":"d54f28b2-d2f4-11f0-aa82-42010aa400b8","name":"TNLP009688","address":"Bergkristal 6","city":"Heerhugowaard","operatorName":"TotalEnergies","maxPowerKw":17,"isMegawatt":false,"status":"AVAILABLE","source":"ndw"}},{"type":"Feature","geometry":{"type":"Point","coordinates":[4.841838,52.664533]},"properties":{"type":"charge","layer":"passenger","locationId":"7af404e1-eb8f-498e-ab65-e8098d427c5b","name":"TNLP015181","address":"Dennenlaan 6","city":"Heerhugowaard","operatorName":"TotalEnergies","maxPowerKw":17,"isMegawatt":false,"status":"AVAILABLE","source":"ndw"}},{"type":"Feature","geometry":{"type":"Point","coordinates":[4.801188,52.6773]},"properties":{"type":"charge","layer":"passenger","locationId":"67ee4f08005ce9e08b3db8f2","name":"Statedijk 4","address":"Statedijk 1","city":"Broek op Langedijk","operatorName":"E-Flux by Road","maxPowerKw":11,"isMegawatt":false,"status":"AVAILABLE","source":"ndw"}},{"type":"Feature","geometry":{"type":"Point","coordinates":[4.808937,52.69579]},"properties":{"type":"charge","layer":"passenger","locationId":"0cfd9752-a116-11ee-8691-42010aa40fc0","name":"TNLP009724","address":"Voorburggracht 220 C","city":"Zuid-Scharwoude","operatorName":"TotalEnergies","maxPowerKw":17,"isMegawatt":false,"status":"AVAILABLE","source":"ndw"}},{"type":"Feature","geometry":{"type":"Point","coordinates":[4.83424,52.673912]},"properties":{"type":"charge","layer":"passenger","locationId":"dbea8760-b8d9-11ef-adc6-42010aa400b8","name":"TNLP015173","address":"Eris 41","city":"Heerhugowaard","operatorName":"TotalEnergies","maxPowerKw":17,"isMegawatt":false,"status":"AVAILABLE","source":"ndw"}},{"type":"Feature","geometry":{"type":"Point","coordinates":[4.801649,52.649061]},"properties":{"type":"charge","layer":"passenger","locationId":"840fd470-fda6-405e-bc73-2456cbc9d772","name":"TNLP005789","address":"Zonnehof 37","city":"Heerhugowaard","operatorName":"TotalEnergies","maxPowerKw":0,"isMegawatt":false,"status":"AVAILABLE","source":"ndw"}},{"type":"Feature","geometry":{"type":"Point","coordinates":[4.803336,52.663897]},"properties":{"type":"charge","layer":"passenger","locationId":"94b8387c-6487-45e5-881a-e2428e3c4426","name":"TNLP006679","address":"Heijnkesakker 16","city":"Heerhugowaard","operatorName":"TotalEnergies","maxPowerKw":17,"isMegawatt":false,"status":"AVAILABLE","source":"ndw"}},{"type":"Feature","geometry":{"type":"Point","coordinates":[4.81081,52.692927]},"properties":{"type":"charge","layer":"passenger","locationId":"2c711b90-be88-11f0-add5-42010aa400b8","name":"TNLP034285","address":"Rietvoorn 29","city":"Zuid-Scharwoude","operatorName":"TotalEnergies","maxPowerKw":14,"isMegawatt":false,"status":"AVAILABLE","source":"ndw"}},{"type":"Feature","geometry":{"type":"Point","coordinates":[4.80558,52.70122]},"properties":{"type":"charge","layer":"passenger","locationId":"c7425f75-4fbd-4a3b-9da1-088cfe0b6d55","name":"PP004320","address":"Oliemolen 1","city":"Noord-Scharwoude","operatorName":"TotalEnergies","maxPowerKw":0,"isMegawatt":false,"status":"AVAILABLE","source":"ndw"}},{"type":"Feature","geometry":{"type":"Point","coordinates":[4.81518,52.67271]},"properties":{"type":"charge","layer":"passenger","locationId":"163","name":"Shell Recharge NL Oost Vlaerdinge 2","address":"Oost Vlaerdinge 2","city":"Heerhugowaard","operatorName":"Ubitricity","maxPowerKw":11,"isMegawatt":false,"status":"AVAILABLE","source":"ndw"}},{"type":"Feature","geometry":{"type":"Point","coordinates":[4.8430766,52.6742762]},"properties":{"type":"charge","layer":"passenger","locationId":"1890","name":"Shell Recharge NL Jac. Coorenlaan 1","address":"Jac. Coorenlaan 1","city":"Heerhugowaard","operatorName":"Ubitricity","maxPowerKw":22,"isMegawatt":false,"status":"AVAILABLE","source":"ndw"}},{"type":"Feature","geometry":{"type":"Point","coordinates":[4.83761,52.66644]},"properties":{"type":"charge","layer":"passenger","locationId":"92","name":"Shell Recharge NL Van Eedenplein 122","address":"Van Eedenplein 122","city":"Heerhugowaard","operatorName":"Ubitricity","maxPowerKw":11,"isMegawatt":false,"status":"AVAILABLE","source":"ndw"}},{"type":"Feature","geometry":{"type":"Point","coordinates":[4.839007,52.663535]},"properties":{"type":"charge","layer":"passenger","locationId":"9215c9ff-b3f2-4785-b3c0-607ea46c7d27","name":"TNLP006712","address":"Buddlejalaan 90","city":"Heerhugowaard","operatorName":"TotalEnergies","maxPowerKw":17,"isMegawatt":false,"status":"AVAILABLE","source":"ndw"}},{"type":"Feature","geometry":{"type":"Point","coordinates":[4.825808,52.646069]},"properties":{"type":"charge","layer":"passenger","locationId":"c4761994-c596-11f0-9e11-42010aa400b8","name":"TNLP005947","address":"Wilhelmina Druckertuin 21","city":"Heerhugowaard","operatorName":"TotalEnergies","maxPowerKw":0,"isMegawatt":false,"status":"AVAILABLE","source":"ndw"}},{"type":"Feature","geometry":{"type":"Point","coordinates":[4.824129,52.656992]},"properties":{"type":"charge","layer":"passenger","locationId":"7c281576-c2cb-43a7-9f74-3b2fb85d8910","name":"TNLP006691","address":"Lek 1","city":"Heerhugowaard","operatorName":"TotalEnergies","maxPowerKw":17,"isMegawatt":false,"status":"AVAILABLE","source":"ndw"}},{"type":"Feature","geometry":{"type":"Point","coordinates":[4.815956,52.671455]},"properties":{"type":"charge","layer":"passenger","locationId":"B0D777D9-2735-4576-976D-458782D951F0","name":"TNLP009187","address":"Zuijder Vlaerdinge 48","city":"Heerhugowaard","operatorName":"TotalEnergies","maxPowerKw":17,"isMegawatt":false,"status":"AVAILABLE","source":"ndw"}},{"type":"Feature","geometry":{"type":"Point","coordinates":[4.839079,52.649643]},"properties":{"type":"charge","layer":"passenger","locationId":"3cc6e536-c773-11ea-ab31-42010a840019","name":"PP005377","address":"Westerveerstraat 57","city":"Heerhugowaard","operatorName":"TotalEnergies","maxPowerKw":0,"isMegawatt":false,"status":"AVAILABLE","source":"ndw"}},{"type":"Feature","geometry":{"type":"Point","coordinates":[4.8316,52.649939]},"properties":{"type":"charge","layer":"passenger","locationId":"45df69ae-98ce-11f0-9911-42010aa400b8","name":"TNLP008353","address":"Burgplantsoen 17","city":"Heerhugowaard","operatorName":"TotalEnergies","maxPowerKw":14,"isMegawatt":false,"status":"AVAILABLE","source":"ndw"}},{"type":"Feature","geometry":{"type":"Point","coordinates":[4.782102,52.655592]},"properties":{"type":"charge","layer":"passenger","locationId":"894c3cfa-f5f8-11ee-8c3b-42010aa400b8","name":"TNLP015345","address":"Fazantenlaan 38","city":"Sint Pancras","operatorName":"TotalEnergies","maxPowerKw":14,"isMegawatt":false,"status":"AVAILABLE","source":"ndw"}},{"type":"Feature","geometry":{"type":"Point","coordinates":[4.83393,52.65529]},"properties":{"type":"charge","layer":"passenger","locationId":"adec4894-d547-11ec-8900-42010a840003","name":"PP004045","address":"Loodwitmolen 18","city":"Heerhugowaard","operatorName":"TotalEnergies","maxPowerKw":0,"isMegawatt":false,"status":"AVAILABLE","source":"ndw"}},{"type":"Feature","geometry":{"type":"Point","coordinates":[4.804419,52.645714]},"properties":{"type":"charge","layer":"passenger","locationId":"b181ce96-1a3c-11ec-8c47-42010a840030","name":"TNLP006592","address":"Hemelboog Binnen 31","city":"Heerhugowaard","operatorName":"TotalEnergies","maxPowerKw":17,"isMegawatt":false,"status":"AVAILABLE","source":"ndw"}},{"type":"Feature","geometry":{"type":"Point","coordinates":[4.852425,52.678789]},"properties":{"type":"charge","layer":"passenger","locationId":"ddf8a408-e536-11eb-8275-42010a840012","name":"TNLP006242","address":"Hercules Segherslaan 41","city":"Heerhugowaard","operatorName":"TotalEnergies","maxPowerKw":17,"isMegawatt":false,"status":"AVAILABLE","source":"ndw"}},{"type":"Feature","geometry":{"type":"Point","coordinates":[4.815516,52.702118]},"properties":{"type":"charge","layer":"passenger","locationId":"e48f0fd4-86f7-11eb-a875-42010a84001c","name":"TNLP006032","address":"Charlotte de Bourbonstraat 1","city":"Noord-Scharwoude","operatorName":"TotalEnergies","maxPowerKw":17,"isMegawatt":false,"status":"AVAILABLE","source":"ndw"}},{"type":"Feature","geometry":{"type":"Point","coordinates":[4.825801,52.658373]},"properties":{"type":"charge","layer":"passenger","locationId":"264f5c66-9bf3-11f0-b0c7-42010aa400b8","name":"TNLP015229","address":"Lek 58","city":"Heerhugowaard","operatorName":"TotalEnergies","maxPowerKw":17,"isMegawatt":false,"status":"AVAILABLE","source":"ndw"}},{"type":"Feature","geometry":{"type":"Point","coordinates":[4.809283,52.679743]},"properties":{"type":"charge","layer":"passenger","locationId":"5de19c9e-ce3d-11f0-918d-42010aa400b8","name":"TNLP006236","address":"Dwarspad 1","city":"Broek op Langedijk","operatorName":"TotalEnergies","maxPowerKw":17,"isMegawatt":false,"status":"AVAILABLE","source":"ndw"}},{"type":"Feature","geometry":{"type":"Point","coordinates":[4.815053,52.641539]},"properties":{"type":"charge","layer":"passenger","locationId":"71a532ce-464b-11f0-b170-42010aa400b8","name":"TNLP034069","address":"Melisse 33","city":"Heerhugowaard","operatorName":"TotalEnergies","maxPowerKw":14,"isMegawatt":false,"status":"AVAILABLE","source":"ndw"}},{"type":"Feature","geometry":{"type":"Point","coordinates":[4.846585,52.66792]},"properties":{"type":"charge","layer":"passenger","locationId":"8f0c0d9a-3931-11ec-a88d-42010a840003","name":"TNLP006685","address":"Korte Dreef 17","city":"Heerhugowaard","operatorName":"TotalEnergies","maxPowerKw":17,"isMegawatt":false,"status":"AVAILABLE","source":"ndw"}},{"type":"Feature","geometry":{"type":"Point","coordinates":[4.810905,52.695954]},"properties":{"type":"charge","layer":"passenger","locationId":"93adcc0e-1728-11ee-a599-42010aa40051","name":"TNLP009012","address":"Kastanjelaan 52","city":"Zuid-Scharwoude","operatorName":"TotalEnergies","maxPowerKw":17,"isMegawatt":false,"status":"AVAILABLE","source":"ndw"}},{"type":"Feature","geometry":{"type":"Point","coordinates":[4.868636,52.671255]},"properties":{"type":"charge","layer":"passenger","locationId":"b8efa51c-e93c-11eb-bac9-42010a84003a","name":"TNLP006410","address":"Vossenstaartpad 39","city":"Heerhugowaard","operatorName":"TotalEnergies","maxPowerKw":17,"isMegawatt":false,"status":"CHARGING","source":"ndw"}},{"type":"Feature","geometry":{"type":"Point","coordinates":[4.846237,52.674352]},"properties":{"type":"charge","layer":"passenger","locationId":"c33fe784-a502-11ec-be8c-42010a840016","name":"TNLP007103","address":"van necksingel 1","city":"Heerhugowaard","operatorName":"TotalEnergies","maxPowerKw":17,"isMegawatt":false,"status":"AVAILABLE","source":"ndw"}},{"type":"Feature","geometry":{"type":"Point","coordinates":[4.81379,52.65098]},"properties":{"type":"charge","layer":"passenger","locationId":"2b009180-0234-11ea-ad5f-42010a840004","name":"PP004125","address":"Cato van der Pijlland 1","city":"Heerhugowaard","operatorName":"TotalEnergies","maxPowerKw":0,"isMegawatt":false,"status":"AVAILABLE","source":"ndw"}},{"type":"Feature","geometry":{"type":"Point","coordinates":[4.801649,52.649061]},"properties":{"type":"charge","layer":"passenger","locationId":"3bd0fca2-3ded-11eb-bf55-42010a840016","name":"TNLP005789","address":"Zonnehof 37","city":"Heerhugowaard","operatorName":"TotalEnergies","maxPowerKw":0,"isMegawatt":false,"status":"AVAILABLE","source":"ndw"}},{"type":"Feature","geometry":{"type":"Point","coordinates":[4.830275,52.646298]},"properties":{"type":"charge","layer":"passenger","locationId":"5a177326-c59c-11f0-b1ac-42010aa400b8","name":"TNLP009774","address":"Huygenhoekring 193","city":"Heerhugowaard","operatorName":"TotalEnergies","maxPowerKw":17,"isMegawatt":false,"status":"AVAILABLE","source":"ndw"}},{"type":"Feature","geometry":{"type":"Point","coordinates":[4.823729,52.661038]},"properties":{"type":"charge","layer":"passenger","locationId":"e1349d7a-a118-11ee-8f42-42010aa40fc0","name":"TNLP009908","address":"Veldspaat 2","city":"Heerhugowaard","operatorName":"TotalEnergies","maxPowerKw":17,"isMegawatt":false,"status":"AVAILABLE","source":"ndw"}},{"type":"Feature","geometry":{"type":"Point","coordinates":[4.807345,52.655787]},"properties":{"type":"charge","layer":"passenger","locationId":"fb62473e-992c-11eb-b375-42010a840023","name":"TNLP005724","address":"Walvisplein 36","city":"Heerhugowaard","operatorName":"TotalEnergies","maxPowerKw":17,"isMegawatt":false,"status":"AVAILABLE","source":"ndw"}},{"type":"Feature","geometry":{"type":"Point","coordinates":[4.80447,52.680652]},"properties":{"type":"charge","layer":"passenger","locationId":"7dc0a338-8f30-11e8-a994-42010a840002","name":"TNLP006906","address":"Voorburggracht 10","city":"Broek op Langedijk","operatorName":"TotalEnergies","maxPowerKw":17,"isMegawatt":false,"status":"AVAILABLE","source":"ndw"}},{"type":"Feature","geometry":{"type":"Point","coordinates":[4.823786,52.646674]},"properties":{"type":"charge","layer":"passenger","locationId":"8557ec7e-cd75-11f0-a001-42010aa400b8","name":"TNLP005842","address":"Aletta Jacobstuin 2","city":"Heerhugowaard","operatorName":"TotalEnergies","maxPowerKw":0,"isMegawatt":false,"status":"AVAILABLE","source":"ndw"}},{"type":"Feature","geometry":{"type":"Point","coordinates":[4.807056,52.696782]},"properties":{"type":"charge","layer":"passenger","locationId":"9ce09b1c-e471-11eb-a001-42010a84004a","name":"TNLP006394","address":"Kleiakker 8","city":"Noord-Scharwoude","operatorName":"TotalEnergies","maxPowerKw":14,"isMegawatt":false,"status":"AVAILABLE","source":"ndw"}},{"type":"Feature","geometry":{"type":"Point","coordinates":[4.830527,52.670423]},"properties":{"type":"charge","layer":"passenger","locationId":"e9268644-c88b-11ed-a8e2-42010aa4002c","name":"TNLP008179","address":"Jupiterlaan 28","city":"Heerhugowaard","operatorName":"TotalEnergies","maxPowerKw":17,"isMegawatt":false,"status":"AVAILABLE","source":"ndw"}},{"type":"Feature","geometry":{"type":"Point","coordinates":[4.844997,52.709435]},"properties":{"type":"charge","layer":"passenger","locationId":"079f96c6-552b-11ed-93c5-42010aa40062","name":"TNLP007687","address":"De Wolfshop 27","city":"Heerhugowaard","operatorName":"TotalEnergies","maxPowerKw":17,"isMegawatt":false,"status":"AVAILABLE","source":"ndw"}},{"type":"Feature","geometry":{"type":"Point","coordinates":[4.833474,52.667961]},"properties":{"type":"charge","layer":"passenger","locationId":"aa8f53b2-001c-4571-abe1-828287f55f19","name":"TNLP007154","address":"Da Costastraat 18","city":"Heerhugowaard","operatorName":"TotalEnergies","maxPowerKw":17,"isMegawatt":false,"status":"AVAILABLE","source":"ndw"}},{"type":"Feature","geometry":{"type":"Point","coordinates":[4.794788,52.662189]},"properties":{"type":"charge","layer":"passenger","locationId":"15614634-02ed-11eb-925e-42010a840fea","name":"PP005512","address":"Molenwiek 1","city":"Sint Pancras","operatorName":"TotalEnergies","maxPowerKw":14,"isMegawatt":false,"status":"AVAILABLE","source":"ndw"}},{"type":"Feature","geometry":{"type":"Point","coordinates":[4.805703,52.649457]},"properties":{"type":"charge","layer":"passenger","locationId":"f65a0c48-e46b-11ef-b158-42010aa400b8","name":"TNLP009556","address":"Zonnevlam 1A","city":"Heerhugowaard","operatorName":"TotalEnergies","maxPowerKw":17,"isMegawatt":false,"status":"AVAILABLE","source":"ndw"}},{"type":"Feature","geometry":{"type":"Point","coordinates":[4.847128,52.672496]},"properties":{"type":"charge","layer":"passenger","locationId":"a00dea90-5189-11eb-a42b-42010a840060","name":"TNLP005845","address":"van Hellemondtstraat 2","city":"Heerhugowaard","operatorName":"TotalEnergies","maxPowerKw":0,"isMegawatt":false,"status":"AVAILABLE","source":"ndw"}},{"type":"Feature","geometry":{"type":"Point","coordinates":[4.804457,52.709472]},"properties":{"type":"charge","layer":"passenger","locationId":"dae1e4f8-8070-11f0-b7e7-42010aa400b8","name":"TNLP006379","address":"Waterdrieblad 59","city":"Oudkarspel","operatorName":"TotalEnergies","maxPowerKw":17,"isMegawatt":false,"status":"AVAILABLE","source":"ndw"}},{"type":"Feature","geometry":{"type":"Point","coordinates":[4.850189,52.678675]},"properties":{"type":"charge","layer":"passenger","locationId":"7ab7fcac-9286-11f0-ab5e-42010aa400b8","name":"TNLP034070","address":"Pieter Soutmanlaan 24","city":"Heerhugowaard","operatorName":"TotalEnergies","maxPowerKw":14,"isMegawatt":false,"status":"CHARGING","source":"ndw"}},{"type":"Feature","geometry":{"type":"Point","coordinates":[4.801652,52.647268]},"properties":{"type":"charge","layer":"passenger","locationId":"7cfd3ff6-783c-11ee-a10f-42010aa40fc0","name":"TNLP008281","address":"Noorderlicht 101","city":"Heerhugowaard","operatorName":"TotalEnergies","maxPowerKw":14,"isMegawatt":false,"status":"UNAVAILABLE","source":"ndw"}},{"type":"Feature","geometry":{"type":"Point","coordinates":[4.80544,52.64926]},"properties":{"type":"charge","layer":"passenger","locationId":"94","name":"Shell Recharge NL Zonnevlam 1","address":"Zonnevlam 1","city":"Heerhugowaard","operatorName":"Ubitricity","maxPowerKw":11,"isMegawatt":false,"status":"AVAILABLE","source":"ndw"}},{"type":"Feature","geometry":{"type":"Point","coordinates":[4.8316,52.649939]},"properties":{"type":"charge","layer":"passenger","locationId":"DA09D1FC-7B87-4ED7-9219-8BF72149606A","name":"TNLP008353","address":"Burgplantsoen 17","city":"Heerhugowaard","operatorName":"TotalEnergies","maxPowerKw":14,"isMegawatt":false,"status":"AVAILABLE","source":"ndw"}},{"type":"Feature","geometry":{"type":"Point","coordinates":[4.801188,52.6773]},"properties":{"type":"charge","layer":"passenger","locationId":"67ee5057ec0b78e5d89646b4","name":"Statedijk 9","address":"Statedijk 1","city":"Broek op Langedijk","operatorName":"E-Flux by Road","maxPowerKw":11,"isMegawatt":false,"status":"AVAILABLE","source":"ndw"}},{"type":"Feature","geometry":{"type":"Point","coordinates":[4.78937,52.65835]},"properties":{"type":"charge","layer":"passenger","locationId":"9352bb5c-be88-11f0-9974-42010aa400b8","name":"PP005147","address":"Prunuslaan 34","city":"Sint Pancras","operatorName":"TotalEnergies","maxPowerKw":14,"isMegawatt":false,"status":"AVAILABLE","source":"ndw"}},{"type":"Feature","geometry":{"type":"Point","coordinates":[4.789588,52.682898]},"properties":{"type":"charge","layer":"passenger","locationId":"dd6f7481-0b1d-4b87-955d-813d149d7907","name":"TNLP005765","address":"Karlant 6","city":"Zuid-Scharwoude","operatorName":"TotalEnergies","maxPowerKw":17,"isMegawatt":false,"status":"AVAILABLE","source":"ndw"}},{"type":"Feature","geometry":{"type":"Point","coordinates":[4.830017,52.668422]},"properties":{"type":"charge","layer":"passenger","locationId":"f152a417-f6fa-4080-af2b-466ed4ecd8ac","name":"TNLP007100","address":"Themislaan 2","city":"Heerhugowaard","operatorName":"TotalEnergies","maxPowerKw":17,"isMegawatt":false,"status":"AVAILABLE","source":"ndw"}},{"type":"Feature","geometry":{"type":"Point","coordinates":[4.823786,52.646674]},"properties":{"type":"charge","layer":"passenger","locationId":"01174394-8bc2-4ed7-b850-ded262bbb132","name":"TNLP005842","address":"Aletta Jacobstuin 2","city":"Heerhugowaard","operatorName":"TotalEnergies","maxPowerKw":0,"isMegawatt":false,"status":"AVAILABLE","source":"ndw"}},{"type":"Feature","geometry":{"type":"Point","coordinates":[4.815053,52.641539]},"properties":{"type":"charge","layer":"passenger","locationId":"08b0f80a-8a0d-49c9-b563-50d2077b3863","name":"TNLP034069","address":"Melisse 33","city":"Heerhugowaard","operatorName":"TotalEnergies","maxPowerKw":14,"isMegawatt":false,"status":"AVAILABLE","source":"ndw"}},{"type":"Feature","geometry":{"type":"Point","coordinates":[4.83677,52.65605]},"properties":{"type":"charge","layer":"passenger","locationId":"1579","name":"Shell Recharge NL Mosterdmolen 48","address":"Mosterdmolen 48","city":"Dijk en Waard","operatorName":"Ubitricity","maxPowerKw":11,"isMegawatt":false,"status":"AVAILABLE","source":"ndw"}},{"type":"Feature","geometry":{"type":"Point","coordinates":[4.828418,52.66605]},"properties":{"type":"charge","layer":"passenger","locationId":"150c43ea-98cb-11f0-ac33-42010aa400b8","name":"TNLP009339","address":"Gorterlaan 19","city":"Heerhugowaard","operatorName":"TotalEnergies","maxPowerKw":17,"isMegawatt":false,"status":"AVAILABLE","source":"ndw"}},{"type":"Feature","geometry":{"type":"Point","coordinates":[4.844008,52.683578]},"properties":{"type":"charge","layer":"passenger","locationId":"456a1fc4-d095-11f0-ba79-42010aa400b8","name":"TNLP015162","address":"Het Schild 1","city":"Heerhugowaard","operatorName":"TotalEnergies","maxPowerKw":17,"isMegawatt":false,"status":"AVAILABLE","source":"ndw"}},{"type":"Feature","geometry":{"type":"Point","coordinates":[4.8083342,52.6463478]},"properties":{"type":"charge","layer":"passenger","locationId":"242","name":"Shell Recharge NL Keerkringzijde van Meridiaan 1","address":"Keerkringzijde van Meridiaan 1","city":"Heerhugowaard","operatorName":"Ubitricity","maxPowerKw":11,"isMegawatt":false,"status":"AVAILABLE","source":"ndw"}},{"type":"Feature","geometry":{"type":"Point","coordinates":[4.8156587,52.7052702]},"properties":{"type":"charge","layer":"passenger","locationId":"1429","name":"Shell Recharge NL Anna van Burenstraat 1","address":"Anna van Burenstraat 1","city":"Noord-Scharwoude","operatorName":"Ubitricity","maxPowerKw":22,"isMegawatt":false,"status":"AVAILABLE","source":"ndw"}},{"type":"Feature","geometry":{"type":"Point","coordinates":[4.804457,52.709472]},"properties":{"type":"charge","layer":"passenger","locationId":"ecbc46e5-ca82-46f0-adfd-2f8efe6c5f34","name":"TNLP006379","address":"Waterdrieblad 59","city":"Oudkarspel","operatorName":"TotalEnergies","maxPowerKw":17,"isMegawatt":false,"status":"AVAILABLE","source":"ndw"}},{"type":"Feature","geometry":{"type":"Point","coordinates":[4.804494,52.653685]},"properties":{"type":"charge","layer":"passenger","locationId":"608d33c3-86a9-41b8-a08e-2e9fb5c83b9d","name":"TNLP034680","address":"Damhert 7","city":"Heerhugowaard","operatorName":"TotalEnergies","maxPowerKw":14,"isMegawatt":false,"status":"AVAILABLE","source":"ndw"}},{"type":"Feature","geometry":{"type":"Point","coordinates":[4.831802,52.64801]},"properties":{"type":"charge","layer":"passenger","locationId":"2bf7a00c-9675-11f0-8abc-42010aa400b8","name":"TNLP009483","address":"Geeststraat 20","city":"Heerhugowaard","operatorName":"TotalEnergies","maxPowerKw":17,"isMegawatt":false,"status":"AVAILABLE","source":"ndw"}},{"type":"Feature","geometry":{"type":"Point","coordinates":[4.790981,52.684126]},"properties":{"type":"charge","layer":"passenger","locationId":"33181c6c-3ded-11eb-ae10-42010a840016","name":"TNLP005747","address":"Haskelant 21","city":"Zuid-Scharwoude","operatorName":"TotalEnergies","maxPowerKw":0,"isMegawatt":false,"status":"AVAILABLE","source":"ndw"}},{"type":"Feature","geometry":{"type":"Point","coordinates":[4.815709,52.706549]},"properties":{"type":"charge","layer":"passenger","locationId":"508ea0d6-c6cf-11ee-aa32-42010aa40fc0","name":"TNLP008499","address":"Industriestraat 83","city":"Noord-Scharwoude","operatorName":"TotalEnergies","maxPowerKw":14,"isMegawatt":false,"status":"AVAILABLE","source":"ndw"}},{"type":"Feature","geometry":{"type":"Point","coordinates":[4.806015,52.652972]},"properties":{"type":"charge","layer":"passenger","locationId":"592a78b4-91b7-11f0-bcaf-42010aa400b8","name":"TNLP008413","address":"Velduil 1","city":"Heerhugowaard","operatorName":"TotalEnergies","maxPowerKw":14,"isMegawatt":false,"status":"AVAILABLE","source":"ndw"}},{"type":"Feature","geometry":{"type":"Point","coordinates":[4.814454,52.705992]},"properties":{"type":"charge","layer":"passenger","locationId":"90868cae-3931-11ec-b42c-42010a840003","name":"TNLP006726","address":"Nova Zembla 18","city":"Noord-Scharwoude","operatorName":"TotalEnergies","maxPowerKw":17,"isMegawatt":false,"status":"AVAILABLE","source":"ndw"}},{"type":"Feature","geometry":{"type":"Point","coordinates":[4.839007,52.663535]},"properties":{"type":"charge","layer":"passenger","locationId":"1dacb874-379d-11ec-b22f-42010a840003","name":"TNLP006712","address":"Buddlejalaan 90","city":"Heerhugowaard","operatorName":"TotalEnergies","maxPowerKw":17,"isMegawatt":false,"status":"AVAILABLE","source":"ndw"}},{"type":"Feature","geometry":{"type":"Point","coordinates":[4.811122,52.703161]},"properties":{"type":"charge","layer":"passenger","locationId":"3a561776-5ea5-11f0-a7b6-42010aa400b8","name":"TNLP006783","address":"Molenkade 2","city":"Noord-Scharwoude","operatorName":"TotalEnergies","maxPowerKw":17,"isMegawatt":false,"status":"AVAILABLE","source":"ndw"}},{"type":"Feature","geometry":{"type":"Point","coordinates":[4.795818,52.684882]},"properties":{"type":"charge","layer":"passenger","locationId":"d0840990-61c7-11f0-b73b-42010aa400b8","name":"TNLP009208","address":"Bosgroet 91","city":"Zuid-Scharwoude","operatorName":"TotalEnergies","maxPowerKw":17,"isMegawatt":false,"status":"AVAILABLE","source":"ndw"}},{"type":"Feature","geometry":{"type":"Point","coordinates":[4.818719,52.65902]},"properties":{"type":"charge","layer":"passenger","locationId":"058c2aec-9b29-11f0-9d89-42010aa400b8","name":"TNLP008262","address":"Amatist 72","city":"Heerhugowaard","operatorName":"TotalEnergies","maxPowerKw":11,"isMegawatt":false,"status":"AVAILABLE","source":"ndw"}},{"type":"Feature","geometry":{"type":"Point","coordinates":[4.816046,52.701404]},"properties":{"type":"charge","layer":"passenger","locationId":"0a7625c6-cd36-11ed-93f7-42010aa40032","name":"TNLP008198","address":"Oosterstraat 71","city":"Noord-Scharwoude","operatorName":"TotalEnergies","maxPowerKw":17,"isMegawatt":false,"status":"AVAILABLE","source":"ndw"}},{"type":"Feature","geometry":{"type":"Point","coordinates":[4.87035,52.671501]},