{"type":"FeatureCollection","metadata":{"gemeente":"Doesburg","slug":"doesburg","code":"GM0221","generated_at":"2026-06-02T13:19:22.438Z","total_passenger":46,"total_freight":0,"bounds":[6.109590867324622,51.995605288025864,6.177295905383302,52.04208314017631],"operators":["E-Flux by Road","Pluq","Vattenfall InCharge"]},"features":[{"type":"Feature","geometry":{"type":"Point","coordinates":[6.148855,52.006107]},"properties":{"type":"charge","layer":"passenger","locationId":"ca34a73496fc3b253c2a7abce44fd801","name":"Begoniastraat 31","address":"Begoniastraat 31","city":"Doesburg","operatorName":"Vattenfall InCharge","maxPowerKw":11,"isMegawatt":false,"status":"AVAILABLE","source":"ndw"}},{"type":"Feature","geometry":{"type":"Point","coordinates":[6.164227,52.017119]},"properties":{"type":"charge","layer":"passenger","locationId":"67fcfc70d3d8f79b20eca72e","name":"De Pannekoekenbakker Doesburg","address":"Zomerweg 7","city":"Doesburg","operatorName":"E-Flux by Road","maxPowerKw":22,"isMegawatt":false,"status":"AVAILABLE","source":"ndw"}},{"type":"Feature","geometry":{"type":"Point","coordinates":[6.14702,52.01166]},"properties":{"type":"charge","layer":"passenger","locationId":"d7719e14d66778f7d71d15efe28fa6fc","name":"Monseigneur Bekkerslaan 17","address":"Monseigneur Bekkerslaan 17","city":"Doesburg","operatorName":"Vattenfall InCharge","maxPowerKw":11,"isMegawatt":false,"status":"AVAILABLE","source":"ndw"}},{"type":"Feature","geometry":{"type":"Point","coordinates":[6.134134,52.010314]},"properties":{"type":"charge","layer":"passenger","locationId":"06865c9f374ccb234ec0bf4b5f8acafc","name":"Het Hoornwerck 1","address":"Het Hoornwerck 1","city":"Doesburg","operatorName":"Vattenfall InCharge","maxPowerKw":11,"isMegawatt":false,"status":"AVAILABLE","source":"ndw"}},{"type":"Feature","geometry":{"type":"Point","coordinates":[6.134585,51.999566]},"properties":{"type":"charge","layer":"passenger","locationId":"e73f6b3926ae8292a06f8d59e397d53e","name":"Molengaarde 29","address":"Molengaarde 29","city":"Doesburg","operatorName":"Vattenfall InCharge","maxPowerKw":11,"isMegawatt":false,"status":"AVAILABLE","source":"ndw"}},{"type":"Feature","geometry":{"type":"Point","coordinates":[6.131329,52.016409]},"properties":{"type":"charge","layer":"passenger","locationId":"18b4c9bf-adb5-4822-988a-d56d36b11f36","name":"Koepoortwal","address":"Koepoortwal 19","city":"Doesburg","operatorName":"Vattenfall InCharge","maxPowerKw":11,"isMegawatt":false,"status":"AVAILABLE","source":"ndw"}},{"type":"Feature","geometry":{"type":"Point","coordinates":[6.133964,52.009909]},"properties":{"type":"charge","layer":"passenger","locationId":"6985dd1517c976db1adff1a6","name":"De Linie Doesburg","address":"De Linie 1","city":"Doesburg","operatorName":"E-Flux by Road","maxPowerKw":22,"isMegawatt":false,"status":"AVAILABLE","source":"ndw"}},{"type":"Feature","geometry":{"type":"Point","coordinates":[6.133937,52.009894]},"properties":{"type":"charge","layer":"passenger","locationId":"68ef904f1430d187444902e8","name":"De Linie Doesburg","address":"De Linie 1","city":"Doesburg","operatorName":"E-Flux by Road","maxPowerKw":22,"isMegawatt":false,"status":"AVAILABLE","source":"ndw"}},{"type":"Feature","geometry":{"type":"Point","coordinates":[6.121629,51.997846]},"properties":{"type":"charge","layer":"passenger","locationId":"76c6c5db-34fa-4e53-8eec-7001e65b1fb9","name":"Sandtakker","address":"Sandtakker 11","city":"Doesburg","operatorName":"Vattenfall InCharge","maxPowerKw":11,"isMegawatt":false,"status":"AVAILABLE","source":"ndw"}},{"type":"Feature","geometry":{"type":"Point","coordinates":[6.128307,52.005447]},"properties":{"type":"charge","layer":"passenger","locationId":"9f325fb7557f14bc001181ccdd320159","name":"Smitsweide 7","address":"Smitsweide 7","city":"Doesburg","operatorName":"Vattenfall InCharge","maxPowerKw":11,"isMegawatt":false,"status":"AVAILABLE","source":"ndw"}},{"type":"Feature","geometry":{"type":"Point","coordinates":[6.122307,51.997973]},"properties":{"type":"charge","layer":"passenger","locationId":"af9a73eaf1ccc7a506f76b2232293b78","name":"Sandtakker 1","address":"Sandtakker 1","city":"Doesburg","operatorName":"Vattenfall InCharge","maxPowerKw":11,"isMegawatt":false,"status":"AVAILABLE","source":"ndw"}},{"type":"Feature","geometry":{"type":"Point","coordinates":[6.154638,52.006872]},"properties":{"type":"charge","layer":"passenger","locationId":"66e96113217695001c575c8e","name":"Stichting Overdekt Zwembad Doesburg","address":"Den Helder 1","city":"Doesburg","operatorName":"Pluq","maxPowerKw":22,"isMegawatt":false,"status":"AVAILABLE","source":"ndw"}},{"type":"Feature","geometry":{"type":"Point","coordinates":[6.130111,52.003672]},"properties":{"type":"charge","layer":"passenger","locationId":"2a8ab8b9-255c-4455-bdb7-ebfc6e288325","name":"Hermaat","address":"Hermaat 100","city":"Doesburg","operatorName":"Vattenfall InCharge","maxPowerKw":11,"isMegawatt":false,"status":"AVAILABLE","source":"ndw"}},{"type":"Feature","geometry":{"type":"Point","coordinates":[6.132332,51.999041]},"properties":{"type":"charge","layer":"passenger","locationId":"8f30cb40-061b-4821-8b7d-752950a3d214","name":"Molengaarde","address":"Molengaarde 50","city":"Doesburg","operatorName":"Vattenfall InCharge","maxPowerKw":11,"isMegawatt":false,"status":"AVAILABLE","source":"ndw"}},{"type":"Feature","geometry":{"type":"Point","coordinates":[6.14625,52.005828]},"properties":{"type":"charge","layer":"passenger","locationId":"7cabd6e4cad509ff0a310fa7ec2b93ff","name":"Burgemeester Keiserplein 29a","address":"Burgemeester Keiserplein 29a","city":"Doesburg","operatorName":"Vattenfall InCharge","maxPowerKw":11,"isMegawatt":false,"status":"AVAILABLE","source":"ndw"}},{"type":"Feature","geometry":{"type":"Point","coordinates":[6.145618,52.010893]},"properties":{"type":"charge","layer":"passenger","locationId":"02a3f6b673bcf0d361360405347d860a","name":"Oranjesingel 22","address":"Oranjesingel 22","city":"Doesburg","operatorName":"Vattenfall InCharge","maxPowerKw":11,"isMegawatt":false,"status":"AVAILABLE","source":"ndw"}},{"type":"Feature","geometry":{"type":"Point","coordinates":[6.142057,52.017691]},"properties":{"type":"charge","layer":"passenger","locationId":"e69bed75-17ba-4d40-af47-779abd97cf4e","name":"Tengbergenstraat 17","address":"Tengbergenstraat 17","city":"Doesburg","operatorName":"Vattenfall InCharge","maxPowerKw":11,"isMegawatt":false,"status":"AVAILABLE","source":"ndw"}},{"type":"Feature","geometry":{"type":"Point","coordinates":[6.134004,52.00995]},"properties":{"type":"charge","layer":"passenger","locationId":"6985dc525a041fbbaf7fccd4","name":"De Linie Doesburg","address":"De Linie 1","city":"Doesburg","operatorName":"E-Flux by Road","maxPowerKw":22,"isMegawatt":false,"status":"CHARGING","source":"ndw"}},{"type":"Feature","geometry":{"type":"Point","coordinates":[6.13004,52.00273]},"properties":{"type":"charge","layer":"passenger","locationId":"da2305c512b3d6c87e552083f6cb7399","name":"Hermaat 191","address":"Hermaat 191","city":"Doesburg","operatorName":"Vattenfall InCharge","maxPowerKw":11,"isMegawatt":false,"status":"AVAILABLE","source":"ndw"}},{"type":"Feature","geometry":{"type":"Point","coordinates":[6.132766,52.004618]},"properties":{"type":"charge","layer":"passenger","locationId":"5a6faddc5fa07b75d972eb5d02dd2a8e","name":"Hermaat 46","address":"Hermaat 46","city":"Doesburg","operatorName":"Vattenfall InCharge","maxPowerKw":11,"isMegawatt":false,"status":"AVAILABLE","source":"ndw"}},{"type":"Feature","geometry":{"type":"Point","coordinates":[6.125759,52.003214]},"properties":{"type":"charge","layer":"passenger","locationId":"b0ef0c85-71b5-478b-bcc5-18020616526b","name":"Breedestraat 35","address":"Breedestraat 35","city":"Doesburg","operatorName":"Vattenfall InCharge","maxPowerKw":11,"isMegawatt":false,"status":"AVAILABLE","source":"ndw"}},{"type":"Feature","geometry":{"type":"Point","coordinates":[6.147251,52.012111]},"properties":{"type":"charge","layer":"passenger","locationId":"14967fbfac307935afddbcc169d6bc51","name":"Monseigneur Bekkerslaan 21","address":"Monseigneur Bekkerslaan 21","city":"Doesburg","operatorName":"Vattenfall InCharge","maxPowerKw":11,"isMegawatt":false,"status":"AVAILABLE","source":"ndw"}},{"type":"Feature","geometry":{"type":"Point","coordinates":[6.135001,52.012084]},"properties":{"type":"charge","layer":"passenger","locationId":"1a9b39ad-e221-4f9c-8234-3d6ffe1bf879","name":"Schout bij Nacht Doormansingel","address":"Schout bij Nacht Doormansingel 15","city":"Doesburg","operatorName":"Vattenfall InCharge","maxPowerKw":11,"isMegawatt":false,"status":"AVAILABLE","source":"ndw"}},{"type":"Feature","geometry":{"type":"Point","coordinates":[6.123736,52.002768]},"properties":{"type":"charge","layer":"passenger","locationId":"eca9b227-723a-47df-8457-d7a2c3357ad3","name":"De Bogaert","address":"De Bogaert 4","city":"Doesburg","operatorName":"Vattenfall InCharge","maxPowerKw":11,"isMegawatt":false,"status":"AVAILABLE","source":"ndw"}},{"type":"Feature","geometry":{"type":"Point","coordinates":[6.12943,52.004729]},"properties":{"type":"charge","layer":"passenger","locationId":"949223224946e7319157694a693b664a","name":"Allersmaat 1","address":"Allersmaat 1","city":"Doesburg","operatorName":"Vattenfall InCharge","maxPowerKw":11,"isMegawatt":false,"status":"AVAILABLE","source":"ndw"}},{"type":"Feature","geometry":{"type":"Point","coordinates":[6.131334,52.016479]},"properties":{"type":"charge","layer":"passenger","locationId":"8ce26e41-958d-43d4-852d-4af9979acf35","name":"Koepoortwal","address":"Koepoortwal 19","city":"Doesburg","operatorName":"Vattenfall InCharge","maxPowerKw":11,"isMegawatt":false,"status":"AVAILABLE","source":"ndw"}},{"type":"Feature","geometry":{"type":"Point","coordinates":[6.14705,52.006506]},"properties":{"type":"charge","layer":"passenger","locationId":"3fa5398d942eea08c1d6a5903fb81185","name":"Ribesstraat 24","address":"Ribesstraat 24","city":"Doesburg","operatorName":"Vattenfall InCharge","maxPowerKw":11,"isMegawatt":false,"status":"AVAILABLE","source":"ndw"}},{"type":"Feature","geometry":{"type":"Point","coordinates":[6.124658,52.004814]},"properties":{"type":"charge","layer":"passenger","locationId":"cc958f0b-3687-4676-8367-4dc19bb75d09","name":"De Pol 68","address":"De Pol 68","city":"Doesburg","operatorName":"Vattenfall InCharge","maxPowerKw":11,"isMegawatt":false,"status":"AVAILABLE","source":"ndw"}},{"type":"Feature","geometry":{"type":"Point","coordinates":[6.125943,52.005516]},"properties":{"type":"charge","layer":"passenger","locationId":"d057c3ad58ff86b8adf2f0306c94d16e","name":"Smitsweide 174","address":"Smitsweide 174","city":"Doesburg","operatorName":"Vattenfall InCharge","maxPowerKw":11,"isMegawatt":false,"status":"AVAILABLE","source":"ndw"}},{"type":"Feature","geometry":{"type":"Point","coordinates":[6.13355,52.00208]},"properties":{"type":"charge","layer":"passenger","locationId":"857b12954cc590bfec70df3a6a6f63fc","name":"Potsmaat 1","address":"Potsmaat 1","city":"Doesburg","operatorName":"Vattenfall InCharge","maxPowerKw":11,"isMegawatt":false,"status":"AVAILABLE","source":"ndw"}},{"type":"Feature","geometry":{"type":"Point","coordinates":[6.150445,52.00592]},"properties":{"type":"charge","layer":"passenger","locationId":"d512911f-a1dd-4be0-a406-13f3bdc1e35c","name":"Geraniumstraat","address":"Geraniumstraat 23","city":"Doesburg","operatorName":"Vattenfall InCharge","maxPowerKw":11,"isMegawatt":false,"status":"AVAILABLE","source":"ndw"}},{"type":"Feature","geometry":{"type":"Point","coordinates":[6.12053,51.998673]},"properties":{"type":"charge","layer":"passenger","locationId":"17f47bac834929c0024c3b2a5e061a04","name":"Blomenbrinck 9","address":"Blomenbrinck 9","city":"Doesburg","operatorName":"Vattenfall InCharge","maxPowerKw":11,"isMegawatt":false,"status":"AVAILABLE","source":"ndw"}},{"type":"Feature","geometry":{"type":"Point","coordinates":[6.140815,52.01165]},"properties":{"type":"charge","layer":"passenger","locationId":"0d0b86bf-dac5-43b1-9b88-80076353890d","name":"Prins Hendrikstraat ","address":"Prins Hendrikstraat  8","city":"Doesburg","operatorName":"Vattenfall InCharge","maxPowerKw":11,"isMegawatt":false,"status":"AVAILABLE","source":"ndw"}},{"type":"Feature","geometry":{"type":"Point","coordinates":[6.139,52.007397]},"properties":{"type":"charge","layer":"passenger","locationId":"a4320d3d-7d39-4100-8060-2c029a0998f7","name":"Looiersweg","address":"Looiersweg 13","city":"Doesburg","operatorName":"Vattenfall InCharge","maxPowerKw":11,"isMegawatt":false,"status":"AVAILABLE","source":"ndw"}},{"type":"Feature","geometry":{"type":"Point","coordinates":[6.12915,52.00068]},"properties":{"type":"charge","layer":"passenger","locationId":"ca376fb5ae8a9d16c51cc9f97467486b","name":"Zanderskamp 94","address":"Zanderskamp 94","city":"Doesburg","operatorName":"Vattenfall InCharge","maxPowerKw":11,"isMegawatt":false,"status":"AVAILABLE","source":"ndw"}},{"type":"Feature","geometry":{"type":"Point","coordinates":[6.130084,51.999974]},"properties":{"type":"charge","layer":"passenger","locationId":"5bf38b14-4d02-4759-a1c3-7d7600d1b96c","name":"De Veste","address":"De Veste 60","city":"Doesburg","operatorName":"Vattenfall InCharge","maxPowerKw":11,"isMegawatt":false,"status":"AVAILABLE","source":"ndw"}},{"type":"Feature","geometry":{"type":"Point","coordinates":[6.127875,52.000926]},"properties":{"type":"charge","layer":"passenger","locationId":"744dda6f-106c-4de9-86c6-e620f97465b8","name":"Zanderskamp","address":"Zanderskamp 124","city":"Doesburg","operatorName":"Vattenfall InCharge","maxPowerKw":11,"isMegawatt":false,"status":"AVAILABLE","source":"ndw"}},{"type":"Feature","geometry":{"type":"Point","coordinates":[6.138176,52.010652]},"properties":{"type":"charge","layer":"passenger","locationId":"a5dc651f-80ad-4597-92cf-1550c1b59164","name":"Halve Maanweg","address":"Halve Maanweg 1 b02","city":"Doesburg","operatorName":"Vattenfall InCharge","maxPowerKw":11,"isMegawatt":false,"status":"AVAILABLE","source":"ndw"}},{"type":"Feature","geometry":{"type":"Point","coordinates":[6.145158,52.006546]},"properties":{"type":"charge","layer":"passenger","locationId":"347d2c40-0a42-4294-8659-f4fc6dfe225b","name":"Goudenregenstraat","address":"Goudenregenstraat 56","city":"Doesburg","operatorName":"Vattenfall InCharge","maxPowerKw":11,"isMegawatt":false,"status":"AVAILABLE","source":"ndw"}},{"type":"Feature","geometry":{"type":"Point","coordinates":[6.149323,52.004459]},"properties":{"type":"charge","layer":"passenger","locationId":"41160a3c-aad0-4088-9fbe-88483ca0dc7a","name":"Seringenlaan","address":"Seringenlaan 27","city":"Doesburg","operatorName":"Vattenfall InCharge","maxPowerKw":11,"isMegawatt":false,"status":"AVAILABLE","source":"ndw"}},{"type":"Feature","geometry":{"type":"Point","coordinates":[6.137719,52.013276]},"properties":{"type":"charge","layer":"passenger","locationId":"a91f314f2cbc68c5ee6990b45fa08b20","name":"Zandbergstraat 11","address":"Zandbergstraat 11","city":"Doesburg","operatorName":"Vattenfall InCharge","maxPowerKw":11,"isMegawatt":false,"status":"AVAILABLE","source":"ndw"}},{"type":"Feature","geometry":{"type":"Point","coordinates":[6.143845,52.015017]},"properties":{"type":"charge","layer":"passenger","locationId":"6f0af587-866a-49dc-ae28-2ae0e0757e41","name":"Armgardstraat","address":"Armgardstraat 29","city":"Doesburg","operatorName":"Vattenfall InCharge","maxPowerKw":11,"isMegawatt":false,"status":"AVAILABLE","source":"ndw"}},{"type":"Feature","geometry":{"type":"Point","coordinates":[6.138254,52.012275]},"properties":{"type":"charge","layer":"passenger","locationId":"91153021-7aca-4c9c-ae83-458238390f44","name":"F.D. Rooseveltsingel","address":"F.D. Rooseveltsingel 52","city":"Doesburg","operatorName":"Vattenfall InCharge","maxPowerKw":11,"isMegawatt":false,"status":"AVAILABLE","source":"ndw"}},{"type":"Feature","geometry":{"type":"Point","coordinates":[6.135055,52.007934]},"properties":{"type":"charge","layer":"passenger","locationId":"6e52eec13ebd06c3a2016358769997ca","name":"Koppelweg 8","address":"Koppelweg 8","city":"Doesburg","operatorName":"Vattenfall InCharge","maxPowerKw":11,"isMegawatt":false,"status":"AVAILABLE","source":"ndw"}},{"type":"Feature","geometry":{"type":"Point","coordinates":[6.126388,52.001667]},"properties":{"type":"charge","layer":"passenger","locationId":"f0ac188b-9224-4690-b632-7432287a96ee","name":"Breedestraat","address":"Breedestraat 59","city":"Doesburg","operatorName":"Vattenfall InCharge","maxPowerKw":11,"isMegawatt":false,"status":"AVAILABLE","source":"ndw"}},{"type":"Feature","geometry":{"type":"Point","coordinates":[6.129086,52.014492]},"properties":{"type":"charge","layer":"passenger","locationId":"fb7ea818-bb72-4d50-a0df-000dbd94b90f","name":"Hanzeplein 16","address":"Hanzeplein 16","city":"Doesburg","operatorName":"Vattenfall InCharge","maxPowerKw":11,"isMegawatt":false,"status":"AVAILABLE","source":"ndw"}},{"type":"Feature","geometry":{"type":"MultiPolygon","coordinates":[[[[6.159115126625376,52.0374152371804],[6.167190769569405,52.03696563540522],[6.175513371871521,52.039369030812736],[6.175535824912622,52.039364457294084],[6.175913736065484,52.035777632971715],[6.175057523906548,52.0317010748752],[6.17701527383936,52.03147447465916],[6.173232922914192,52.0277746309821],[6.175307552323106,52.027243414413284],[6.17465539600058,52.02559893627387],[6.176818392169124,52.025289035290946],[6.174534581049922,52.022722234823796],[6.177231623543573,52.021561653945156],[6.177295905383302,52.02033795640237],[6.176558772460277,52.02035510741417],[6.1765472725049095,52.01922834641297],[6.172965878742815,52.018534153978514],[6.173575792570417,52.017573520791835],[6.16980417289266,52.01653643409834],[6.167188512919188,52.016371705366],[6.16452456159246,52.016919788073054],[6.16474552541923,52.01440140884976],[6.1611839345578705,52.01382793824815],[6.159501376429389,52.00667245908194],[6.1566598922887055,52.00636490107328],[6.153957079753972,52.00327129826065],[6.157266095499204,52.004135420087785],[6.1588568114384135,52.00396366791305],[6.158464340208103,52.0018122531252],[6.159160739528116,52.000684248424285],[6.159250991957918,51.9997397743898],[6.149831385502271,52.001868852224874],[6.1411383669824495,51.99857896457987],[6.141821285964675,51.99757353349086],[6.139965898026418,51.99706612472033],[6.136094669414611,51.99742992190168],[6.130252750444005,51.99709218752466],[6.114450440961092,51.99682306637724],[6.11434055351838,51.996814680607464],[6.1104953474292305,51.995605288025864],[6.109590867324622,51.99643658622753],[6.112282199766961,51.99897485659878],[6.114768032250883,52.00456666663306],[6.122339471137804,52.00735277070682],[6.125960071655514,52.01012643102064],[6.127399911974586,52.01271381155865],[6.127639114084293,52.01670353038118],[6.129739554766245,52.0192974803608],[6.1310306052455115,52.0208615368348],[6.1322677630158235,52.02516801661523],[6.130731670446389,52.02910070689857],[6.126947125156409,52.032448581746536],[6.121502505701911,52.034617145723395],[6.128008402765139,52.03401034059713],[6.135085426806135,52.034724431472085],[6.1420047320569315,52.03669956564393],[6.146130949400348,52.040690272818786],[6.148154024646457,52.04168605832995],[6.152050996443023,52.04208314017631],[6.155432844997602,52.041171120232356],[6.159115126625376,52.0374152371804]]]]},"properties":{"type":"boundary","gemeente":"Doesburg","code":"GM0221"}}]}