{"type":"FeatureCollection","metadata":{"gemeente":"Doetinchem","slug":"doetinchem","code":"GM0222","generated_at":"2026-06-02T13:19:22.438Z","total_passenger":208,"total_freight":1,"bounds":[6.1446888849369685,51.92278210694429,6.416082414052359,51.99426083793019],"operators":["Allego","DAEN Mobility","E-Flux by Road","JOLT Energy","Laadnet","Lidl","OPCHARGE","Pluq","Shell Recharge","Vattenfall InCharge"]},"features":[{"type":"Feature","geometry":{"type":"Point","coordinates":[6.279801,51.947598]},"properties":{"type":"charge","layer":"passenger","locationId":"61adfbf0facf47b26d9b00e5","name":"Mabo Techniek EV laadstation openbaar","address":"Transportweg 7-09","city":"Doetinchem","operatorName":"E-Flux by Road","maxPowerKw":22,"isMegawatt":false,"status":"AVAILABLE","source":"ndw"}},{"type":"Feature","geometry":{"type":"Point","coordinates":[6.315608,51.951884]},"properties":{"type":"charge","layer":"passenger","locationId":"3a3b732c8fd0c38c5ce094bee6f61e3e","name":"Dudoklaan 70","address":"Dudoklaan 70","city":"Doetinchem","operatorName":"Vattenfall InCharge","maxPowerKw":11,"isMegawatt":false,"status":"AVAILABLE","source":"ndw"}},{"type":"Feature","geometry":{"type":"Point","coordinates":[6.210653,51.963233]},"properties":{"type":"charge","layer":"passenger","locationId":"c026e42d7f33e6c20f5a016e3cf530c0","name":"Jonkheer de Bellefroidweg 16","address":"Jonkheer de Bellefroidweg 16","city":"Wehl","operatorName":"Vattenfall InCharge","maxPowerKw":11,"isMegawatt":false,"status":"AVAILABLE","source":"ndw"}},{"type":"Feature","geometry":{"type":"Point","coordinates":[6.293811,51.962972]},"properties":{"type":"charge","layer":"passenger","locationId":"20e1fcb3-84b6-4a7e-978d-8ba3370990a5","name":"Plantenstraat 22","address":"Plantenstraat 22","city":"Doetinchem","operatorName":"Vattenfall InCharge","maxPowerKw":11,"isMegawatt":false,"status":"AVAILABLE","source":"ndw"}},{"type":"Feature","geometry":{"type":"Point","coordinates":[6.290079,51.968171]},"properties":{"type":"charge","layer":"passenger","locationId":"NLLOC008369","name":"NL, Hovenstraatje 25, 7001 DR Doetinchem","address":"Hovenstraatje 25","city":"Doetinchem","operatorName":"Allego","maxPowerKw":0,"isMegawatt":false,"status":"AVAILABLE","source":"ndw"}},{"type":"Feature","geometry":{"type":"Point","coordinates":[6.28872,51.958891]},"properties":{"type":"charge","layer":"passenger","locationId":"07b3ec0138ea66145647a6cb893f7beb","name":"Handelskade 178","address":"Handelskade 178","city":"Doetinchem","operatorName":"Vattenfall InCharge","maxPowerKw":11,"isMegawatt":false,"status":"AVAILABLE","source":"ndw"}},{"type":"Feature","geometry":{"type":"Point","coordinates":[6.204027,51.963324]},"properties":{"type":"charge","layer":"passenger","locationId":"e667bb48-1239-4268-869e-278a00392721","name":"Didamseweg","address":"Didamseweg 24","city":"Wehl","operatorName":"Vattenfall InCharge","maxPowerKw":11,"isMegawatt":false,"status":"UNAVAILABLE","source":"ndw"}},{"type":"Feature","geometry":{"type":"Point","coordinates":[6.265981,51.957541]},"properties":{"type":"charge","layer":"passenger","locationId":"89ea5139-8540-4b04-b807-f2da1e01c574","name":"Hof van Rome 56","address":"Hof van Rome 56","city":"Doetinchem","operatorName":"Vattenfall InCharge","maxPowerKw":11,"isMegawatt":false,"status":"AVAILABLE","source":"ndw"}},{"type":"Feature","geometry":{"type":"Point","coordinates":[6.291706,51.965202]},"properties":{"type":"charge","layer":"passenger","locationId":"c99d1227-c9eb-484d-ab6c-4f0b7c4ab8d4","name":"Nieuwstad 19","address":"Nieuwstad 19","city":"Doetinchem","operatorName":"Vattenfall InCharge","maxPowerKw":11,"isMegawatt":false,"status":"AVAILABLE","source":"ndw"}},{"type":"Feature","geometry":{"type":"Point","coordinates":[6.26035,51.954587]},"properties":{"type":"charge","layer":"passenger","locationId":"6ce29f2a-6a21-41ca-a36b-97fe4e83f30b","name":"Maas","address":"Maas 5","city":"Doetinchem","operatorName":"Vattenfall InCharge","maxPowerKw":11,"isMegawatt":false,"status":"AVAILABLE","source":"ndw"}},{"type":"Feature","geometry":{"type":"Point","coordinates":[6.303693,51.948206]},"properties":{"type":"charge","layer":"passenger","locationId":"a2716f4aad6f4634b37bf6be0e89903f","name":"Doetichem- ABCOM ","address":"Hogeweide 1","city":"Doetichem","operatorName":"OPCHARGE","maxPowerKw":22,"isMegawatt":false,"status":"AVAILABLE","source":"ndw"}},{"type":"Feature","geometry":{"type":"Point","coordinates":[6.277955,51.950719]},"properties":{"type":"charge","layer":"passenger","locationId":"11d03df2-88cc-11ec-a18d-42010a840003","name":"NL, Het Hennennest 1, 7007DR, Doetinchem","address":"Het Hennennest 1","city":"Doetinchem","operatorName":"Allego","maxPowerKw":0,"isMegawatt":false,"status":"AVAILABLE","source":"ndw"}},{"type":"Feature","geometry":{"type":"Point","coordinates":[6.256141,51.9583]},"properties":{"type":"charge","layer":"passenger","locationId":"654904877c16e9001cb21d24","name":"Roel Aaldering 's station","address":"Wehlseweg 36","city":"Doetinchem","operatorName":"E-Flux by Road","maxPowerKw":11,"isMegawatt":false,"status":"AVAILABLE","source":"ndw"}},{"type":"Feature","geometry":{"type":"Point","coordinates":[6.297,51.965795]},"properties":{"type":"charge","layer":"passenger","locationId":"15814664-ce3a-11eb-b9e6-42010a840003","name":"NL, Dr Huber Noodtstraat 82, 7001 DZ Doetinchem","address":"Dr Huber Noodtstraat 82","city":"Doetinchem","operatorName":"Allego","maxPowerKw":0,"isMegawatt":false,"status":"AVAILABLE","source":"ndw"}},{"type":"Feature","geometry":{"type":"Point","coordinates":[6.347446,51.939547]},"properties":{"type":"charge","layer":"passenger","locationId":"387e07a2-eb53-11eb-b86a-42010a840003","name":"NL, Monnikenstraat 21, 7011 CC Gaanderen","address":"Monnikenstraat 21","city":"Gaanderen","operatorName":"Allego","maxPowerKw":0,"isMegawatt":false,"status":"AVAILABLE","source":"ndw"}},{"type":"Feature","geometry":{"type":"Point","coordinates":[6.280548,51.969925]},"properties":{"type":"charge","layer":"passenger","locationId":"969a76b6-451f-11f0-99d4-42010aa400b8","name":"Lidl Doetinchem","address":"IJsselstraat","city":"Doetinchem","operatorName":"Lidl","maxPowerKw":11,"isMegawatt":false,"status":"UNAVAILABLE","source":"ndw"}},{"type":"Feature","geometry":{"type":"Point","coordinates":[6.342775,51.935454]},"properties":{"type":"charge","layer":"passenger","locationId":"f6745a30-dd79-450a-a8fd-f4df31ff07bf","name":"Pelgrimstraat","address":"Pelgrimstraat 59B","city":"Gaanderen","operatorName":"Vattenfall InCharge","maxPowerKw":11,"isMegawatt":false,"status":"AVAILABLE","source":"ndw"}},{"type":"Feature","geometry":{"type":"Point","coordinates":[6.295747,51.958829]},"properties":{"type":"charge","layer":"passenger","locationId":"NLLOC006188","name":"NL, Stationsstraat 50, 7005 AK, Doetinchem","address":"Stationsstraat 50","city":"Doetinchem","operatorName":"Allego","maxPowerKw":0,"isMegawatt":false,"status":"CHARGING","source":"ndw"}},{"type":"Feature","geometry":{"type":"Point","coordinates":[6.311438,51.972443]},"properties":{"type":"charge","layer":"passenger","locationId":"bb35140c7727097ee2572e9097733565","name":"Eduard Schilderinkstraat 116","address":"Eduard Schilderinkstraat 116","city":"Doetinchem","operatorName":"Vattenfall InCharge","maxPowerKw":11,"isMegawatt":false,"status":"AVAILABLE","source":"ndw"}},{"type":"Feature","geometry":{"type":"Point","coordinates":[6.298408,51.95403]},"properties":{"type":"charge","layer":"passenger","locationId":"60b9f9c177fb14687588680e","name":"Fabriekstraat 17c Doetinchem 7005AP","address":"Fabriekstraat 17c","city":"Doetinchem","operatorName":"E-Flux by Road","maxPowerKw":22,"isMegawatt":false,"status":"AVAILABLE","source":"ndw"}},{"type":"Feature","geometry":{"type":"Point","coordinates":[6.283388,51.962017]},"properties":{"type":"charge","layer":"passenger","locationId":"198238d1-8cff-448a-be13-1e272d5ee287","name":"De Enk","address":"De Enk 1","city":"Doetinchem","operatorName":"Vattenfall InCharge","maxPowerKw":11,"isMegawatt":false,"status":"AVAILABLE","source":"ndw"}},{"type":"Feature","geometry":{"type":"Point","coordinates":[6.287097,51.96111]},"properties":{"type":"charge","layer":"passenger","locationId":"3967847","name":"Laadnet Kuiper Foundation B.V.","address":"De Bottenmölle 9","city":"Doetinchem","operatorName":"Laadnet","maxPowerKw":22,"isMegawatt":false,"status":"AVAILABLE","source":"ndw"}},{"type":"Feature","geometry":{"type":"Point","coordinates":[6.277092,51.953814]},"properties":{"type":"charge","layer":"passenger","locationId":"08b70c170a4ac10e77eed910dc06543f","name":"Katjesbos","address":"Katjesbos","city":"Doetinchem","operatorName":"Vattenfall InCharge","maxPowerKw":11,"isMegawatt":false,"status":"AVAILABLE","source":"ndw"}},{"type":"Feature","geometry":{"type":"Point","coordinates":[6.247555,51.967507]},"properties":{"type":"charge","layer":"passenger","locationId":"d5c2658ebb819ab1e421ef505c21d249","name":"Boekweitdreef 147","address":"Boekweitdreef 147","city":"Doetinchem","operatorName":"Vattenfall InCharge","maxPowerKw":11,"isMegawatt":false,"status":"AVAILABLE","source":"ndw"}},{"type":"Feature","geometry":{"type":"Point","coordinates":[6.222795,51.948844]},"properties":{"type":"charge","layer":"passenger","locationId":"624d7df04f69d357a3b52400","name":"Esbro","address":"Argonstraat 2","city":"Wehl","operatorName":"E-Flux by Road","maxPowerKw":22,"isMegawatt":false,"status":"AVAILABLE","source":"ndw"}},{"type":"Feature","geometry":{"type":"Point","coordinates":[6.26712,51.95172]},"properties":{"type":"charge","layer":"passenger","locationId":"50e07b2cfb92061d21283c8103fd2ed3","name":"Harz 45","address":"Harz 45","city":"Doetinchem","operatorName":"Vattenfall InCharge","maxPowerKw":11,"isMegawatt":false,"status":"AVAILABLE","source":"ndw"}},{"type":"Feature","geometry":{"type":"Point","coordinates":[6.312107,51.951105]},"properties":{"type":"charge","layer":"passenger","locationId":"587d600beca159ea3e82fa5fb094b819","name":"Zonnebloemstraat 5","address":"Zonnebloemstraat 5","city":"Doetinchem","operatorName":"Vattenfall InCharge","maxPowerKw":11,"isMegawatt":false,"status":"AVAILABLE","source":"ndw"}},{"type":"Feature","geometry":{"type":"Point","coordinates":[6.263521,51.949886]},"properties":{"type":"charge","layer":"passenger","locationId":"NLLOC007608","name":"NL, Aragon 23, 7007 MX, Doetinchem","address":"Aragon 23","city":"Doetinchem","operatorName":"Allego","maxPowerKw":0,"isMegawatt":false,"status":"AVAILABLE","source":"ndw"}},{"type":"Feature","geometry":{"type":"Point","coordinates":[6.309299,51.966833]},"properties":{"type":"charge","layer":"passenger","locationId":"a2ca2f24-ecee-11ee-a6c4-42010aa400b8","name":"JOLT DOE00870","address":"Varsseveldseweg 186","city":"Doetinchem","operatorName":"JOLT Energy","maxPowerKw":300,"isMegawatt":false,"status":"AVAILABLE","source":"ndw"}},{"type":"Feature","geometry":{"type":"Point","coordinates":[6.303489,51.951788]},"properties":{"type":"charge","layer":"passenger","locationId":"6904cb35cd495f2c5985e294","name":"EVO chargeplan 's station Koopmanslaan","address":"Koopmanslaan \t29","city":"Doetinchem","operatorName":"E-Flux by Road","maxPowerKw":8,"isMegawatt":false,"status":"AVAILABLE","source":"ndw"}},{"type":"Feature","geometry":{"type":"Point","coordinates":[6.298687,51.976758]},"properties":{"type":"charge","layer":"passenger","locationId":"949830c8-129d-11ec-a268-42010a840003","name":"NL, Horstingstraat 12, 7009 KB Doetinchem","address":"Horstingstraat 12","city":"Doetinchem","operatorName":"Allego","maxPowerKw":0,"isMegawatt":false,"status":"AVAILABLE","source":"ndw"}},{"type":"Feature","geometry":{"type":"Point","coordinates":[6.316319,51.949276]},"properties":{"type":"charge","layer":"passenger","locationId":"0041220be27114d42c0f89d0fe607c23","name":"Tulpenstraat 138","address":"Tulpenstraat 138","city":"Doetinchem","operatorName":"Vattenfall InCharge","maxPowerKw":11,"isMegawatt":false,"status":"AVAILABLE","source":"ndw"}},{"type":"Feature","geometry":{"type":"Point","coordinates":[6.259854,51.953232]},"properties":{"type":"charge","layer":"passenger","locationId":"4af750f2-f00b-11eb-9d99-42010a840003","name":"NL, Ebro 20, 7007MB, Doetinchem","address":"Ebro 20","city":"Doetinchem","operatorName":"Allego","maxPowerKw":0,"isMegawatt":false,"status":"AVAILABLE","source":"ndw"}},{"type":"Feature","geometry":{"type":"Point","coordinates":[6.309377,51.951372]},"properties":{"type":"charge","layer":"passenger","locationId":"71c143b6-428e-11ec-91af-42010a840003","name":"NL, Zonneplein 32, 7004 EL Doetinchem","address":"Zonneplein 32","city":"Doetinchem","operatorName":"Allego","maxPowerKw":0,"isMegawatt":false,"status":"AVAILABLE","source":"ndw"}},{"type":"Feature","geometry":{"type":"Point","coordinates":[6.216462,51.963987]},"properties":{"type":"charge","layer":"passenger","locationId":"94a439ae-129d-11ec-89b6-42010a840003","name":"NL, Steenbakkersveld 62, 7031CZ, Wehl","address":"Steenbakkersveld 62","city":"Wehl","operatorName":"Allego","maxPowerKw":0,"isMegawatt":false,"status":"AVAILABLE","source":"ndw"}},{"type":"Feature","geometry":{"type":"Point","coordinates":[6.255782,51.963724]},"properties":{"type":"charge","layer":"passenger","locationId":"c5ae2a7a-59bf-11ea-b524-42010a840003","name":"NL, Onstein 57, 7006JR, Doetinchem","address":"Onstein 57","city":"Doetinchem","operatorName":"Allego","maxPowerKw":0,"isMegawatt":false,"status":"AVAILABLE","source":"ndw"}},{"type":"Feature","geometry":{"type":"Point","coordinates":[6.263521,51.949886]},"properties":{"type":"charge","layer":"passenger","locationId":"fada1632-493e-11ea-bd36-42010a840003","name":"NL, Aragon 23, 7007 MX, Doetinchem","address":"Aragon 23","city":"Doetinchem","operatorName":"Allego","maxPowerKw":0,"isMegawatt":false,"status":"AVAILABLE","source":"ndw"}},{"type":"Feature","geometry":{"type":"Point","coordinates":[6.280861,51.948003]},"properties":{"type":"charge","layer":"passenger","locationId":"595667","name":"Rexel Nederland Rexel Doetinchem","address":"Doetinchemseweg 63","city":"Doetinchem","operatorName":"Laadnet","maxPowerKw":22,"isMegawatt":false,"status":"AVAILABLE","source":"ndw"}},{"type":"Feature","geometry":{"type":"Point","coordinates":[6.309299,51.966833]},"properties":{"type":"charge","layer":"passenger","locationId":"6e72a378-ecff-4110-9cf5-57bb32d36e73","name":"JOLT DOE00870","address":"Varsseveldseweg 186","city":"Doetinchem","operatorName":"JOLT Energy","maxPowerKw":300,"isMegawatt":false,"status":"AVAILABLE","source":"ndw"}},{"type":"Feature","geometry":{"type":"Point","coordinates":[6.30926,51.96742]},"properties":{"type":"charge","layer":"passenger","locationId":"e52a559c-51c6-11ee-8b3c-42010aa40fc0","name":"Shell Recharge Varsseveldseweg 113","address":"Varsseveldseweg 113","city":"Doetinchem","operatorName":"Shell Recharge","maxPowerKw":150,"isMegawatt":false,"status":"AVAILABLE","source":"ndw"}},{"type":"Feature","geometry":{"type":"Point","coordinates":[6.315828,51.952538]},"properties":{"type":"charge","layer":"passenger","locationId":"NLLOC013835","name":"NL, Duikerstraat, 8, 7004LC, Doetinchem","address":"Duikerstraat 8","city":"Doetinchem","operatorName":"Allego","maxPowerKw":0,"isMegawatt":false,"status":"AVAILABLE","source":"ndw"}},{"type":"Feature","geometry":{"type":"Point","coordinates":[6.285877,51.966248]},"properties":{"type":"charge","layer":"passenger","locationId":"c00fc046-b0ee-43e7-acc8-5a7c1742a605","name":"Kapoeniestraat","address":"Kapoeniestraat 13","city":"Doetinchem","operatorName":"Vattenfall InCharge","maxPowerKw":11,"isMegawatt":false,"status":"AVAILABLE","source":"ndw"}},{"type":"Feature","geometry":{"type":"Point","coordinates":[6.29072,51.98429]},"properties":{"type":"charge","layer":"passenger","locationId":"611a82703a8a45e0e91a5057","name":"Evochargeplan Hotel de Kruisberg","address":"Kruisbergseweg 172","city":"Doetinchem","operatorName":"E-Flux by Road","maxPowerKw":22,"isMegawatt":false,"status":"AVAILABLE","source":"ndw"}},{"type":"Feature","geometry":{"type":"Point","coordinates":[6.34233,51.92833]},"properties":{"type":"charge","layer":"passenger","locationId":"NLLOC022237","name":"NL, Beitserijstraat 18, 7011VN, Gaanderen","address":"Beitserijstraat 18","city":"Gaanderen","operatorName":"Allego","maxPowerKw":0,"isMegawatt":false,"status":"AVAILABLE","source":"ndw"}},{"type":"Feature","geometry":{"type":"Point","coordinates":[6.31578,51.94965]},"properties":{"type":"charge","layer":"passenger","locationId":"1baeb71d76833e7457d80b8832e1ac4d","name":"Tulpenstraat 111","address":"Tulpenstraat 111","city":"Doetinchem","operatorName":"Vattenfall InCharge","maxPowerKw":11,"isMegawatt":false,"status":"AVAILABLE","source":"ndw"}},{"type":"Feature","geometry":{"type":"Point","coordinates":[6.304275,51.962661]},"properties":{"type":"charge","layer":"passenger","locationId":"dc07fa12-6e2d-11ea-a7ba-42010a840003","name":"NL, Van Hogendorplaan 30, 7003 CN, Doetinchem","address":"Van Hogendorplaan 30","city":"Doetinchem","operatorName":"Allego","maxPowerKw":0,"isMegawatt":false,"status":"AVAILABLE","source":"ndw"}},{"type":"Feature","geometry":{"type":"Point","coordinates":[6.266964,51.973228]},"properties":{"type":"charge","layer":"passenger","locationId":"651ed1b83b78a800208bda7b","name":"EVO chargeplan Evo Energie zaak","address":"Plakhorstweg 11","city":"Doetinchem","operatorName":"E-Flux by Road","maxPowerKw":11,"isMegawatt":false,"status":"AVAILABLE","source":"ndw"}},{"type":"Feature","geometry":{"type":"Point","coordinates":[6.256689,51.972269]},"properties":{"type":"charge","layer":"passenger","locationId":"923474","name":"P8_DAE_NL_2001218","address":"Voltastraat 64","city":"Doetinchem","operatorName":"DAEN Mobility","maxPowerKw":11,"isMegawatt":false,"status":"AVAILABLE","source":"ndw"}},{"type":"Feature","geometry":{"type":"Point","coordinates":[6.278239,51.952859]},"properties":{"type":"charge","layer":"passenger","locationId":"06754c53-bc4c-4efc-8209-4d6e00d9f943","name":"De Ketting","address":"De Ketting 105","city":"Doetinchem","operatorName":"Vattenfall InCharge","maxPowerKw":11,"isMegawatt":false,"status":"AVAILABLE","source":"ndw"}},{"type":"Feature","geometry":{"type":"Point","coordinates":[6.25669,51.95447]},"properties":{"type":"charge","layer":"passenger","locationId":"baf877f184cbae1c6f914381f906e3f7","name":"Donaudal 146","address":"Donaudal 146","city":"Doetinchem","operatorName":"Vattenfall InCharge","maxPowerKw":11,"isMegawatt":false,"status":"AVAILABLE","source":"ndw"}},{"type":"Feature","geometry":{"type":"Point","coordinates":[6.275917,51.94686]},"properties":{"type":"charge","layer":"passenger","locationId":"6989eca1bd1ea355a93edf52","name":"Laadpaal 1","address":"Innovatieweg 6","city":"Doetinchem","operatorName":"E-Flux by Road","maxPowerKw":22,"isMegawatt":false,"status":"AVAILABLE","source":"ndw"}},{"type":"Feature","geometry":{"type":"Point","coordinates":[6.256689,51.972269]},"properties":{"type":"charge","layer":"passenger","locationId":"923472","name":"P1_DAE_NL_2000862","address":"Voltastraat 64","city":"Doetinchem","operatorName":"DAEN Mobility","maxPowerKw":22,"isMegawatt":false,"status":"CHARGING","source":"ndw"}},{"type":"Feature","geometry":{"type":"Point","coordinates":[6.311855,51.951715]},"properties":{"type":"charge","layer":"passenger","locationId":"92c862ac-58f6-11ea-a9c9-42010a840003","name":"NL, Dennenweg 40, 7004 BT, Doetinchem","address":"Dennenweg 40","city":"Doetinchem","operatorName":"Allego","maxPowerKw":0,"isMegawatt":false,"status":"AVAILABLE","source":"ndw"}},{"type":"Feature","geometry":{"type":"Point","coordinates":[6.292381,51.967123]},"properties":{"type":"charge","layer":"passenger","locationId":"1483838","name":"Luc te Molder Olthuis bloemkunst","address":"Dr. Huber Noodtstraat 35-37","city":"Doetinchem","operatorName":"Laadnet","maxPowerKw":11,"isMegawatt":false,"status":"AVAILABLE","source":"ndw"}},{"type":"Feature","geometry":{"type":"Point","coordinates":[6.280548,51.969925]},"properties":{"type":"charge","layer":"passenger","locationId":"fe46b81b-fadd-46d6-8249-3a5bdfa20fd0","name":"Lidl Doetinchem","address":"IJsselstraat","city":"Doetinchem","operatorName":"Lidl","maxPowerKw":22,"isMegawatt":false,"status":"UNAVAILABLE","source":"ndw"}},{"type":"Feature","geometry":{"type":"Point","coordinates":[6.288175,51.958924]},"properties":{"type":"charge","layer":"passenger","locationId":"278cfa30-74dc-11ec-b9a9-42010a840003","name":"NL, Handelskade 162, 7005 AL Doetinchem","address":"Handelskade 162","city":"Doetinchem","operatorName":"Allego","maxPowerKw":0,"isMegawatt":false,"status":"UNAVAILABLE","source":"ndw"}},{"type":"Feature","geometry":{"type":"Point","coordinates":[6.300124,51.974649]},"properties":{"type":"charge","layer":"passenger","locationId":"6a49d71c-e791-11ec-b2f3-42010aa40fc0","name":"NL, Kreuzenstraat 16, 7009JR, Doetinchem","address":"Kreuzenstraat 16","city":"Doetinchem","operatorName":"Allego","maxPowerKw":0,"isMegawatt":false,"status":"UNAVAILABLE","source":"ndw"}},{"type":"Feature","geometry":{"type":"Point","coordinates":[6.315828,51.952538]},"properties":{"type":"charge","layer":"passenger","locationId":"03e16ec8-8ae3-11ec-998e-42010a840003","name":"NL, Duikerstraat, 8, 7004LC, Doetinchem","address":"Duikerstraat 8","city":"Doetinchem","operatorName":"Allego","maxPowerKw":0,"isMegawatt":false,"status":"AVAILABLE","source":"ndw"}},{"type":"Feature","geometry":{"type":"Point","coordinates":[6.26793,51.962748]},"properties":{"type":"charge","layer":"passenger","locationId":"bffe6ff4-82b3-11f0-8fc2-42010aa400b8","name":"NL, Boesmate 20, 7006 CV Doetinchem","address":"Boesmate 20","city":"Doetinchem","operatorName":"Allego","maxPowerKw":0,"isMegawatt":false,"status":"AVAILABLE","source":"ndw"}},{"type":"Feature","geometry":{"type":"Point","coordinates":[6.309377,51.951372]},"properties":{"type":"charge","layer":"passenger","locationId":"NLLOC014107","name":"NL, Zonneplein 32, 7004 EL Doetinchem","address":"Zonneplein 32","city":"Doetinchem","operatorName":"Allego","maxPowerKw":0,"isMegawatt":false,"status":"AVAILABLE","source":"ndw"}},{"type":"Feature","geometry":{"type":"Point","coordinates":[6.265291,51.955391]},"properties":{"type":"charge","layer":"passenger","locationId":"bc300358-07cb-11ed-b98f-42010aa40fc0","name":"NL, Hof van Wenen 62, 7007 JR Doetinchem","address":"Hof van Wenen 62","city":"Doetinchem","operatorName":"Allego","maxPowerKw":0,"isMegawatt":false,"status":"AVAILABLE","source":"ndw"}},{"type":"Feature","geometry":{"type":"Point","coordinates":[6.34233,51.92833]},"properties":{"type":"charge","layer":"passenger","locationId":"e6f1f008-cd27-11ec-889e-42010a840003","name":"NL, Beitserijstraat 18, 7011VN, Gaanderen","address":"Beitserijstraat 18","city":"Gaanderen","operatorName":"Allego","maxPowerKw":0,"isMegawatt":false,"status":"CHARGING","source":"ndw"}},{"type":"Feature","geometry":{"type":"Point","coordinates":[6.279475,51.954692]},"properties":{"type":"charge","layer":"passenger","locationId":"c2557430-80f9-11ea-a435-42010a840003","name":"NL, De Ketting 47, 7007 DA, Doetinchem","address":"De Ketting 47","city":"Doetinchem","operatorName":"Allego","maxPowerKw":0,"isMegawatt":false,"status":"AVAILABLE","source":"ndw"}},{"type":"Feature","geometry":{"type":"Point","coordinates":[6.266198,51.953215]},"properties":{"type":"charge","layer":"passenger","locationId":"c267e174-80f9-11ea-8649-42010a840003","name":"NL, Sicco Mansholtweg 25, 7007 LJ, Doetinchem","address":"Sicco Mansholtweg 25","city":"Doetinchem","operatorName":"Allego","maxPowerKw":0,"isMegawatt":false,"status":"CHARGING","source":"ndw"}},{"type":"Feature","geometry":{"type":"Point","coordinates":[6.28001,51.968588]},"properties":{"type":"charge","layer":"passenger","locationId":"384ada4a-0181-11ed-86e6-42010aa40fc0","name":"NL, Deccastraat 3, 7008CK, Doetinchem","address":"Deccastraat 3","city":"Doetinchem","operatorName":"Allego","maxPowerKw":0,"isMegawatt":false,"status":"AVAILABLE","source":"ndw"}},{"type":"Feature","geometry":{"type":"Point","coordinates":[6.277955,51.950719]},"properties":{"type":"charge","layer":"passenger","locationId":"NLLOC018514","name":"NL, Het Hennennest 1, 7007DR, Doetinchem","address":"Het Hennennest 1","city":"Doetinchem","operatorName":"Allego","maxPowerKw":0,"isMegawatt":false,"status":"AVAILABLE","source":"ndw"}},{"type":"Feature","geometry":{"type":"Point","coordinates":[6.30175,51.950137]},"properties":{"type":"charge","layer":"passenger","locationId":"633173e777bc49c02cbbb7db","name":"Kringloop Aktief","address":"Gildenstraat 43","city":"Doetinchem","operatorName":"E-Flux by Road","maxPowerKw":22,"isMegawatt":false,"status":"AVAILABLE","source":"ndw"}},{"type":"Feature","geometry":{"type":"Point","coordinates":[6.224064,51.947068]},"properties":{"type":"charge","layer":"passenger","locationId":"1491934","name":"Dirk HTm-groep","address":"Kryptonstraat 6","city":"Wehl","operatorName":"Laadnet","maxPowerKw":22,"isMegawatt":false,"status":"AVAILABLE","source":"ndw"}},{"type":"Feature","geometry":{"type":"Point","coordinates":[6.293698,51.961687]},"properties":{"type":"charge","layer":"passenger","locationId":"9592060e-8a19-11ec-859d-42010a840003","name":"NL, Prins Hendrikstraat 5, 7001GK Doetinchem","address":"Prins Hendrikstraat 5","city":"Doetinchem","operatorName":"Allego","maxPowerKw":0,"isMegawatt":false,"status":"AVAILABLE","source":"ndw"}},{"type":"Feature","geometry":{"type":"Point","coordinates":[6.259967,51.956297]},"properties":{"type":"charge","layer":"passenger","locationId":"46050194-2ac6-11eb-bb77-42010a840003","name":"NL, Bosstraat 51, 7007GR, Doetinchem","address":"Bosstraat 51","city":"Doetinchem","operatorName":"Allego","maxPowerKw":0,"isMegawatt":false,"status":"AVAILABLE","source":"ndw"}},{"type":"Feature","geometry":{"type":"Point","coordinates":[6.292406,51.964188]},"properties":{"type":"charge","layer":"passenger","locationId":"58cd7e48-c1e5-11ec-b738-42010a840003","name":"NL, Raadhuisstraat 10, 7001EW, Doetinchem","address":"Raadhuisstraat 10","city":"Doetinchem","operatorName":"Allego","maxPowerKw":0,"isMegawatt":false,"status":"AVAILABLE","source":"ndw"}},{"type":"Feature","geometry":{"type":"Point","coordinates":[6.297238,51.975045]},"properties":{"type":"charge","layer":"passenger","locationId":"92b21ac4-58f6-11ea-bee2-42010a840003","name":"NL, Van Bommelstraat 5, 7009 HZ, Doetinchem","address":"Van Bommelstraat 5","city":"Doetinchem","operatorName":"Allego","maxPowerKw":0,"isMegawatt":false,"status":"AVAILABLE","source":"ndw"}},{"type":"Feature","geometry":{"type":"Point","coordinates":[6.295747,51.958829]},"properties":{"type":"charge","layer":"passenger","locationId":"c272c29c-80f9-11ea-a454-42010a840003","name":"NL, Stationsstraat 50, 7005 AK, Doetinchem","address":"Stationsstraat 50","city":"Doetinchem","operatorName":"Allego","maxPowerKw":0,"isMegawatt":false,"status":"AVAILABLE","source":"ndw"}},{"type":"Feature","geometry":{"type":"Point","coordinates":[6.290079,51.968171]},"properties":{"type":"charge","layer":"passenger","locationId":"d975b740-0894-11ed-a002-42010aa40fc0","name":"NL, Hovenstraatje 25, 7001 DR Doetinchem","address":"Hovenstraatje 25","city":"Doetinchem","operatorName":"Allego","maxPowerKw":0,"isMegawatt":false,"status":"AVAILABLE","source":"ndw"}},{"type":"Feature","geometry":{"type":"Point","coordinates":[6.29303,51.974886]},"properties":{"type":"charge","layer":"passenger","locationId":"57c99b4edc6674e170f872fc114af796","name":"Surinamestraat 6","address":"Surinamestraat 6","city":"Doetinchem","operatorName":"Vattenfall InCharge","maxPowerKw":11,"isMegawatt":false,"status":"AVAILABLE","source":"ndw"}},{"type":"Feature","geometry":{"type":"Point","coordinates":[6.27927,51.946774]},"properties":{"type":"charge","layer":"passenger","locationId":"681c5bfcd1b459e5f987f829","name":"Laadpaal Doetinchem 2","address":"Informaticaweg  3","city":"Doetinchem","operatorName":"E-Flux by Road","maxPowerKw":22,"isMegawatt":false,"status":"AVAILABLE","source":"ndw"}},{"type":"Feature","geometry":{"type":"Point","coordinates":[6.294147,51.967595]},"properties":{"type":"charge","layer":"passenger","locationId":"4820395c-d589-11ec-8983-42010a840003","name":"NL, Amphionstraat 3, 7001 DP Doetinchem","address":"Amphionstraat 3","city":"Doetinchem","operatorName":"Allego","maxPowerKw":0,"isMegawatt":false,"status":"AVAILABLE","source":"ndw"}},{"type":"Feature","geometry":{"type":"Point","coordinates":[6.275917,51.94686]},"properties":{"type":"charge","layer":"passenger","locationId":"6989ef31f04032fb6f47a757","name":"Laadpaal 2","address":"Innovatieweg 6","city":"Doetinchem","operatorName":"E-Flux by Road","maxPowerKw":12,"isMegawatt":false,"status":"AVAILABLE","source":"ndw"}},{"type":"Feature","geometry":{"type":"Point","coordinates":[6.216462,51.963987]},"properties":{"type":"charge","layer":"passenger","locationId":"NLLOC018795","name":"NL, Steenbakkersveld 62, 7031CZ, Wehl","address":"Steenbakkersveld 62","city":"Wehl","operatorName":"Allego","maxPowerKw":0,"isMegawatt":false,"status":"AVAILABLE","source":"ndw"}},{"type":"Feature","geometry":{"type":"Point","coordinates":[6.290766,51.961758]},"properties":{"type":"charge","layer":"passenger","locationId":"674480bb0d3375756d4f8577","name":"Wim Eijmers Spinbaan","address":"Spinbaan 15","city":"Doetinchem","operatorName":"E-Flux by Road","maxPowerKw":22,"isMegawatt":false,"status":"AVAILABLE","source":"ndw"}},{"type":"Feature","geometry":{"type":"Point","coordinates":[6.303287,51.950603]},"properties":{"type":"charge","layer":"passenger","locationId":"65d5b5e5bb002e001c5f9154","name":"Kantoor Comfoor","address":"Vlijtstraat 60-01","city":"Doetinchem","operatorName":"E-Flux by Road","maxPowerKw":22,"isMegawatt":false,"status":"AVAILABLE","source":"ndw"}},{"type":"Feature","geometry":{"type":"Point","coordinates":[6.173168,51.968151]},"properties":{"type":"charge","layer":"passenger","locationId":"7313a0ff-0e53-421f-83e8-f0147cd76846","name":"Nieuwe Kerkweg","address":"Nieuwe Kerkweg 32","city":"Wehl","operatorName":"Vattenfall InCharge","maxPowerKw":11,"isMegawatt":false,"status":"AVAILABLE","source":"ndw"}},{"type":"Feature","geometry":{"type":"Point","coordinates":[6.255658,51.960336]},"properties":{"type":"charge","layer":"passenger","locationId":"8d99628b-1cae-4037-ab2e-c90b2b6a9bce","name":"Appelbloesem","address":"Appelbloesem 11 X01","city":"Doetinchem","operatorName":"Vattenfall InCharge","maxPowerKw":11,"isMegawatt":false,"status":"AVAILABLE","source":"ndw"}},{"type":"Feature","geometry":{"type":"Point","coordinates":[6.297426,51.980069]},"properties":{"type":"charge","layer":"passenger","locationId":"c4d66ef993f5cc6c3eef7624a631f959","name":"Markhorst 61","address":"Markhorst 61","city":"Doetinchem","operatorName":"Vattenfall InCharge","maxPowerKw":11,"isMegawatt":false,"status":"AVAILABLE","source":"ndw"}},{"type":"Feature","geometry":{"type":"Point","coordinates":[6.355372,51.925907]},"properties":{"type":"charge","layer":"passenger","locationId":"6bc15fd4-1502-49e8-b0b9-7fbd071a886a","name":"Rijksweg","address":"Rijksweg 252","city":"Gaanderen","operatorName":"Vattenfall InCharge","maxPowerKw":11,"isMegawatt":false,"status":"AVAILABLE","source":"ndw"}},{"type":"Feature","geometry":{"type":"Point","coordinates":[6.250104,51.967992]},"properties":{"type":"charge","layer":"passenger","locationId":"da4fab00d4e7a4cb242ba998b5b34988","name":"Boekweitdreef  91","address":"Boekweitdreef  91","city":"Doetinchem","operatorName":"Vattenfall InCharge","maxPowerKw":11,"isMegawatt":false,"status":"AVAILABLE","source":"ndw"}},{"type":"Feature","geometry":{"type":"Point","coordinates":[6.356513,51.923395]},"properties":{"type":"charge","layer":"passenger","locationId":"60c21f5af0db992d51617f9c","name":"Antonia","address":"Industrieweg 115","city":"Terborg","operatorName":"E-Flux by Road","maxPowerKw":22,"isMegawatt":false,"status":"AVAILABLE","source":"ndw"}},{"type":"Feature","geometry":{"type":"Point","coordinates":[6.268046,51.974286]},"properties":{"type":"charge","layer":"passenger","locationId":"67c9ad1724339140179d7bc2","name":"Fluit Tweewielers 's Laadstations","address":"Plakhorstweg 12","city":"Doetinchem","operatorName":"E-Flux by Road","maxPowerKw":11,"isMegawatt":false,"status":"AVAILABLE","source":"ndw"}},{"type":"Feature","geometry":{"type":"Point","coordinates":[6.272069,51.963512]},"properties":{"type":"charge","layer":"passenger","locationId":"7873ff84bd079f2d0e4d5f3943aa3a1c","name":"Sportweg 1","address":"Sportweg 1","city":"Doetinchem","operatorName":"Vattenfall InCharge","maxPowerKw":11,"isMegawatt":false,"status":"AVAILABLE","source":"ndw"}},{"type":"Feature","geometry":{"type":"Point","coordinates":[6.256689,51.972269]},"properties":{"type":"charge","layer":"passenger","locationId":"923449","name":"DAE-NL-2000015_P11","address":"Voltastraat 64","city":"Doetinchem","operatorName":"DAEN Mobility","maxPowerKw":22,"isMegawatt":false,"status":"AVAILABLE","source":"ndw"}},{"type":"Feature","geometry":{"type":"Point","coordinates":[6.277239,51.95031]},"properties":{"type":"charge","layer":"passenger","locationId":"127de011-c704-4126-abb1-19a2134caea8","name":"Roggenstede","address":"Roggenstede 12","city":"Doetinchem","operatorName":"Vattenfall InCharge","maxPowerKw":11,"isMegawatt":false,"status":"AVAILABLE","source":"ndw"}},{"type":"Feature","geometry":{"type":"Point","coordinates":[6.302068,51.965054]},"properties":{"type":"charge","layer":"passenger","locationId":"679a3f0d4218581f482a3dd2","name":"SBO SAM Locatie van Limburg Stirumlaan","address":"van Limburg Stirumlaan 5","city":"Doetinchem","operatorName":"Pluq","maxPowerKw":11,"isMegawatt":false,"status":"CHARGING","source":"ndw"}},{"type":"Feature","geometry":{"type":"Point","coordinates":[6.29583,51.967146]},"properties":{"type":"charge","layer":"passenger","locationId":"a508cc26aeceee62aed70dcd1806d573","name":"Dokter Bardetplaats 10","address":"Dokter Bardetplaats 10","city":"Doetinchem","operatorName":"Vattenfall InCharge","maxPowerKw":11,"isMegawatt":false,"status":"AVAILABLE","source":"ndw"}},{"type":"Feature","geometry":{"type":"Point","coordinates":[6.27927,51.946774]},"properties":{"type":"charge","layer":"passenger","locationId":"681c5b2a42adeb1d1aa2f5f3","name":"Laadpaal Doetinchem 1","address":"Informaticaweg 3","city":"Doetinchem","operatorName":"E-Flux by Road","maxPowerKw":22,"isMegawatt":false,"status":"CHARGING","source":"ndw"}},{"type":"Feature","geometry":{"type":"Point","coordinates":[6.26147,51.970837]},"properties":{"type":"charge","layer":"passenger","locationId":"66e011d33dfdfd001c0bf8ae","name":"Bjorn Ars 's station","address":"Voltastraat 20d","city":"Doetinchem","operatorName":"E-Flux by Road","maxPowerKw":11,"isMegawatt":false,"status":"AVAILABLE","source":"ndw"}},{"type":"Feature","geometry":{"type":"Point","coordinates":[6.295807,51.957449]},"properties":{"type":"charge","layer":"passenger","locationId":"e7920dec-63e5-41a8-8caa-6a63cad7bac4","name":"Hamburgerbroeklaan","address":"Hamburgerbroeklaan 14","city":"Doetinchem","operatorName":"Vattenfall InCharge","maxPowerKw":11,"isMegawatt":false,"status":"AVAILABLE","source":"ndw"}},{"type":"Feature","geometry":{"type":"Point","coordinates":[6.293985,51.958911]},"properties":{"type":"charge","layer":"passenger","locationId":"d682294100edd872da1944ab1147f436","name":"Stationsstraat 50","address":"Stationsstraat 50","city":"Doetinchem","operatorName":"Vattenfall InCharge","maxPowerKw":11,"isMegawatt":false,"status":"CHARGING","source":"ndw"}},{"type":"Feature","geometry":{"type":"Point","coordinates":[6.28001,51.968588]},"properties":{"type":"charge","layer":"passenger","locationId":"NLLOC025654","name":"NL, Deccastraat 3, 7008CK, Doetinchem","address":"Deccastraat 3","city":"Doetinchem","operatorName":"Allego","maxPowerKw":0,"isMegawatt":false,"status":"AVAILABLE","source":"ndw"}},{"type":"Feature","geometry":{"type":"Point","coordinates":[6.257037,51.956571]},"properties":{"type":"charge","layer":"passenger","locationId":"66333543b51d65001ce8fe14","name":"Marnedal 9","address":"Marnedal 9","city":"Doetinchem","operatorName":"E-Flux by Road","maxPowerKw":14,"isMegawatt":false,"status":"AVAILABLE","source":"ndw"}},{"type":"Feature","geometry":{"type":"Point","coordinates":[6.279475,51.954692]},"properties":{"type":"charge","layer":"passenger","locationId":"NLLOC006648","name":"NL, De Ketting 47, 7007 DA, Doetinchem","address":"De Ketting 47","city":"Doetinchem","operatorName":"Allego","maxPowerKw":0,"isMegawatt":false,"status":"AVAILABLE","source":"ndw"}},{"type":"Feature","geometry":{"type":"Point","coordinates":[6.304722,51.963888]},"properties":{"type":"charge","layer":"passenger","locationId":"a87d7d5eb821c9d0621e37fd2de8da7f","name":"Van Limburg Stirumlaan 16","address":"Van Limburg Stirumlaan 16","city":"Doetinchem","operatorName":"Vattenfall InCharge","maxPowerKw":11,"isMegawatt":false,"status":"AVAILABLE","source":"ndw"}},{"type":"Feature","geometry":{"type":"Point","coordinates":[6.344238,51.95738]},"properties":{"type":"charge","layer":"passenger","locationId":"3c728e2f963a3814d7646f445002f72e","name":"Nutselaer","address":"Nutselaer 2A","city":"Doetinchem","operatorName":"Vattenfall InCharge","maxPowerKw":11,"isMegawatt":false,"status":"AVAILABLE","source":"ndw"}},{"type":"Feature","geometry":{"type":"Point","coordinates":[6.266197,51.951301]},"properties":{"type":"charge","layer":"passenger","locationId":"673383e0a7503e0efb5904d6","name":"Don’s station","address":"Jura 15","city":"Doetinchem","operatorName":"E-Flux by Road","maxPowerKw":22,"isMegawatt":false,"status":"CHARGING","source":"ndw"}},{"type":"Feature","geometry":{"type":"Point","coordinates":[6.256689,51.972269]},"properties":{"type":"charge","layer":"passenger","locationId":"923466","name":"P4_DAE_NL_2000865","address":"Voltastraat 64","city":"Doetinchem","operatorName":"DAEN Mobility","maxPowerKw":22,"isMegawatt":false,"status":"AVAILABLE","source":"ndw"}},{"type":"Feature","geometry":{"type":"Point","coordinates":[6.29796,51.9746]},"properties":{"type":"charge","layer":"passenger","locationId":"84bb5367e27c91032cbff21a24d9d54b","name":"Volbedastraat 13","address":"Volbedastraat 13","city":"Doetinchem","operatorName":"Vattenfall InCharge","maxPowerKw":11,"isMegawatt":false,"status":"AVAILABLE","source":"ndw"}},{"type":"Feature","geometry":{"type":"Point","coordinates":[6.252691,51.960803]},"properties":{"type":"charge","layer":"passenger","locationId":"b5dfc82261a048f029f63b74da5961e9","name":"Kersebloesem 22","address":"Kersebloesem 22","city":"Doetinchem","operatorName":"Vattenfall InCharge","maxPowerKw":11,"isMegawatt":false,"status":"AVAILABLE","source":"ndw"}},{"type":"Feature","geometry":{"type":"Point","coordinates":[6.293698,51.961687]},"properties":{"type":"charge","layer":"passenger","locationId":"NLLOC020321","name":"NL, Prins Hendrikstraat 5, 7001GK Doetinchem","address":"Prins Hendrikstraat 5","city":"Doetinchem","operatorName":"Allego","maxPowerKw":0,"isMegawatt":false,"status":"AVAILABLE","source":"ndw"}},{"type":"Feature","geometry":{"type":"Point","coordinates":[6.314976,51.973151]},"properties":{"type":"charge","layer":"passenger","locationId":"9d353350-e1a1-4212-947c-9481c87547e3","name":"Houtsmastraat","address":"Houtsmastraat 136","city":"Doetinchem","operatorName":"Vattenfall InCharge","maxPowerKw":11,"isMegawatt":false,"status":"AVAILABLE","source":"ndw"}},{"type":"Feature","geometry":{"type":"Point","coordinates":[6.302093,51.969989]},"properties":{"type":"charge","layer":"passenger","locationId":"a99589f1-7dc6-48a0-954e-df427de6b608","name":"Vondelstraat","address":"Vondelstraat 34","city":"Doetinchem","operatorName":"Vattenfall InCharge","maxPowerKw":11,"isMegawatt":false,"status":"AVAILABLE","source":"ndw"}},{"type":"Feature","geometry":{"type":"Point","coordinates":[6.264362,51.965946]},"properties":{"type":"charge","layer":"passenger","locationId":"3804696","name":"Laadnet DuVivier Holding BV","address":"Hanzestraat 2","city":"Doetinchem","operatorName":"Laadnet","maxPowerKw":22,"isMegawatt":false,"status":"AVAILABLE","source":"ndw"}},{"type":"Feature","geometry":{"type":"Point","coordinates":[6.275306,51.944906]},"properties":{"type":"charge","layer":"passenger","locationId":"651e8987a832d80020ed78a1","name":"Jansen-Hubers","address":"Innovatieweg 7","city":"Doetinchem","operatorName":"E-Flux by Road","maxPowerKw":22,"isMegawatt":false,"status":"AVAILABLE","source":"ndw"}},{"type":"Feature","geometry":{"type":"Point","coordinates":[6.205205,51.957428]},"properties":{"type":"charge","layer":"passenger","locationId":"3a7724099fdc26f32545160d1d1bce19","name":"Van Barneveldlaan 6","address":"Van Barneveldlaan 6","city":"Wehl","operatorName":"Vattenfall InCharge","maxPowerKw":11,"isMegawatt":false,"status":"AVAILABLE","source":"ndw"}},{"type":"Feature","geometry":{"type":"Point","coordinates":[6.26793,51.962748]},"properties":{"type":"charge","layer":"passenger","locationId":"NLLOC008772","name":"NL, Boesmate 20, 7006 CV Doetinchem","address":"Boesmate 20","city":"Doetinchem","operatorName":"Allego","maxPowerKw":0,"isMegawatt":false,"status":"AVAILABLE","source":"ndw"}},{"type":"Feature","geometry":{"type":"Point","coordinates":[6.272876,51.96222]},"properties":{"type":"charge","layer":"passenger","locationId":"0e500c8a-ae10-4fa2-974e-f98541021b14","name":"Sportweg 3","address":"Sportweg 3","city":"Doetinchem","operatorName":"Vattenfall InCharge","maxPowerKw":11,"isMegawatt":false,"status":"AVAILABLE","source":"ndw"}},{"type":"Feature","geometry":{"type":"Point","coordinates":[6.292406,51.964188]},"properties":{"type":"charge","layer":"passenger","locationId":"NLLOC016938","name":"NL, Raadhuisstraat 10, 7001EW, Doetinchem","address":"Raadhuisstraat 10","city":"Doetinchem","operatorName":"Allego","maxPowerKw":0,"isMegawatt":false,"status":"AVAILABLE","source":"ndw"}},{"type":"Feature","geometry":{"type":"Point","coordinates":[6.256689,51.972269]},"properties":{"type":"charge","layer":"passenger","locationId":"923450","name":"P2_DAE_NL_2000863","address":"Voltastraat 64","city":"Doetinchem","operatorName":"DAEN Mobility","maxPowerKw":22,"isMegawatt":false,"status":"AVAILABLE","source":"ndw"}},{"type":"Feature","geometry":{"type":"Point","coordinates":[6.2738,51.96881]},"properties":{"type":"charge","layer":"passenger","locationId":"bc92ef813f00002952477864d86658ce","name":"Brasem 34","address":"Brasem 34","city":"Doetinchem","operatorName":"Vattenfall InCharge","maxPowerKw":11,"isMegawatt":false,"status":"CHARGING","source":"ndw"}},{"type":"Feature","geometry":{"type":"Point","coordinates":[6.297238,51.975045]},"properties":{"type":"charge","layer":"passenger","locationId":"NLLOC007337","name":"NL, Van Bommelstraat 5, 7009 HZ, Doetinchem","address":"Van Bommelstraat 5","city":"Doetinchem","operatorName":"Allego","maxPowerKw":0,"isMegawatt":false,"status":"AVAILABLE","source":"ndw"}},{"type":"Feature","geometry":{"type":"Point","coordinates":[6.302886,51.967454]},"properties":{"type":"charge","layer":"passenger","locationId":"d5c2a364-f79c-40aa-98a4-eca531e46da9","name":"Bachlaan","address":"Bachlaan 20","city":"Doetinchem","operatorName":"Vattenfall InCharge","maxPowerKw":11,"isMegawatt":false,"status":"CHARGING","source":"ndw"}},{"type":"Feature","geometry":{"type":"Point","coordinates":[6.311855,51.951715]},"properties":{"type":"charge","layer":"passenger","locationId":"NLLOC007278","name":"NL, Dennenweg 40, 7004 BT, Doetinchem","address":"Dennenweg 40","city":"Doetinchem","operatorName":"Allego","maxPowerKw":0,"isMegawatt":false,"status":"AVAILABLE","source":"ndw"}},{"type":"Feature","geometry":{"type":"Point","coordinates":[6.288181,51.960626]},"properties":{"type":"charge","layer":"passenger","locationId":"1262e1a0ac5460fa82caedab42041cb3","name":"Het Eiland 43","address":"Het Eiland 43","city":"Doetinchem","operatorName":"Vattenfall InCharge","maxPowerKw":11,"isMegawatt":false,"status":"CHARGING","source":"ndw"}},{"type":"Feature","geometry":{"type":"Point","coordinates":[6.284459,51.952308]},"properties":{"type":"charge","layer":"passenger","locationId":"d98cb1b134f0538467312125948b15a2","name":"Stadskwekerij 33","address":"Stadskwekerij 33","city":"Doetinchem","operatorName":"Vattenfall InCharge","maxPowerKw":11,"isMegawatt":false,"status":"AVAILABLE","source":"ndw"}},{"type":"Feature","geometry":{"type":"Point","coordinates":[6.316778,51.975315]},"properties":{"type":"charge","layer":"passenger","locationId":"c9a83536396313cc2e9235d231eb3499","name":"Karel Doormanstraat 15","address":"Karel Doormanstraat 15","city":"Doetinchem","operatorName":"Vattenfall InCharge","maxPowerKw":11,"isMegawatt":false,"status":"AVAILABLE","source":"ndw"}},{"type":"Feature","geometry":{"type":"Point","coordinates":[6.30175,51.950137]},"properties":{"type":"charge","layer":"passenger","locationId":"63317324a91c07661cf2ca10","name":"Kringloop Aktief","address":"Gildenstraat 43","city":"Doetinchem","operatorName":"E-Flux by Road","maxPowerKw":22,"isMegawatt":false,"status":"AVAILABLE","source":"ndw"}},{"type":"Feature","geometry":{"type":"Point","coordinates":[6.265291,51.955391]},"properties":{"type":"charge","layer":"passenger","locationId":"NLLOC024637","name":"NL, Hof van Wenen 62, 7007 JR Doetinchem","address":"Hof van Wenen 62","city":"Doetinchem","operatorName":"Allego","maxPowerKw":0,"isMegawatt":false,"status":"AVAILABLE","source":"ndw"}},{"type":"Feature","geometry":{"type":"Point","coordinates":[6.27033,51.96035]},"properties":{"type":"charge","layer":"passenger","locationId":"eff1ceb78957aea14c984b9e72e10372","name":"Wolborgenmate 108","address":"Wolborgenmate 108","city":"Doetinchem","operatorName":"Vattenfall InCharge","maxPowerKw":11,"isMegawatt":false,"status":"AVAILABLE","source":"ndw"}},{"type":"Feature","geometry":{"type":"Point","coordinates":[6.300124,51.974649]},"properties":{"type":"charge","layer":"passenger","locationId":"NLLOC023970","name":"NL, Kreuzenstraat 16, 7009JR, Doetinchem","address":"Kreuzenstraat 16","city":"Doetinchem","operatorName":"Allego","maxPowerKw":0,"isMegawatt":false,"status":"UNAVAILABLE","source":"ndw"}},{"type":"Feature","geometry":{"type":"Point","coordinates":[6.21737,51.95664]},"properties":{"type":"charge","layer":"passenger","locationId":"0483b3d4eba3e14fdd621bfb1b5e59b1","name":"Doetinchemseweg 7/D","address":"Doetinchemseweg 7/D","city":"Wehl","operatorName":"Vattenfall InCharge","maxPowerKw":11,"isMegawatt":false,"status":"AVAILABLE","source":"ndw"}},{"type":"Feature","geometry":{"type":"Point","coordinates":[6.304275,51.962661]},"properties":{"type":"charge","layer":"passenger","locationId":"NLLOC006931","name":"NL, Van Hogendorplaan 30, 7003 CN, Doetinchem","address":"Van Hogendorplaan 30","city":"Doetinchem","operatorName":"Allego","maxPowerKw":0,"isMegawatt":false,"status":"AVAILABLE","source":"ndw"}},{"type":"Feature","geometry":{"type":"Point","coordinates":[6.281095,51.949754]},"properties":{"type":"charge","layer":"passenger","locationId":"46001ae2-7fc9-432f-8400-cea441dd6c3e","name":"Panoven","address":"Panoven 8","city":"Doetinchem","operatorName":"Vattenfall InCharge","maxPowerKw":11,"isMegawatt":false,"status":"AVAILABLE","source":"ndw"}},{"type":"Feature","geometry":{"type":"Point","coordinates":[6.351258,51.929849]},"properties":{"type":"charge","layer":"passenger","locationId":"91e53565afe4ee8eea4dc58a04b5cc87","name":"Ribesstraat 39","address":"Ribesstraat 39","city":"Gaanderen","operatorName":"Vattenfall InCharge","maxPowerKw":11,"isMegawatt":false,"status":"AVAILABLE","source":"ndw"}},{"type":"Feature","geometry":{"type":"Point","coordinates":[6.255284,51.967257]},"properties":{"type":"charge","layer":"passenger","locationId":"395c44608653c618331d8aa5b6caac36","name":"Gaffeldreef 16","address":"Gaffeldreef 16","city":"Doetinchem","operatorName":"Vattenfall InCharge","maxPowerKw":11,"isMegawatt":false,"status":"AVAILABLE","source":"ndw"}},{"type":"Feature","geometry":{"type":"Point","coordinates":[6.359139,51.973556]},"properties":{"type":"charge","layer":"passenger","locationId":"47971902-8656-4d6f-aaf3-90ef18fe1744","name":"Loordijk 19","address":"Loordijk 19","city":"Doetinchem","operatorName":"Vattenfall InCharge","maxPowerKw":11,"isMegawatt":false,"status":"AVAILABLE","source":"ndw"}},{"type":"Feature","geometry":{"type":"Point","coordinates":[6.262502,51.956535]},"properties":{"type":"charge","layer":"passenger","locationId":"a151758493bc37cf82e370972044098d","name":"Hof van Parijs 107","address":"Hof van Parijs 107","city":"Doetinchem","operatorName":"Vattenfall InCharge","maxPowerKw":11,"isMegawatt":false,"status":"AVAILABLE","source":"ndw"}},{"type":"Feature","geometry":{"type":"Point","coordinates":[6.28206,51.948213]},"properties":{"type":"charge","layer":"passenger","locationId":"08a05391-5496-453f-9331-6e4e68bbdf86","name":"De Lender 53","address":"De Lender 53","city":"Doetinchem","operatorName":"Vattenfall InCharge","maxPowerKw":11,"isMegawatt":false,"status":"AVAILABLE","source":"ndw"}},{"type":"Feature","geometry":{"type":"Point","coordinates":[6.288787,51.963311]},"properties":{"type":"charge","layer":"passenger","locationId":"18a91b08-7f26-40e5-b9c0-b8f02a0eb4e0","name":"IJsselkade ","address":"IJsselkade  30","city":"Doetinchem","operatorName":"Vattenfall InCharge","maxPowerKw":11,"isMegawatt":false,"status":"AVAILABLE","source":"ndw"}},{"type":"Feature","geometry":{"type":"Point","coordinates":[6.255782,51.963724]},"properties":{"type":"charge","layer":"passenger","locationId":"NLLOC007357","name":"NL, Onstein 57, 7006JR, Doetinchem","address":"Onstein 57","city":"Doetinchem","operatorName":"Allego","maxPowerKw":0,"isMegawatt":false,"status":"AVAILABLE","source":"ndw"}},{"type":"Feature","geometry":{"type":"Point","coordinates":[6.26867,51.95121]},"properties":{"type":"charge","layer":"passenger","locationId":"3ef02e443f35ecbe5faa7f85e5eff532","name":"Konrad Adenauerplein 4","address":"Konrad Adenauerplein 4","city":"Doetinchem","operatorName":"Vattenfall InCharge","maxPowerKw":11,"isMegawatt":false,"status":"AVAILABLE","source":"ndw"}},{"type":"Feature","geometry":{"type":"Point","coordinates":[6.288187,51.964814]},"properties":{"type":"charge","layer":"passenger","locationId":"66e17fff41cc1b001c786f97","name":"Stadshotel De Graafschap","address":"Simonsplein 12","city":"Doetinchem","operatorName":"Pluq","maxPowerKw":11,"isMegawatt":false,"status":"AVAILABLE","source":"ndw"}},{"type":"Feature","geometry":{"type":"Point","coordinates":[6.259967,51.956297]},"properties":{"type":"charge","layer":"passenger","locationId":"NLLOC010813","name":"NL, Bosstraat 51, 7007GR, Doetinchem","address":"Bosstraat 51","city":"Doetinchem","operatorName":"Allego","maxPowerKw":0,"isMegawatt":false,"status":"AVAILABLE","source":"ndw"}},{"type":"Feature","geometry":{"type":"Point","coordinates":[6.29673,51.97771]},"properties":{"type":"charge","layer":"passenger","locationId":"3395c3a8dc92ca79401bb94469e79fe5","name":"Bunderhorst 104","address":"Bunderhorst 104","city":"Doetinchem","operatorName":"Vattenfall InCharge","maxPowerKw":11,"isMegawatt":false,"status":"AVAILABLE","source":"ndw"}},{"type":"Feature","geometry":{"type":"Point","coordinates":[6.256689,51.972269]},"properties":{"type":"charge","layer":"passenger","locationId":"923451","name":"P3_DAE_NL_2000864","address":"Voltastraat 64","city":"Doetinchem","operatorName":"DAEN Mobility","maxPowerKw":22,"isMegawatt":false,"status":"CHARGING","source":"ndw"}},{"type":"Feature","geometry":{"type":"Point","coordinates":[6.256636,51.971244]},"properties":{"type":"charge","layer":"passenger","locationId":"923454","name":"P6_DAE_NL_2001216","address":"Voltastraat 25","city":"Doetinchem","operatorName":"DAEN Mobility","maxPowerKw":11,"isMegawatt":false,"status":"AVAILABLE","source":"ndw"}},{"type":"Feature","geometry":{"type":"Point","coordinates":[6.298687,51.976758]},"properties":{"type":"charge","layer":"passenger","locationId":"NLLOC014044","name":"NL, Horstingstraat 12, 7009 KB Doetinchem","address":"Horstingstraat 12","city":"Doetinchem","operatorName":"Allego","maxPowerKw":0,"isMegawatt":false,"status":"AVAILABLE","source":"ndw"}},{"type":"Feature","geometry":{"type":"Point","coordinates":[6.288175,51.958924]},"properties":{"type":"charge","layer":"passenger","locationId":"NLLOC019047","name":"NL, Handelskade 162, 7005 AL Doetinchem","address":"Handelskade 162","city":"Doetinchem","operatorName":"Allego","maxPowerKw":0,"isMegawatt":false,"status":"AVAILABLE","source":"ndw"}},{"type":"Feature","geometry":{"type":"Point","coordinates":[6.267766,51.97565]},"properties":{"type":"charge","layer":"passenger","locationId":"68e4c6551851028f0ac54ca0","name":"Bert Wiltink 's station","address":"Padvindsterslaan 5","city":"Doetinchem","operatorName":"E-Flux by Road","maxPowerKw":22,"isMegawatt":false,"status":"AVAILABLE","source":"ndw"}},{"type":"Feature","geometry":{"type":"Point","coordinates":[6.304871,51.967272]},"properties":{"type":"charge","layer":"passenger","locationId":"4c5b6e03-3f1b-4a71-b1be-37161d9e7faf","name":"Sweelincklaan","address":"Sweelincklaan 1","city":"Doetinchem","operatorName":"Vattenfall InCharge","maxPowerKw":11,"isMegawatt":false,"status":"AVAILABLE","source":"ndw"}},{"type":"Feature","geometry":{"type":"Point","coordinates":[6.307267,51.953644]},"properties":{"type":"charge","layer":"passenger","locationId":"20d9922e9828b4132a8a4588cec49419","name":"Acacialaan 75","address":"Acacialaan 75","city":"Doetinchem","operatorName":"Vattenfall InCharge","maxPowerKw":11,"isMegawatt":false,"status":"AVAILABLE","source":"ndw"}},{"type":"Feature","geometry":{"type":"Point","coordinates":[6.262162,51.950047]},"properties":{"type":"charge","layer":"passenger","locationId":"7b892036005df36b4224b04000e11dfd","name":"Wallis 12","address":"Wallis 12","city":"Doetinchem","operatorName":"Vattenfall InCharge","maxPowerKw":11,"isMegawatt":false,"status":"AVAILABLE","source":"ndw"}},{"type":"Feature","geometry":{"type":"Point","coordinates":[6.266915,51.950126]},"properties":{"type":"charge","layer":"passenger","locationId":"62183285-6d56-4d27-be59-22c1b475598d","name":"Harz","address":"Harz 95","city":"Doetinchem","operatorName":"Vattenfall InCharge","maxPowerKw":11,"isMegawatt":false,"status":"AVAILABLE","source":"ndw"}},{"type":"Feature","geometry":{"type":"Point","coordinates":[6.297,51.965795]},"properties":{"type":"charge","layer":"passenger","locationId":"NLLOC017289","name":"NL, Dr Huber Noodtstraat 82, 7001 DZ Doetinchem","address":"Dr Huber Noodtstraat 82","city":"Doetinchem","operatorName":"Allego","maxPowerKw":0,"isMegawatt":false,"status":"AVAILABLE","source":"ndw"}},{"type":"Feature","geometry":{"type":"Point","coordinates":[6.294147,51.967595]},"properties":{"type":"charge","layer":"passenger","locationId":"NLLOC024012","name":"NL, Amphionstraat 3, 7001 DP Doetinchem","address":"Amphionstraat 3","city":"Doetinchem","operatorName":"Allego","maxPowerKw":0,"isMegawatt":false,"status":"AVAILABLE","source":"ndw"}},{"type":"Feature","geometry":{"type":"Point","coordinates":[6.316775,51.952515]},"properties":{"type":"charge","layer":"passenger","locationId":"d4ac4deb59e10ce333121ffabc498f21","name":"Krophollerlaan 24","address":"Krophollerlaan 24","city":"Doetinchem","operatorName":"Vattenfall InCharge","maxPowerKw":11,"isMegawatt":false,"status":"AVAILABLE","source":"ndw"}},{"type":"Feature","geometry":{"type":"Point","coordinates":[6.313425,51.970155]},"properties":{"type":"charge","layer":"passenger","locationId":"679a3c44bb5b3014d5924533","name":"SBO SAM Boddens Hosangstraat 98, 7002 JA Doetinchem","address":"Boddens Hosangstraat 98","city":"Doetinchem","operatorName":"Pluq","maxPowerKw":11,"isMegawatt":false,"status":"AVAILABLE","source":"ndw"}},{"type":"Feature","geometry":{"type":"Point","coordinates":[6.301669,51.974838]},"properties":{"type":"charge","layer":"passenger","locationId":"1c77c12b-f4fc-4048-8b91-5246c5b04c76","name":"Oude Rozengaardseweg","address":"Oude Rozengaardseweg 205","city":"Doetinchem","operatorName":"Vattenfall InCharge","maxPowerKw":11,"isMegawatt":false,"status":"AVAILABLE","source":"ndw"}},{"type":"Feature","geometry":{"type":"Point","coordinates":[6.288386,51.960558]},"properties":{"type":"charge","layer":"passenger","locationId":"6eb02843f2b15b151d495314321e7479","name":"Het Eiland 39","address":"Het Eiland 39","city":"Doetinchem","operatorName":"Vattenfall InCharge","maxPowerKw":11,"isMegawatt":false,"status":"AVAILABLE","source":"ndw"}},{"type":"Feature","geometry":{"type":"Point","coordinates":[6.260676,51.958006]},"properties":{"type":"charge","layer":"passenger","locationId":"dcd525cd-6996-4d31-8d53-38ef8a8ae838","name":"Hof van Oxford","address":"Hof van Oxford 144","city":"Doetinchem","operatorName":"Vattenfall InCharge","maxPowerKw":11,"isMegawatt":false,"status":"AVAILABLE","source":"ndw"}},{"type":"Feature","geometry":{"type":"Point","coordinates":[6.308778,51.96826]},"properties":{"type":"charge","layer":"passenger","locationId":"c2c051d3d10ff68bc87efcc01029d46d","name":"Bizetlaan 20","address":"Bizetlaan 20","city":"Doetinchem","operatorName":"Vattenfall InCharge","maxPowerKw":11,"isMegawatt":false,"status":"AVAILABLE","source":"ndw"}},{"type":"Feature","geometry":{"type":"Point","coordinates":[6.2963,51.952385]},"properties":{"type":"charge","layer":"passenger","locationId":"3723763","name":"Laadnet Kelvion","address":"Vlijtstraat 25","city":"Doetinchem","operatorName":"Laadnet","maxPowerKw":22,"isMegawatt":false,"status":"UNAVAILABLE","source":"ndw"}},{"type":"Feature","geometry":{"type":"Point","coordinates":[6.251167,51.960138]},"properties":{"type":"charge","layer":"passenger","locationId":"64acb1a7333e14bd1ad69c71dbbf27e6","name":"Alsemveld 13","address":"Alsemveld 13","city":"Doetinchem","operatorName":"Vattenfall InCharge","maxPowerKw":11,"isMegawatt":false,"status":"AVAILABLE","source":"ndw"}},{"type":"Feature","geometry":{"type":"Point","coordinates":[6.289779,51.959915]},"properties":{"type":"charge","layer":"passenger","locationId":"a26e23cf-b335-4887-8daf-1696566373a3","name":"Handelskade","address":"Handelskade 112","city":"Doetinchem","operatorName":"Vattenfall InCharge","maxPowerKw":11,"isMegawatt":false,"status":"AVAILABLE","source":"ndw"}},{"type":"Feature","geometry":{"type":"Point","coordinates":[6.347446,51.939547]},"properties":{"type":"charge","layer":"passenger","locationId":"NLLOC014269","name":"NL, Monnikenstraat 21, 7011 CC Gaanderen","address":"Monnikenstraat 21","city":"Gaanderen","operatorName":"Allego","maxPowerKw":0,"isMegawatt":false,"status":"AVAILABLE","source":"ndw"}},{"type":"Feature","geometry":{"type":"Point","coordinates":[6.172722,51.967957]},"properties":{"type":"charge","layer":"passenger","locationId":"d330b5e0-119f-4f05-8fdc-0f79dabb7225","name":"Nieuw Wehlseweg","address":"Nieuw Wehlseweg 20a","city":"Wehl","operatorName":"Vattenfall InCharge","maxPowerKw":11,"isMegawatt":false,"status":"AVAILABLE","source":"ndw"}},{"type":"Feature","geometry":{"type":"Point","coordinates":[6.253911,51.965967]},"properties":{"type":"charge","layer":"passenger","locationId":"5f50bfc94f62a3ea68cdb634b3f4970e","name":"Sikkeldreef  43","address":"Sikkeldreef  43","city":"Doetinchem","operatorName":"Vattenfall InCharge","maxPowerKw":11,"isMegawatt":false,"status":"AVAILABLE","source":"ndw"}},{"type":"Feature","geometry":{"type":"Point","coordinates":[6.288742,51.960576]},"properties":{"type":"charge","layer":"passenger","locationId":"c7d3bbf68f068b0ce043d72a51455a76","name":"Het Eiland 41","address":"Het Eiland 41","city":"Doetinchem","operatorName":"Vattenfall InCharge","maxPowerKw":11,"isMegawatt":false,"status":"AVAILABLE","source":"ndw"}},{"type":"Feature","geometry":{"type":"Point","coordinates":[6.266198,51.953215]},"properties":{"type":"charge","layer":"passenger","locationId":"NLLOC007347","name":"NL, Sicco Mansholtweg 25, 7007 LJ, Doetinchem","address":"Sicco Mansholtweg 25","city":"Doetinchem","operatorName":"Allego","maxPowerKw":0,"isMegawatt":false,"status":"AVAILABLE","source":"ndw"}},{"type":"Feature","geometry":{"type":"Point","coordinates":[6.290454,51.968737]},"properties":{"type":"charge","layer":"passenger","locationId":"0c38786c-7bf9-4f94-973f-30154b80445a","name":"Schouwburgplein 1","address":"Schouwburgplein 1","city":"Doetinchem","operatorName":"Vattenfall InCharge","maxPowerKw":11,"isMegawatt":false,"status":"AVAILABLE","source":"ndw"}},{"type":"Feature","geometry":{"type":"Point","coordinates":[6.255081,51.967279]},"properties":{"type":"charge","layer":"passenger","locationId":"178565ed873eef2527052a806aa9d8f3","name":"Gaffeldreef 18","address":"Gaffeldreef 18","city":"Doetinchem","operatorName":"Vattenfall InCharge","maxPowerKw":11,"isMegawatt":false,"status":"AVAILABLE","source":"ndw"}},{"type":"Feature","geometry":{"type":"Point","coordinates":[6.283972,51.963834]},"properties":{"type":"charge","layer":"passenger","locationId":"76fa2084-4b6a-45c1-9198-c79dbf1758cd","name":"Dichterseweg 2","address":"Dichterseweg 2","city":"Doetinchem","operatorName":"Vattenfall InCharge","maxPowerKw":11,"isMegawatt":false,"status":"AVAILABLE","source":"ndw"}},{"type":"Feature","geometry":{"type":"Point","coordinates":[6.28274,51.949032]},"properties":{"type":"charge","layer":"passenger","locationId":"651a6d8921990c0020de23c5","name":"De Lender 31","address":"De Lender 31","city":"Doetinchem","operatorName":"E-Flux by Road","maxPowerKw":11,"isMegawatt":false,"status":"AVAILABLE","source":"ndw"}},{"type":"Feature","geometry":{"type":"Point","coordinates":[6.259854,51.953232]},"properties":{"type":"charge","layer":"passenger","locationId":"NLLOC015946","name":"NL, Ebro 20, 7007MB, Doetinchem","address":"Ebro 20","city":"Doetinchem","operatorName":"Allego","maxPowerKw":0,"isMegawatt":false,"status":"AVAILABLE","source":"ndw"}},{"type":"Feature","geometry":{"type":"Point","coordinates":[6.265204,51.959843]},"properties":{"type":"charge","layer":"passenger","locationId":"075f8a7ca269af9a4499792944d3b590","name":"Henri Dunantlaan 46","address":"Henri Dunantlaan 46","city":"Doetinchem","operatorName":"Vattenfall InCharge","maxPowerKw":11,"isMegawatt":false,"status":"AVAILABLE","source":"ndw"}},{"type":"Feature","geometry":{"type":"Point","coordinates":[6.277978,51.950719]},"properties":{"type":"charge","layer":"passenger","locationId":"29ace3c2-609f-4e26-b83d-e6e9d9d22913","name":"Het Hennennest 1","address":"Het Hennennest 1","city":"Doetinchem","operatorName":"Vattenfall InCharge","maxPowerKw":11,"isMegawatt":false,"status":"AVAILABLE","source":"ndw"}},{"type":"Feature","geometry":{"type":"Point","coordinates":[6.26453,51.95892]},"properties":{"type":"charge","layer":"passenger","locationId":"2fdb4cfbaf85ebbea1d5f3f783bba9a6","name":"Hof van Edinburgh 15","address":"Hof van Edinburgh 15","city":"Doetinchem","operatorName":"Vattenfall InCharge","maxPowerKw":11,"isMegawatt":false,"status":"AVAILABLE","source":"ndw"}},{"type":"Feature","geometry":{"type":"Point","coordinates":[6.32165,51.97332]},"properties":{"type":"charge","layer":"passenger","locationId":"769d866737b275b3a5979da79aea764f","name":"Airbornestraat 82","address":"Airbornestraat 82","city":"Doetinchem","operatorName":"Vattenfall InCharge","maxPowerKw":11,"isMegawatt":false,"status":"AVAILABLE","source":"ndw"}},{"type":"Feature","geometry":{"type":"Point","coordinates":[6.285481,51.95632]},"properties":{"type":"charge","layer":"passenger","locationId":"6e2eb27c-9365-46ff-ab30-24c55296814a","name":"Torontostraat 1","address":"Torontostraat 1","city":"Doetinchem","operatorName":"Vattenfall InCharge","maxPowerKw":11,"isMegawatt":false,"status":"AVAILABLE","source":"ndw"}},{"type":"Feature","geometry":{"type":"Point","coordinates":[6.304466,51.962652]},"properties":{"type":"charge","layer":"passenger","locationId":"087a98c2-a0e5-4392-a67f-85a7b437a1bb","name":"Van Hogendorplaan","address":"Van Hogendorplaan 36","city":"Doetinchem","operatorName":"Vattenfall InCharge","maxPowerKw":11,"isMegawatt":false,"status":"AVAILABLE","source":"ndw"}},{"type":"Feature","geometry":{"type":"Point","coordinates":[6.309381,51.95138]},"properties":{"type":"charge","layer":"passenger","locationId":"5a4118176f2b957995e0863e3d216afb","name":"Zonneplein 32","address":"Zonneplein 32","city":"Doetinchem","operatorName":"Vattenfall InCharge","maxPowerKw":11,"isMegawatt":false,"status":"AVAILABLE","source":"ndw"}},{"type":"Feature","geometry":{"type":"Point","coordinates":[6.2463,51.9677]},"properties":{"type":"charge","layer":"passenger","locationId":"3a77b9dd07ad3e2246289a94f32c0d07","name":"Haverdreef 33","address":"Haverdreef 33","city":"Doetinchem","operatorName":"Vattenfall InCharge","maxPowerKw":11,"isMegawatt":false,"status":"AVAILABLE","source":"ndw"}},{"type":"Feature","geometry":{"type":"Point","coordinates":[6.256636,51.971244]},"properties":{"type":"charge","layer":"passenger","locationId":"923447","name":"P7_DAE_NL_2001217","address":"Voltastraat 25","city":"Doetinchem","operatorName":"DAEN Mobility","maxPowerKw":11,"isMegawatt":false,"status":"CHARGING","source":"ndw"}},{"type":"Feature","geometry":{"type":"Point","coordinates":[6.292476,51.96783]},"properties":{"type":"charge","layer":"passenger","locationId":"f97f8e2d-41c6-4c94-b688-2e4dd25036d6","name":"Amphionstraat 75","address":"Amphionstraat 75","city":"Doetinchem","operatorName":"Vattenfall InCharge","maxPowerKw":11,"isMegawatt":false,"status":"AVAILABLE","source":"ndw"}},{"type":"Feature","geometry":{"type":"Point","coordinates":[6.267993,51.949769]},"properties":{"type":"charge","layer":"passenger","locationId":"c07dbb60-0229-4d4a-9979-12238807d3a4","name":"Harz","address":"Harz 119","city":"Doetinchem","operatorName":"Vattenfall InCharge","maxPowerKw":11,"isMegawatt":false,"status":"AVAILABLE","source":"ndw"}},{"type":"Feature","geometry":{"type":"Point","coordinates":[6.266112,51.953185]},"properties":{"type":"charge","layer":"passenger","locationId":"ebf56548-95ec-4a27-a15f-44f62e2a7f51","name":"Sicco Mansholtweg 25","address":"Sicco Mansholtweg 25","city":"Doetinchem","operatorName":"Vattenfall InCharge","maxPowerKw":11,"isMegawatt":false,"status":"AVAILABLE","source":"ndw"}},{"type":"Feature","geometry":{"type":"Point","coordinates":[6.316324,51.973406]},"properties":{"type":"charge","layer":"passenger","locationId":"066207a9-a02e-4234-b6ab-dc20eb762a21","name":"Houtsmastraat","address":"Houtsmastraat 154","city":"Doetinchem","operatorName":"Vattenfall InCharge","maxPowerKw":11,"isMegawatt":false,"status":"AVAILABLE","source":"ndw"}},{"type":"Feature","geometry":{"type":"Point","coordinates":[6.284059,51.964305]},"properties":{"type":"charge","layer":"passenger","locationId":"1f51cbd0-b7a3-471e-baf3-f642f1438a2c","name":"Stokhorstweg","address":"Stokhorstweg 2a","city":"Doetinchem","operatorName":"Vattenfall InCharge","maxPowerKw":11,"isMegawatt":false,"status":"AVAILABLE","source":"ndw"}},{"type":"Feature","geometry":{"type":"Point","coordinates":[6.30926,51.96742]},"properties":{"type":"charge","layer":"passenger","locationId":"520","name":"Shell Recharge NL9238 - Karwei Doetinchem","address":"Varsseveldseweg 113","city":"Doetinchem","operatorName":"Shell Recharge","maxPowerKw":150,"isMegawatt":false,"status":"AVAILABLE","source":"ndw"}},{"type":"Feature","geometry":{"type":"Point","coordinates":[6.35087,51.92921]},"properties":{"type":"charge","layer":"passenger","locationId":"07dc762ca98cd39d3480a4bcdf1172fe","name":"Romanticastraat 1","address":"Romanticastraat 1","city":"Gaanderen","operatorName":"Vattenfall InCharge","maxPowerKw":11,"isMegawatt":false,"status":"AVAILABLE","source":"ndw"}},{"type":"Feature","geometry":{"type":"Point","coordinates":[6.280574,51.956901]},"properties":{"type":"charge","layer":"passenger","locationId":"cdd0f644be71dbbd782e97a6c63fd999","name":"Ottawastraat 25","address":"Ottawastraat 25","city":"Doetinchem","operatorName":"Vattenfall InCharge","maxPowerKw":11,"isMegawatt":false,"status":"AVAILABLE","source":"ndw"}},{"type":"Feature","geometry":{"type":"Point","coordinates":[6.256985,51.956574]},"properties":{"type":"charge","layer":"passenger","locationId":"1794728","name":"RJ Enterprise Marnedal","address":"Marnedal 9","city":"Doetinchem","operatorName":"Laadnet","maxPowerKw":22,"isMegawatt":false,"status":"UNAVAILABLE","source":"ndw"}},{"type":"Feature","geometry":{"type":"Point","coordinates":[6.301368,51.969976]},"properties":{"type":"charge","layer":"passenger","locationId":"819019b6ab0db11ac6fcb7b5ce2ffa01","name":"Vondelstraat 18","address":"Vondelstraat 18","city":"Doetinchem","operatorName":"Vattenfall InCharge","maxPowerKw":11,"isMegawatt":false,"status":"AVAILABLE","source":"ndw"}},{"type":"Feature","geometry":{"type":"Point","coordinates":[6.312023,51.97509]},"properties":{"type":"charge","layer":"passenger","locationId":"bb74c6e37780a85b2657dc9523ec1524","name":"Montgomerystraat 16","address":"Montgomerystraat 16","city":"Doetinchem","operatorName":"Vattenfall InCharge","maxPowerKw":11,"isMegawatt":false,"status":"AVAILABLE","source":"ndw"}},{"type":"Feature","geometry":{"type":"Point","coordinates":[6.213347,51.95736]},"properties":{"type":"charge","layer":"passenger","locationId":"89d3ed33-8923-4af5-b67d-2f5034beb5d3","name":"Stationsstraat 31","address":"Stationsstraat 31","city":"Wehl","operatorName":"Vattenfall InCharge","maxPowerKw":11,"isMegawatt":false,"status":"AVAILABLE","source":"ndw"}},{"type":"Feature","geometry":{"type":"Point","coordinates":[6.311518,51.948614]},"properties":{"type":"charge","layer":"passenger","locationId":"a1dd741f-cd7b-4b56-bce3-3cc282944892","name":"Tulpenstraat","address":"Tulpenstraat 39","city":"Doetinchem","operatorName":"Vattenfall InCharge","maxPowerKw":11,"isMegawatt":false,"status":"CHARGING","source":"ndw"}},{"type":"Feature","geometry":{"type":"Point","coordinates":[6.244673,51.963352]},"properties":{"type":"charge","layer":"passenger","locationId":"8403bfdd078c456ab43dc9fa1573efa2","name":"Venkelveld 10 X1","address":"Venkelveld 10 X1","city":"Doetinchem","operatorName":"Vattenfall InCharge","maxPowerKw":11,"isMegawatt":false,"status":"AVAILABLE","source":"ndw"}},{"type":"Feature","geometry":{"type":"Point","coordinates":[6.256689,51.972269]},"properties":{"type":"charge","layer":"passenger","locationId":"923448","name":"P5_DAE_NL_2001219","address":"Voltastraat 64","city":"Doetinchem","operatorName":"DAEN Mobility","maxPowerKw":11,"isMegawatt":false,"status":"AVAILABLE","source":"ndw"}},{"type":"Feature","geometry":{"type":"Point","coordinates":[6.302369,51.97229]},"properties":{"type":"charge","layer":"passenger","locationId":"aac4cc15-f2ba-418b-bf7e-e084ad402be2","name":"Staringstraat","address":"Staringstraat 1","city":"Doetinchem","operatorName":"Vattenfall InCharge","maxPowerKw":11,"isMegawatt":false,"status":"AVAILABLE","source":"ndw"}},{"type":"Feature","geometry":{"type":"Point","coordinates":[6.25591,51.966384]},"properties":{"type":"charge","layer":"passenger","locationId":"75aadbb6-8e74-4193-abe8-87c326ea5a39","name":"Eggedreef","address":"Eggedreef 7","city":"Doetinchem","operatorName":"Vattenfall InCharge","maxPowerKw":11,"isMegawatt":false,"status":"AVAILABLE","source":"ndw"}},{"type":"Feature","geometry":{"type":"Point","coordinates":[6.28399,51.963842]},"properties":{"type":"charge","layer":"passenger","locationId":"6f587014-51d1-4ae9-9066-96dfe62cf271","name":"Dichterseweg 3","address":"Dichterseweg 3","city":"Doetinchem","operatorName":"Vattenfall InCharge","maxPowerKw":11,"isMegawatt":false,"status":"AVAILABLE","source":"ndw"}},{"type":"Feature","geometry":{"type":"Point","coordinates":[6.295557,51.977918]},"properties":{"type":"charge","layer":"passenger","locationId":"3e53e87c-654e-466a-858a-b1d2cd8fcf78","name":"Schermhorst","address":"Schermhorst 72","city":"Doetinchem","operatorName":"Vattenfall InCharge","maxPowerKw":11,"isMegawatt":false,"status":"AVAILABLE","source":"ndw"}},{"type":"Feature","geometry":{"type":"Point","coordinates":[6.289679,51.959655]},"properties":{"type":"charge","layer":"passenger","locationId":"f96c3fe417ce5721700cc4785011ea90","name":"Handelskade 122","address":"Handelskade 122","city":"Doetinchem","operatorName":"Vattenfall InCharge","maxPowerKw":11,"isMegawatt":false,"status":"AVAILABLE","source":"ndw"}},{"type":"Feature","geometry":{"type":"Point","coordinates":[6.316154,51.974257]},"properties":{"type":"charge","layer":"passenger","locationId":"3d8f32a0b6295a9aa8c799c23d44d2f0","name":"Houtsmastraat 167","address":"Houtsmastraat 167","city":"Doetinchem","operatorName":"Vattenfall InCharge","maxPowerKw":11,"isMegawatt":false,"status":"AVAILABLE","source":"ndw"}},{"type":"Feature","geometry":{"type":"Point","coordinates":[6.297358,51.966285]},"properties":{"type":"charge","layer":"passenger","locationId":"bb653b73f68ca9b5f5dc2979e8e3fcdd","name":"Dr. Huber Noodtstraat 101","address":"Dr. Huber Noodtstraat 101","city":"Doetinchem","operatorName":"Vattenfall InCharge","maxPowerKw":11,"isMegawatt":false,"status":"AVAILABLE","source":"ndw"}},{"type":"Feature","geometry":{"type":"Point","coordinates":[6.31575,51.95497]},"properties":{"type":"charge","layer":"passenger","locationId":"f4542f257329450c685d9d7c58d2cb37","name":"Badweg 8","address":"Badweg 8","city":"Doetinchem","operatorName":"Vattenfall InCharge","maxPowerKw":11,"isMegawatt":false,"status":"AVAILABLE","source":"ndw"}},{"type":"Feature","geometry":{"type":"Point","coordinates":[6.323941,51.975126]},"properties":{"type":"charge","layer":"passenger","locationId":"1bc880be-1dec-453e-aa7a-ca9950f1378b","name":"Caenstraat","address":"Caenstraat 508","city":"Doetinchem","operatorName":"Vattenfall InCharge","maxPowerKw":11,"isMegawatt":false,"status":"AVAILABLE","source":"ndw"}},{"type":"Feature","geometry":{"type":"Point","coordinates":[6.2801,51.95695]},"properties":{"type":"charge","layer":"passenger","locationId":"f41b45ee9dc76b48b6172deecfbaaa01","name":"Canadaparklaan 33","address":"Canadaparklaan 33","city":"Doetinchem","operatorName":"Vattenfall InCharge","maxPowerKw":11,"isMegawatt":false,"status":"AVAILABLE","source":"ndw"}},{"type":"Feature","geometry":{"type":"Point","coordinates":[6.357903,51.925704]},"properties":{"type":"charge","layer":"passenger","locationId":"92298f20961759e7c333784049e57e5c","name":"Rijksweg 278","address":"Rijksweg 278","city":"Gaanderen","operatorName":"Vattenfall InCharge","maxPowerKw":11,"isMegawatt":false,"status":"AVAILABLE","source":"ndw"}},{"type":"Feature","geometry":{"type":"Point","coordinates":[6.275715,51.9513]},"properties":{"type":"charge","layer":"passenger","locationId":"36f397afedc8d9c9dcd29179a2e1cadf","name":"De Nevel 45","address":"De Nevel 45","city":"Doetinchem","operatorName":"Vattenfall InCharge","maxPowerKw":11,"isMegawatt":false,"status":"AVAILABLE","source":"ndw"}},{"type":"Feature","geometry":{"type":"Point","coordinates":[6.348426,51.930343]},"properties":{"type":"charge","layer":"passenger","locationId":"d9f3777e08f288e95c1d32d7332a65c8","name":"Blikslagerstraat","address":"Blikslagerstraat","city":"Gaanderen","operatorName":"Vattenfall InCharge","maxPowerKw":11,"isMegawatt":false,"status":"AVAILABLE","source":"ndw"}},{"type":"Feature","geometry":{"type":"Point","coordinates":[6.315921,51.9652]},"properties":{"type":"charge","layer":"freight","locationId":"68664853bd9f332551e55014","name":"Fieten Electric B.V. | Doetinchem","address":"Oostelijke Randweg 100","city":"Doetinchem","operatorName":"E-Flux by Road","maxPowerKw":400,"isMegawatt":false,"status":"AVAILABLE","source":"ndw"}},{"type":"Feature","geometry":{"type":"MultiPolygon","coordinates":[[[[6.329006123600439,51.98914255617835],[6.3356584107867,51.98564654629435],[6.332216669868471,51.9828638630135],[6.331138809081556,51.98056987080877],[6.327728799498177,51.97728694016865],[6.327519446494469,51.97574956061401],[6.337375272155117,51.974684824060766],[6.353506405903005,51.9746751116108],[6.369858005980151,51.97621592820087],[6.368765859959856,51.973137541454825],[6.366291236050821,51.97177574315725],[6.365339244448994,51.96962590033455],[6.368351277989819,51.96853241417821],[6.373456695963331,51.969858320435215],[6.381392610188836,51.96797878170715],[6.390378548584723,51.968327834899675],[6.39082144706472,51.97073771293244],[6.388267823865074,51.97629983480717],[6.3858396035790985,51.97616963833039],[6.380878619130569,51.977738104193456],[6.390306477765834,51.980258476302446],[6.39267906699424,51.97974773112945],[6.396400236529679,51.98001178094927],[6.402520242876519,51.982150525686535],[6.416082414052359,51.97262184684499],[6.409974272078382,51.96588671949281],[6.407290075157417,51.96314836377705],[6.4035862320279024,51.95732178389301],[6.401552343779662,51.9567827361762],[6.396291777434494,51.95252563414266],[6.388231107168524,51.94497717367656],[6.384397714165125,51.94113460752194],[6.379963703384634,51.93628150493819],[6.381767460804635,51.93457106727711],[6.381312279215497,51.9333159041076],[6.3768475603028945,51.93005102977768],[6.371606415303448,51.927606772209934],[6.362554465187614,51.92377125777454],[6.362547700614678,51.92376817864493],[6.360845811024785,51.92296666095538],[6.3593285042495955,51.92278210694429],[6.3583967872277,51.9228719976079],[6.355583924736604,51.92364083707368],[6.352326423433124,51.92381260565173],[6.349172363000002,51.92371401641058],[6.348589478098312,51.92455925616567],[6.344602030332802,51.92525150550777],[6.342361154355173,51.925121413459195],[6.340052090549109,51.925689713344596],[6.338939604698267,51.9248333171868],[6.338039718853423,51.92489160653399],[6.336843799291701,51.926105226241084],[6.335755617432369,51.92605520425071],[6.335450072189397,51.925845943353494],[6.333794969453785,51.925717455070874],[6.3334215159839875,51.925468523977806],[6.331155844359381,51.926164353613295],[6.326754500385384,51.92944268980928],[6.321735917854386,51.935188109329374],[6.319983037793974,51.93596844632442],[6.314608333238654,51.93650262540915],[6.308604871073356,51.93976417659054],[6.305763534250745,51.938821206536254],[6.302607142496975,51.94135331860857],[6.301844079755569,51.94196540459516],[6.3020671021758154,51.94413424547668],[6.2938210168667785,51.943767079332474],[6.293820952808526,51.94376707623126],[6.279024804369635,51.943344315253015],[6.275392645799874,51.94179975579813],[6.2728485253042505,51.94188512345517],[6.27287523010364,51.943178783758654],[6.262877904173148,51.94295750809132],[6.254276160461254,51.943253332431524],[6.229305590044031,51.944564936006024],[6.2207539648872645,51.94457586435806],[6.221361010958773,51.94392819662185],[6.219042297945261,51.94314186084486],[6.216384174156701,51.94412269933539],[6.21460378092321,51.943220648407845],[6.212049378123741,51.94289366684853],[6.2103271515067755,51.94338243942134],[6.204423349463072,51.942382416497956],[6.203075701818584,51.94214355507009],[6.202994999085854,51.94148478163834],[6.203077344196863,51.94132703518698],[6.202744136277157,51.939087260546565],[6.205619110576834,51.93772951368934],[6.205010794051575,51.9366404552846],[6.1932637532852315,51.940882970369096],[6.191734359570442,51.94245197847317],[6.1884265392686135,51.943338907007515],[6.188591478718738,51.94553630604044],[6.186023641025993,51.94608789714204],[6.184621461406018,51.94769185571816],[6.182774723611736,51.94812562789401],[6.1827503788484695,51.94814970943087],[6.178509830578151,51.948702996020636],[6.1726588802516895,51.952968558550005],[6.169133423668806,51.95328568551453],[6.1657469667979,51.95493589551137],[6.163143434671461,51.95532338196009],[6.162521662891323,51.95587780873346],[6.15786811467919,51.95879370707898],[6.15094538749843,51.96626628748249],[6.148210022178967,51.973187029904445],[6.145967038354626,51.97525174176056],[6.146467024271647,51.975591958113746],[6.1446888849369685,51.98050015408887],[6.160484091142007,51.98103680147971],[6.1605832815285115,51.97951279591481],[6.168431810873758,51.979804893903285],[6.171698638494955,51.98082709373827],[6.179408028316028,51.97934516245122],[6.182403794835512,51.97919831962848],[6.183435640119891,51.97953441430126],[6.190987232880954,51.979056323895634],[6.205134975570463,51.98024776470169],[6.211679719337316,51.978390474044765],[6.217260873669895,51.979332166453176],[6.224148417124435,51.9784201724789],[6.229800517080198,51.976207104429136],[6.2292809265251865,51.976776851187246],[6.231119912186989,51.978649257600196],[6.230131454313164,51.97909123034682],[6.23170439710502,51.980776005494164],[6.2224180008553365,51.98414804432936],[6.22390276844231,51.98574066467431],[6.228087271170063,51.98779522946901],[6.228721819819011,51.98717251332549],[6.232522106856727,51.98648177719434],[6.232113305369325,51.988365667906365],[6.235782056568602,51.985011309756516],[6.234236884847191,51.98342488958023],[6.2348037905236,51.9826144055917],[6.23746003377652,51.9811186918067],[6.242727325058725,51.98100487558089],[6.244708683915291,51.980042329960675],[6.243411443277999,51.97892973615753],[6.242978660478176,51.97777151587363],[6.244391279914012,51.97784251445833],[6.247348232084811,51.977316688650006],[6.2483750645668295,51.97628680197423],[6.2497888154428605,51.97596492276682],[6.252839293903271,51.97990461086793],[6.256808856369733,51.98097548635237],[6.2572995906459346,51.98252870057468],[6.257299487619764,51.98252871751634],[6.247949410417727,51.98408623532161],[6.25072141477547,51.987329618561176],[6.252261107391037,51.986833647874455],[6.253896939845907,51.987593988019064],[6.253812466818489,51.98782664177823],[6.254367976590594,51.9880702552515],[6.259362950729811,51.987462684614144],[6.260052510435035,51.98683489666272],[6.267343713284563,51.9837702680731],[6.268944315000919,51.98397757318262],[6.270523523954817,51.983442207011656],[6.272299855657243,51.98369104010054],[6.273870548736168,51.98460356092562],[6.274651534874993,51.985288716097685],[6.278945376485238,51.98491278054664],[6.291897257333004,51.993345556031194],[6.293826576910736,51.99219188200152],[6.294341121201701,51.990316183199525],[6.295658159177997,51.98846712914758],[6.305152808501278,51.992187881514376],[6.314270607012152,51.99409739758581],[6.316522490663583,51.99417310297291],[6.319133783986225,51.99426083793019],[6.32253997336071,51.993417820491594],[6.326455495014269,51.991889006749766],[6.329006123600439,51.98914255617835]]]]},"properties":{"type":"boundary","gemeente":"Doetinchem","code":"GM0222"}}]}