{"type":"FeatureCollection","metadata":{"gemeente":"Dronten","slug":"dronten","code":"GM0303","generated_at":"2026-06-07T19:22:09.578Z","total_passenger":131,"total_freight":0,"bounds":[5.565420530466413,52.37052644210737,5.86351319736006,52.61559391502993],"operators":["E-Flux by Road","Eneco","Laadnet","NXT Charging Solutions","Pluq","Tanx","TotalEnergies","Ubitricity","Vattenfall InCharge","bp pulse"]},"features":[{"type":"Feature","geometry":{"type":"Point","coordinates":[5.702124,52.453596]},"properties":{"type":"charge","layer":"passenger","locationId":"69dbb006-60ff-11ed-b9d0-42010aa4003e","name":"TNLP007775","address":"Harenberg 22","city":"Biddinghuizen","operatorName":"TotalEnergies","maxPowerKw":17,"isMegawatt":false,"status":"AVAILABLE","source":"ndw","priceKwh":0.4}},{"type":"Feature","geometry":{"type":"Point","coordinates":[5.723298,52.535666]},"properties":{"type":"charge","layer":"passenger","locationId":"153ff656-b6f7-11ef-acec-42010aa400b8","name":"bp pulse De Noord #2","address":"De Noord 70","city":"Dronten","operatorName":"bp pulse","maxPowerKw":150,"isMegawatt":false,"status":"AVAILABLE","source":"ndw","priceKwh":0.7}},{"type":"Feature","geometry":{"type":"Point","coordinates":[5.723298,52.535666]},"properties":{"type":"charge","layer":"passenger","locationId":"153ff656-b6f7-11ef-acec-42010aa400b8","name":"bp pulse De Noord #2","address":"De Noord 70","city":"Dronten","operatorName":"bp pulse","maxPowerKw":150,"isMegawatt":false,"status":"AVAILABLE","source":"ndw","priceKwh":0.7}},{"type":"Feature","geometry":{"type":"Point","coordinates":[5.708686,52.538599]},"properties":{"type":"charge","layer":"passenger","locationId":"62eb6de3c3d5f885a328ae8d","name":"ZonderGas laadstation 22kW","address":"De Amer 8","city":"Dronten","operatorName":"E-Flux by Road","maxPowerKw":22,"isMegawatt":false,"status":"AVAILABLE","source":"ndw","priceKwh":0.48}},{"type":"Feature","geometry":{"type":"Point","coordinates":[5.6849598,52.5359385]},"properties":{"type":"charge","layer":"passenger","locationId":"2038","name":"Shell Recharge NL Zaaier 1","address":"Zaaier 1","city":"Dronten","operatorName":"Ubitricity","maxPowerKw":22,"isMegawatt":false,"status":"CHARGING","source":"ndw","priceKwh":0.266}},{"type":"Feature","geometry":{"type":"Point","coordinates":[5.722132,52.520408]},"properties":{"type":"charge","layer":"passenger","locationId":"12f83484-24f0-11ee-91d9-42010aa40fc0","name":"TNLP009454","address":"Kampanje 46","city":"Dronten","operatorName":"TotalEnergies","maxPowerKw":17,"isMegawatt":false,"status":"CHARGING","source":"ndw","priceKwh":0.4}},{"type":"Feature","geometry":{"type":"Point","coordinates":[5.725888,52.530828]},"properties":{"type":"charge","layer":"passenger","locationId":"c5d08b32-845d-11f0-8ad3-42010aa400b8","name":"TNLP008070","address":"De Morinel 132","city":"Dronten","operatorName":"TotalEnergies","maxPowerKw":17,"isMegawatt":false,"status":"UNAVAILABLE","source":"ndw","priceKwh":0.4}},{"type":"Feature","geometry":{"type":"Point","coordinates":[5.646792,52.56588]},"properties":{"type":"charge","layer":"passenger","locationId":"af0b1d7e-678d-48a8-8f48-19add321537b","name":"TNLP015348","address":"De Schuttershof 1","city":"Swifterband","operatorName":"TotalEnergies","maxPowerKw":17,"isMegawatt":false,"status":"CHARGING","source":"ndw"}},{"type":"Feature","geometry":{"type":"Point","coordinates":[5.710077,52.5307819]},"properties":{"type":"charge","layer":"passenger","locationId":"1088","name":"Shell Recharge NL Philipsdaalder 82","address":"Philipsdaalder 82","city":"Dronten","operatorName":"Ubitricity","maxPowerKw":22,"isMegawatt":false,"status":"AVAILABLE","source":"ndw","priceKwh":0.266}},{"type":"Feature","geometry":{"type":"Point","coordinates":[5.699993,52.5338]},"properties":{"type":"charge","layer":"passenger","locationId":"a4df7aac-0e43-11ed-8c7e-42010aa4001f","name":"TNLP007485","address":"Escudo 37","city":"Dronten","operatorName":"TotalEnergies","maxPowerKw":17,"isMegawatt":false,"status":"AVAILABLE","source":"ndw","priceKwh":0.4}},{"type":"Feature","geometry":{"type":"Point","coordinates":[5.724598,52.523148]},"properties":{"type":"charge","layer":"passenger","locationId":"ad6e6c37-41b1-4e77-a7de-78d152b8680a","name":"TNLP034615","address":"Lijzijde 197","city":"Dronten","operatorName":"TotalEnergies","maxPowerKw":14,"isMegawatt":false,"status":"AVAILABLE","source":"ndw"}},{"type":"Feature","geometry":{"type":"Point","coordinates":[5.70218,52.53904]},"properties":{"type":"charge","layer":"passenger","locationId":"b20c1602-2fc2-11ef-8b4b-42010aa400b8","name":"Eneco eMobility Solcon Internetdiensten BV - Dronten","address":"Het Zwarte Water 17","city":"Dronten","operatorName":"Eneco","maxPowerKw":22,"isMegawatt":false,"status":"AVAILABLE","source":"ndw","priceKwh":0.32}},{"type":"Feature","geometry":{"type":"Point","coordinates":[5.70218,52.53904]},"properties":{"type":"charge","layer":"passenger","locationId":"55D1424B-C19B-4423-8066-4F4D91A4FD70","name":"Eneco eMobility Solcon Internetdiensten BV - Dronten","address":"Het Zwarte Water 17","city":"Dronten","operatorName":"Eneco","maxPowerKw":22,"isMegawatt":false,"status":"AVAILABLE","source":"ndw","priceKwh":0.32}},{"type":"Feature","geometry":{"type":"Point","coordinates":[5.706509,52.524792]},"properties":{"type":"charge","layer":"passenger","locationId":"c230b7c4-784e-11eb-883f-42010a840019","name":"PP005380","address":"Educalaan 26","city":"Dronten","operatorName":"TotalEnergies","maxPowerKw":17,"isMegawatt":false,"status":"UNAVAILABLE","source":"ndw","priceKwh":0.39}},{"type":"Feature","geometry":{"type":"Point","coordinates":[5.710014,52.538996]},"properties":{"type":"charge","layer":"passenger","locationId":"2042529","name":"Laadnet Pitstop","address":"De Schipbeek 4","city":"Dronten","operatorName":"Laadnet","maxPowerKw":11,"isMegawatt":false,"status":"UNAVAILABLE","source":"ndw"}},{"type":"Feature","geometry":{"type":"Point","coordinates":[5.722486,52.514427]},"properties":{"type":"charge","layer":"passenger","locationId":"2687bf78-7ef5-11ea-a7d6-42010a840fc7","name":"PP005126","address":"Lancasterdreef 44","city":"Dronten","operatorName":"TotalEnergies","maxPowerKw":14,"isMegawatt":false,"status":"AVAILABLE","source":"ndw","priceKwh":0.39}},{"type":"Feature","geometry":{"type":"Point","coordinates":[5.71518,52.52609]},"properties":{"type":"charge","layer":"passenger","locationId":"ee0e2f72-b514-11f0-9f65-42010aa400b8","name":"PP004114","address":"De Bolder 2","city":"Dronten","operatorName":"TotalEnergies","maxPowerKw":14,"isMegawatt":false,"status":"AVAILABLE","source":"ndw","priceKwh":0.39}},{"type":"Feature","geometry":{"type":"Point","coordinates":[5.71503,52.51335]},"properties":{"type":"charge","layer":"passenger","locationId":"e8cd5b87be6bcf04ff82498720a88e2c","name":"De Longeerlijn 52","address":"De Longeerlijn 52","city":"Dronten","operatorName":"Vattenfall InCharge","maxPowerKw":11,"isMegawatt":false,"status":"AVAILABLE","source":"ndw"}},{"type":"Feature","geometry":{"type":"Point","coordinates":[5.68229,52.53624]},"properties":{"type":"charge","layer":"passenger","locationId":"9c2a7b2e-47fc-11ea-8b28-42010a840fdc","name":"PP004158","address":"Popart 51","city":"Dronten","operatorName":"TotalEnergies","maxPowerKw":0,"isMegawatt":false,"status":"AVAILABLE","source":"ndw","priceKwh":0.4}},{"type":"Feature","geometry":{"type":"Point","coordinates":[5.767491,52.440135]},"properties":{"type":"charge","layer":"passenger","locationId":"2652148","name":"Laadnet Walibi Holland BV - Technische Dienst","address":"Spijkweg 30","city":"Biddinghuizen","operatorName":"Laadnet","maxPowerKw":22,"isMegawatt":false,"status":"AVAILABLE","source":"ndw"}},{"type":"Feature","geometry":{"type":"Point","coordinates":[5.749381,52.430379]},"properties":{"type":"charge","layer":"passenger","locationId":"4923868","name":"Laadnet Oranjeborg Biddinghuizen","address":"Spijkweg 38","city":"Biddinghuizen","operatorName":"Laadnet","maxPowerKw":22,"isMegawatt":false,"status":"UNAVAILABLE","source":"ndw"}},{"type":"Feature","geometry":{"type":"Point","coordinates":[5.686508,52.540678]},"properties":{"type":"charge","layer":"passenger","locationId":"d37ee25a-407f-11eb-9468-42010a840025","name":"TNLP005802","address":"Troffel 14","city":"Dronten","operatorName":"TotalEnergies","maxPowerKw":0,"isMegawatt":false,"status":"AVAILABLE","source":"ndw","priceKwh":0.4}},{"type":"Feature","geometry":{"type":"Point","coordinates":[5.709344,52.461031]},"properties":{"type":"charge","layer":"passenger","locationId":"2407248","name":"Laadnet Thebalux Biddinghuizen","address":"Stoppelploeg 3","city":"Biddinghuizen","operatorName":"Laadnet","maxPowerKw":22,"isMegawatt":false,"status":"AVAILABLE","source":"ndw"}},{"type":"Feature","geometry":{"type":"Point","coordinates":[5.702809,52.459214]},"properties":{"type":"charge","layer":"passenger","locationId":"3966867","name":"Laadnet Ploegschaar 3","address":"Ploegschaar 3","city":"Biddinghuizen","operatorName":"Laadnet","maxPowerKw":22,"isMegawatt":false,"status":"AVAILABLE","source":"ndw"}},{"type":"Feature","geometry":{"type":"Point","coordinates":[5.72427,52.53949]},"properties":{"type":"charge","layer":"passenger","locationId":"d038e992-4f3c-11e8-9461-42010a840002","name":"Eneco eMobility Broekhuis Peugeot Dronten","address":"Pioniersweg 10","city":"Dronten","operatorName":"Eneco","maxPowerKw":22,"isMegawatt":false,"status":"AVAILABLE","source":"ndw","priceKwh":0.45}},{"type":"Feature","geometry":{"type":"Point","coordinates":[5.705228,52.515307]},"properties":{"type":"charge","layer":"passenger","locationId":"051325556a0551a075c4eb29057517e8","name":"De Barrage 8","address":"De Barrage 8","city":"Dronten","operatorName":"Vattenfall InCharge","maxPowerKw":11,"isMegawatt":false,"status":"AVAILABLE","source":"ndw"}},{"type":"Feature","geometry":{"type":"Point","coordinates":[5.633662,52.571434]},"properties":{"type":"charge","layer":"passenger","locationId":"3966866","name":"Laadnet Randweg 11","address":"Randweg 11","city":"Swifterbant","operatorName":"Laadnet","maxPowerKw":22,"isMegawatt":false,"status":"AVAILABLE","source":"ndw"}},{"type":"Feature","geometry":{"type":"Point","coordinates":[5.723472,52.513591]},"properties":{"type":"charge","layer":"passenger","locationId":"82f7c379-25bd-462b-962a-17150edde391","name":"TNLP034141","address":"Imbosch 18","city":"Dronten","operatorName":"TotalEnergies","maxPowerKw":14,"isMegawatt":false,"status":"AVAILABLE","source":"ndw"}},{"type":"Feature","geometry":{"type":"Point","coordinates":[5.716598,52.527362]},"properties":{"type":"charge","layer":"passenger","locationId":"3b2bb42994d04de75d49839dc6f3130f","name":"De Dukdalf 85","address":"De Dukdalf 85","city":"Dronten","operatorName":"Vattenfall InCharge","maxPowerKw":11,"isMegawatt":false,"status":"AVAILABLE","source":"ndw"}},{"type":"Feature","geometry":{"type":"Point","coordinates":[5.727686,52.525261]},"properties":{"type":"charge","layer":"passenger","locationId":"ff9d4d44-fc73-4c5f-b5ec-50193ba88d6b","name":"TNLP034130","address":"Het Zenit 2","city":"Dronten","operatorName":"TotalEnergies","maxPowerKw":14,"isMegawatt":false,"status":"AVAILABLE","source":"ndw"}},{"type":"Feature","geometry":{"type":"Point","coordinates":[5.726849,52.52715]},"properties":{"type":"charge","layer":"passenger","locationId":"3964370","name":"Laadnet Het Noorderlicht","address":"Het Noorderlicht 14","city":"Dronten","operatorName":"Laadnet","maxPowerKw":11,"isMegawatt":false,"status":"AVAILABLE","source":"ndw"}},{"type":"Feature","geometry":{"type":"Point","coordinates":[5.774256,52.441973]},"properties":{"type":"charge","layer":"passenger","locationId":"2652147","name":"Laadnet Walibi Holland BV - Walibi Village","address":"Cerespark 2","city":"Biddinghuizen","operatorName":"Laadnet","maxPowerKw":22,"isMegawatt":false,"status":"AVAILABLE","source":"ndw"}},{"type":"Feature","geometry":{"type":"Point","coordinates":[5.72427,52.53949]},"properties":{"type":"charge","layer":"passenger","locationId":"4DB6EBF5-0CB9-4319-9443-ABBE0B7BD96E","name":"Eneco eMobility Broekhuis Peugeot Dronten","address":"Pioniersweg 10","city":"Dronten","operatorName":"Eneco","maxPowerKw":22,"isMegawatt":false,"status":"AVAILABLE","source":"ndw","priceKwh":0.45}},{"type":"Feature","geometry":{"type":"Point","coordinates":[5.690176,52.532631]},"properties":{"type":"charge","layer":"passenger","locationId":"956643c4-c493-11ed-94a8-42010aa4004c","name":"TNLP008255","address":"Weversgilde 18","city":"Dronten","operatorName":"TotalEnergies","maxPowerKw":14,"isMegawatt":false,"status":"AVAILABLE","source":"ndw","priceKwh":0.39}},{"type":"Feature","geometry":{"type":"Point","coordinates":[5.723472,52.513591]},"properties":{"type":"charge","layer":"passenger","locationId":"16f37468-aed2-11f0-9dd8-42010aa400b8","name":"TNLP034141","address":"Imbosch 18","city":"Dronten","operatorName":"TotalEnergies","maxPowerKw":14,"isMegawatt":false,"status":"AVAILABLE","source":"ndw","priceKwh":0.3}},{"type":"Feature","geometry":{"type":"Point","coordinates":[5.704839,52.532189]},"properties":{"type":"charge","layer":"passenger","locationId":"59f7a382-5f4e-11ed-9ddb-42010aa4004b","name":"TNLP007796","address":"Dukaat 15","city":"Dronten","operatorName":"TotalEnergies","maxPowerKw":14,"isMegawatt":false,"status":"AVAILABLE","source":"ndw","priceKwh":0.39}},{"type":"Feature","geometry":{"type":"Point","coordinates":[5.726897,52.517255]},"properties":{"type":"charge","layer":"passenger","locationId":"7f010d8a-65b8-11f0-b423-42010aa400b8","name":"TNLP009229","address":"De Buiskap 1","city":"Dronten","operatorName":"TotalEnergies","maxPowerKw":14,"isMegawatt":false,"status":"AVAILABLE","source":"ndw","priceKwh":0.39}},{"type":"Feature","geometry":{"type":"Point","coordinates":[5.722904,52.531562]},"properties":{"type":"charge","layer":"passenger","locationId":"12799762-2295-11ee-954a-42010aa40fc0","name":"TNLP009270","address":"De Morinel 2","city":"Dronten","operatorName":"TotalEnergies","maxPowerKw":14,"isMegawatt":false,"status":"AVAILABLE","source":"ndw","priceKwh":0.39}},{"type":"Feature","geometry":{"type":"Point","coordinates":[5.723298,52.535673]},"properties":{"type":"charge","layer":"passenger","locationId":"4f4a3506-a78d-41ce-9120-50dd4a854cdd","name":"bp pulse De Noord","address":"De Noord 70","city":"Dronten","operatorName":"bp pulse","maxPowerKw":150,"isMegawatt":false,"status":"AVAILABLE","source":"ndw","priceKwh":0.7}},{"type":"Feature","geometry":{"type":"Point","coordinates":[5.68381,52.532463]},"properties":{"type":"charge","layer":"passenger","locationId":"53873cca-ff2d-11ea-bb37-42010a84000b","name":"PP005158","address":"Vermiljoen 2W","city":"Dronten","operatorName":"TotalEnergies","maxPowerKw":14,"isMegawatt":false,"status":"AVAILABLE","source":"ndw","priceKwh":0.39}},{"type":"Feature","geometry":{"type":"Point","coordinates":[5.722132,52.520408]},"properties":{"type":"charge","layer":"passenger","locationId":"90e216d4-bc2f-11f0-95b7-42010aa400b8","name":"TNLP009454","address":"Kampanje 46","city":"Dronten","operatorName":"TotalEnergies","maxPowerKw":14,"isMegawatt":false,"status":"AVAILABLE","source":"ndw","priceKwh":0.39}},{"type":"Feature","geometry":{"type":"Point","coordinates":[5.700821,52.538948]},"properties":{"type":"charge","layer":"passenger","locationId":"F1166572-5396-4163-9626-F4A65B8CA514","name":"Eneco eMobility VSS Techniek Dronten","address":"De Gouwe 38A","city":"Dronten","operatorName":"Eneco","maxPowerKw":11,"isMegawatt":false,"status":"CHARGING","source":"ndw","priceKwh":0.28}},{"type":"Feature","geometry":{"type":"Point","coordinates":[5.72082,52.52328]},"properties":{"type":"charge","layer":"passenger","locationId":"ad66dbf8-7a3d-11ea-b379-42010a840fe3","name":"Shell Recharge NL De Oost 8 Dronten","address":"De Oost 8","city":"Dronten","operatorName":"Ubitricity","maxPowerKw":22,"isMegawatt":false,"status":"AVAILABLE","source":"ndw","priceKwh":0.39}},{"type":"Feature","geometry":{"type":"Point","coordinates":[5.710077,52.530782]},"properties":{"type":"charge","layer":"passenger","locationId":"08e32182-b35d-11ef-92e5-42010aa400b8","name":"Shell Recharge NL Philipsdaalder 82, Dronten","address":"Philipsdaalder 82","city":"Dronten","operatorName":"Ubitricity","maxPowerKw":22,"isMegawatt":false,"status":"AVAILABLE","source":"ndw","priceKwh":0.29}},{"type":"Feature","geometry":{"type":"Point","coordinates":[5.73059,52.52987]},"properties":{"type":"charge","layer":"passenger","locationId":"31a1f39c-4908-11ea-a489-42010a840024","name":"PP004159","address":"De Morinel 414","city":"Dronten","operatorName":"TotalEnergies","maxPowerKw":0,"isMegawatt":false,"status":"CHARGING","source":"ndw","priceKwh":0.4}},{"type":"Feature","geometry":{"type":"Point","coordinates":[5.704694,52.515568]},"properties":{"type":"charge","layer":"passenger","locationId":"5908ef2c-5ea5-11f0-b73c-42010aa400b8","name":"TNLP005980","address":"De Barrage 8","city":"Dronten","operatorName":"TotalEnergies","maxPowerKw":14,"isMegawatt":false,"status":"AVAILABLE","source":"ndw","priceKwh":0.39}},{"type":"Feature","geometry":{"type":"Point","coordinates":[5.648782,52.567398]},"properties":{"type":"charge","layer":"passenger","locationId":"8bb451f8-b064-11f0-851f-42010aa400b8","name":"TNLP007871","address":"Het Blazoen 51","city":"Swifterbant","operatorName":"TotalEnergies","maxPowerKw":14,"isMegawatt":false,"status":"AVAILABLE","source":"ndw","priceKwh":0.39}},{"type":"Feature","geometry":{"type":"Point","coordinates":[5.72206,52.51766]},"properties":{"type":"charge","layer":"passenger","locationId":"2e5f0b28-47fc-11ea-a522-42010a840fdc","name":"PP004116","address":"De Botteloef 23","city":"Dronten","operatorName":"TotalEnergies","maxPowerKw":14,"isMegawatt":false,"status":"AVAILABLE","source":"ndw","priceKwh":0.39}},{"type":"Feature","geometry":{"type":"Point","coordinates":[5.699993,52.5338]},"properties":{"type":"charge","layer":"passenger","locationId":"aa29a346-c409-11f0-9b38-42010aa400b8","name":"TNLP007485","address":"Escudo 37","city":"Dronten","operatorName":"TotalEnergies","maxPowerKw":14,"isMegawatt":false,"status":"AVAILABLE","source":"ndw","priceKwh":0.39}},{"type":"Feature","geometry":{"type":"Point","coordinates":[5.73059,52.52987]},"properties":{"type":"charge","layer":"passenger","locationId":"c2e3c7e6-bcf1-11f0-8895-42010aa400b8","name":"PP004159","address":"De Morinel 414","city":"Dronten","operatorName":"TotalEnergies","maxPowerKw":14,"isMegawatt":false,"status":"CHARGING","source":"ndw","priceKwh":0.39}},{"type":"Feature","geometry":{"type":"Point","coordinates":[5.7096102,52.5135885]},"properties":{"type":"charge","layer":"passenger","locationId":"982","name":"Shell Recharge NL De Haflinger 64","address":"De Haflinger 64","city":"Dronten","operatorName":"Ubitricity","maxPowerKw":22,"isMegawatt":false,"status":"AVAILABLE","source":"ndw","priceKwh":0.266}},{"type":"Feature","geometry":{"type":"Point","coordinates":[5.702216,52.459809]},"properties":{"type":"charge","layer":"passenger","locationId":"4757589","name":"Laadnet Kabbedijk Holding BV","address":"Ploegschaar 4","city":"Biddinghuizen","operatorName":"Laadnet","maxPowerKw":22,"isMegawatt":false,"status":"CHARGING","source":"ndw"}},{"type":"Feature","geometry":{"type":"Point","coordinates":[5.709752,52.511]},"properties":{"type":"charge","layer":"passenger","locationId":"6544d4146b8c9c001cffebb8","name":"Shell Recharge - Van Staveren","address":"De Zuid 41","city":"Dronten","operatorName":"E-Flux by Road","maxPowerKw":150,"isMegawatt":false,"status":"AVAILABLE","source":"ndw","priceKwh":0.68}},{"type":"Feature","geometry":{"type":"Point","coordinates":[5.68229,52.53624]},"properties":{"type":"charge","layer":"passenger","locationId":"4217e6ea-c275-11f0-8f47-42010aa400b8","name":"PP004158","address":"Popart 51","city":"Dronten","operatorName":"TotalEnergies","maxPowerKw":14,"isMegawatt":false,"status":"AVAILABLE","source":"ndw","priceKwh":0.39}},{"type":"Feature","geometry":{"type":"Point","coordinates":[5.705694,52.53893]},"properties":{"type":"charge","layer":"passenger","locationId":"3845324","name":"Laadnet Frieteria BV","address":"De Dommel 2","city":"Dronten","operatorName":"Laadnet","maxPowerKw":22,"isMegawatt":false,"status":"AVAILABLE","source":"ndw"}},{"type":"Feature","geometry":{"type":"Point","coordinates":[5.636242,52.569243]},"properties":{"type":"charge","layer":"passenger","locationId":"0714b686-e3b8-11eb-b52d-42010a84000f","name":"TNLP006390","address":"Noordhoren 13","city":"Swifterbant","operatorName":"TotalEnergies","maxPowerKw":14,"isMegawatt":false,"status":"AVAILABLE","source":"ndw","priceKwh":0.39}},{"type":"Feature","geometry":{"type":"Point","coordinates":[5.695082,52.53303]},"properties":{"type":"charge","layer":"passenger","locationId":"1e1a47ae-2cc9-11ee-9349-42010aa40fc0","name":"TNLP009258","address":"Mark 6","city":"Dronten","operatorName":"TotalEnergies","maxPowerKw":14,"isMegawatt":false,"status":"AVAILABLE","source":"ndw","priceKwh":0.39}},{"type":"Feature","geometry":{"type":"Point","coordinates":[5.694522,52.452879]},"properties":{"type":"charge","layer":"passenger","locationId":"3a0591f4-c144-11ec-819b-42010a840fc0","name":"TNLP007275","address":"Koolzaadhof 144","city":"Biddinghuizen","operatorName":"TotalEnergies","maxPowerKw":17,"isMegawatt":false,"status":"AVAILABLE","source":"ndw","priceKwh":0.39}},{"type":"Feature","geometry":{"type":"Point","coordinates":[5.69643,52.454166]},"properties":{"type":"charge","layer":"passenger","locationId":"7b89f89e-c272-11f0-aae5-42010aa400b8","name":"TNLP006257","address":"De Zaaiviool 2","city":"Biddinghuizen","operatorName":"TotalEnergies","maxPowerKw":14,"isMegawatt":false,"status":"AVAILABLE","source":"ndw","priceKwh":0.39}},{"type":"Feature","geometry":{"type":"Point","coordinates":[5.727322,52.528914]},"properties":{"type":"charge","layer":"passenger","locationId":"aceeab64-e5a5-11ef-90cc-42010aa400b8","name":"TNLP009858","address":"De Oeverloper 265","city":"Dronten","operatorName":"TotalEnergies","maxPowerKw":17,"isMegawatt":false,"status":"AVAILABLE","source":"ndw","priceKwh":0.3}},{"type":"Feature","geometry":{"type":"Point","coordinates":[5.681902,52.535326]},"properties":{"type":"charge","layer":"passenger","locationId":"fb5c625a-324b-11ee-a87e-42010aa40fc0","name":"TNLP009219","address":"Cobra 30","city":"Dronten","operatorName":"TotalEnergies","maxPowerKw":14,"isMegawatt":false,"status":"AVAILABLE","source":"ndw","priceKwh":0.39}},{"type":"Feature","geometry":{"type":"Point","coordinates":[5.723353,52.530387]},"properties":{"type":"charge","layer":"passenger","locationId":"8be42608-756d-11f0-a628-42010aa400b8","name":"TNLP006340","address":"De Grutto 47","city":"Dronten","operatorName":"TotalEnergies","maxPowerKw":14,"isMegawatt":false,"status":"AVAILABLE","source":"ndw","priceKwh":0.39}},{"type":"Feature","geometry":{"type":"Point","coordinates":[5.693373,52.538445]},"properties":{"type":"charge","layer":"passenger","locationId":"c19a974c-7ef5-11ea-ab1c-42010a840fc7","name":"PP005124","address":"Zeilenmakersgilde 46","city":"Dronten","operatorName":"TotalEnergies","maxPowerKw":14,"isMegawatt":false,"status":"AVAILABLE","source":"ndw","priceKwh":0.39}},{"type":"Feature","geometry":{"type":"Point","coordinates":[5.7246,52.51657]},"properties":{"type":"charge","layer":"passenger","locationId":"1b6b502c-d548-11ec-8a43-42010a840003","name":"PP004333","address":"Het Toplicht 15","city":"Dronten","operatorName":"TotalEnergies","maxPowerKw":14,"isMegawatt":false,"status":"CHARGING","source":"ndw","priceKwh":0.39}},{"type":"Feature","geometry":{"type":"Point","coordinates":[5.688371,52.536737]},"properties":{"type":"charge","layer":"passenger","locationId":"576f517e-bc29-11f0-ace8-42010aa400b8","name":"PP005385","address":"Tinnegietersgilde 21","city":"Dronten","operatorName":"TotalEnergies","maxPowerKw":14,"isMegawatt":false,"status":"AVAILABLE","source":"ndw","priceKwh":0.39}},{"type":"Feature","geometry":{"type":"Point","coordinates":[5.7049446,52.4529918]},"properties":{"type":"charge","layer":"passenger","locationId":"1929","name":"Shell Recharge NL Hemsink 35","address":"Hemsink 35","city":"Biddinghuizen","operatorName":"Ubitricity","maxPowerKw":22,"isMegawatt":false,"status":"AVAILABLE","source":"ndw","priceKwh":0.266}},{"type":"Feature","geometry":{"type":"Point","coordinates":[5.722477,52.511167]},"properties":{"type":"charge","layer":"passenger","locationId":"3D6D55CD-0E05-4A6E-B37C-349AF52A016D","name":"TNLP007490","address":"Rozemarijn 113","city":"Dronten","operatorName":"TotalEnergies","maxPowerKw":14,"isMegawatt":false,"status":"AVAILABLE","source":"ndw"}},{"type":"Feature","geometry":{"type":"Point","coordinates":[5.686508,52.540678]},"properties":{"type":"charge","layer":"passenger","locationId":"674e0862-c271-11f0-8cbd-42010aa400b8","name":"TNLP005802","address":"Troffel 14","city":"Dronten","operatorName":"TotalEnergies","maxPowerKw":14,"isMegawatt":false,"status":"AVAILABLE","source":"ndw","priceKwh":0.39}},{"type":"Feature","geometry":{"type":"Point","coordinates":[5.723927,52.528877]},"properties":{"type":"charge","layer":"passenger","locationId":"e985458c-c6d0-11ee-8b80-42010aa40fc0","name":"TNLP008832","address":"De Oeverloper 101","city":"Dronten","operatorName":"TotalEnergies","maxPowerKw":14,"isMegawatt":false,"status":"UNAVAILABLE","source":"ndw","priceKwh":0.39}},{"type":"Feature","geometry":{"type":"Point","coordinates":[5.72082,52.52328]},"properties":{"type":"charge","layer":"passenger","locationId":"1481","name":"Shell Recharge NL De Oost 8","address":"De Oost 8","city":"Dronten","operatorName":"Ubitricity","maxPowerKw":22,"isMegawatt":false,"status":"AVAILABLE","source":"ndw","priceKwh":0.388}},{"type":"Feature","geometry":{"type":"Point","coordinates":[5.64343,52.5709]},"properties":{"type":"charge","layer":"passenger","locationId":"189b9a36-fb76-11ee-961e-42010aa400b8","name":"TNLP015350","address":"Zuidsingel 106","city":"Swifterbant","operatorName":"TotalEnergies","maxPowerKw":14,"isMegawatt":false,"status":"AVAILABLE","source":"ndw","priceKwh":0.39}},{"type":"Feature","geometry":{"type":"Point","coordinates":[5.702124,52.453596]},"properties":{"type":"charge","layer":"passenger","locationId":"29de1dc2-b778-11f0-881b-42010aa400b8","name":"TNLP007775","address":"Harenberg 22","city":"Biddinghuizen","operatorName":"TotalEnergies","maxPowerKw":14,"isMegawatt":false,"status":"AVAILABLE","source":"ndw","priceKwh":0.39}},{"type":"Feature","geometry":{"type":"Point","coordinates":[5.72537,52.52886]},"properties":{"type":"charge","layer":"passenger","locationId":"359b58f8-ebaa-11eb-8bc0-42010a840027","name":"TNLP006110","address":"De Oeverloper 177","city":"Dronten","operatorName":"TotalEnergies","maxPowerKw":14,"isMegawatt":false,"status":"AVAILABLE","source":"ndw","priceKwh":0.39}},{"type":"Feature","geometry":{"type":"Point","coordinates":[5.712702,52.529892]},"properties":{"type":"charge","layer":"passenger","locationId":"363f953a-1e0b-11ef-871d-42010aa400b8","name":"TNLP008878","address":"Peterhof 55","city":"Dronten","operatorName":"TotalEnergies","maxPowerKw":14,"isMegawatt":false,"status":"CHARGING","source":"ndw","priceKwh":0.39}},{"type":"Feature","geometry":{"type":"Point","coordinates":[5.716592,52.519879]},"properties":{"type":"charge","layer":"passenger","locationId":"5a01701a-5f4e-11ed-96fc-42010aa40040","name":"TNLP007681","address":"Stuurboord 3","city":"Dronten","operatorName":"TotalEnergies","maxPowerKw":14,"isMegawatt":false,"status":"AVAILABLE","source":"ndw","priceKwh":0.39}},{"type":"Feature","geometry":{"type":"Point","coordinates":[5.684894,52.535382]},"properties":{"type":"charge","layer":"passenger","locationId":"83af9ef6-c6d0-11ee-802d-42010aa40fc0","name":"TNLP008808","address":"De Ontmoeting 2","city":"Dronten","operatorName":"TotalEnergies","maxPowerKw":14,"isMegawatt":false,"status":"AVAILABLE","source":"ndw","priceKwh":0.39}},{"type":"Feature","geometry":{"type":"Point","coordinates":[5.687124,52.5358]},"properties":{"type":"charge","layer":"passenger","locationId":"a4f64494-0e43-11ed-bc0d-42010aa40017","name":"TNLP007484","address":"De Molen 14","city":"Dronten","operatorName":"TotalEnergies","maxPowerKw":14,"isMegawatt":false,"status":"AVAILABLE","source":"ndw","priceKwh":0.39}},{"type":"Feature","geometry":{"type":"Point","coordinates":[5.725574,52.518267]},"properties":{"type":"charge","layer":"passenger","locationId":"e9c95d98-a149-11ec-ae60-42010a84001f","name":"TNLP007066","address":"De Killick 32","city":"Dronten","operatorName":"TotalEnergies","maxPowerKw":14,"isMegawatt":false,"status":"AVAILABLE","source":"ndw","priceKwh":0.39}},{"type":"Feature","geometry":{"type":"Point","coordinates":[5.724556,52.530252]},"properties":{"type":"charge","layer":"passenger","locationId":"16b98180-8782-11f0-bcd7-42010aa400b8","name":"TNLP034145","address":"De Morinel 158","city":"Dronten","operatorName":"TotalEnergies","maxPowerKw":14,"isMegawatt":false,"status":"CHARGING","source":"ndw","priceKwh":0.3}},{"type":"Feature","geometry":{"type":"Point","coordinates":[5.72738,52.51368]},"properties":{"type":"charge","layer":"passenger","locationId":"1cfd9b8e-471f-11ea-bd63-42010a840017","name":"PP004110","address":"Mergelland 33","city":"Dronten","operatorName":"TotalEnergies","maxPowerKw":14,"isMegawatt":false,"status":"AVAILABLE","source":"ndw","priceKwh":0.39}},{"type":"Feature","geometry":{"type":"Point","coordinates":[5.68093,52.5399]},"properties":{"type":"charge","layer":"passenger","locationId":"76c6aec4-0335-11ed-a7aa-42010aa40fc0","name":"TNLP005904","address":"Wijnverlater 1","city":"Dronten","operatorName":"TotalEnergies","maxPowerKw":14,"isMegawatt":false,"status":"AVAILABLE","source":"ndw","priceKwh":0.39}},{"type":"Feature","geometry":{"type":"Point","coordinates":[5.727686,52.525261]},"properties":{"type":"charge","layer":"passenger","locationId":"a40bf27a-aed3-11f0-ac1f-42010aa400b8","name":"TNLP034130","address":"Het Zenit 2","city":"Dronten","operatorName":"TotalEnergies","maxPowerKw":14,"isMegawatt":false,"status":"AVAILABLE","source":"ndw","priceKwh":0.3}},{"type":"Feature","geometry":{"type":"Point","coordinates":[5.685508,52.532446]},"properties":{"type":"charge","layer":"passenger","locationId":"f12156e8-82ca-11f0-ad3b-42010aa400b8","name":"TNLP008925","address":"Jeroen Boschstraat 17","city":"Dronten","operatorName":"TotalEnergies","maxPowerKw":14,"isMegawatt":false,"status":"AVAILABLE","source":"ndw","priceKwh":0.39}},{"type":"Feature","geometry":{"type":"Point","coordinates":[5.722181,52.521812]},"properties":{"type":"charge","layer":"passenger","locationId":"028d0f8a-82d0-11f0-a2ae-42010aa400b8","name":"TNLP034120","address":"Kombuisstraat 18","city":"Dronten","operatorName":"TotalEnergies","maxPowerKw":14,"isMegawatt":false,"status":"AVAILABLE","source":"ndw","priceKwh":0.3}},{"type":"Feature","geometry":{"type":"Point","coordinates":[5.722477,52.511167]},"properties":{"type":"charge","layer":"passenger","locationId":"a4c5ec18-0e43-11ed-a250-42010aa40029","name":"TNLP007490","address":"Rozemarijn 113","city":"Dronten","operatorName":"TotalEnergies","maxPowerKw":14,"isMegawatt":false,"status":"AVAILABLE","source":"ndw","priceKwh":0.39}},{"type":"Feature","geometry":{"type":"Point","coordinates":[5.720845,52.519912]},"properties":{"type":"charge","layer":"passenger","locationId":"966a14f8-1a13-11eb-b869-42010a84002a","name":"PP005587","address":"Ankerstraat 3","city":"Dronten","operatorName":"TotalEnergies","maxPowerKw":14,"isMegawatt":false,"status":"AVAILABLE","source":"ndw","priceKwh":0.39}},{"type":"Feature","geometry":{"type":"Point","coordinates":[5.725325,52.5273]},"properties":{"type":"charge","layer":"passenger","locationId":"d03a7026-8073-11f0-9e82-42010aa400b8","name":"TNLP007070","address":"Het Noorderlicht 4","city":"Dronten","operatorName":"TotalEnergies","maxPowerKw":14,"isMegawatt":false,"status":"AVAILABLE","source":"ndw","priceKwh":0.39}},{"type":"Feature","geometry":{"type":"Point","coordinates":[5.694363,52.550393]},"properties":{"type":"charge","layer":"passenger","locationId":"609934701ecae6e7be05d009","name":"NXT Charge - Dronten - Koornmarktpoort 1 - DC","address":"Koornmarktpoort 1","city":"Dronten","operatorName":"NXT Charging Solutions","maxPowerKw":320,"isMegawatt":false,"status":"AVAILABLE","source":"ndw","priceKwh":0.63}},{"type":"Feature","geometry":{"type":"Point","coordinates":[5.696168,52.448384]},"properties":{"type":"charge","layer":"passenger","locationId":"1820729","name":"Laadnet Veron","address":"Zonneweide 18","city":"Biddinghuizen","operatorName":"Laadnet","maxPowerKw":22,"isMegawatt":false,"status":"AVAILABLE","source":"ndw"}},{"type":"Feature","geometry":{"type":"Point","coordinates":[5.691706,52.456055]},"properties":{"type":"charge","layer":"passenger","locationId":"6203a0af55d9668f5a21b1de","name":"MFG2 De Binding1","address":"Akkerhof 3a","city":"Biddinghuizen","operatorName":"E-Flux by Road","maxPowerKw":22,"isMegawatt":false,"status":"AVAILABLE","source":"ndw","priceKwh":0.5}},{"type":"Feature","geometry":{"type":"Point","coordinates":[5.69643,52.454166]},"properties":{"type":"charge","layer":"passenger","locationId":"84e6c8e5-e181-4daa-a46e-c99651543bb8","name":"TNLP006257","address":"De Zaaiviool 2","city":"Biddinghuizen","operatorName":"TotalEnergies","maxPowerKw":14,"isMegawatt":false,"status":"AVAILABLE","source":"ndw"}},{"type":"Feature","geometry":{"type":"Point","coordinates":[5.758641,52.438817]},"properties":{"type":"charge","layer":"passenger","locationId":"2652145","name":"Laadnet Walibi Holland BV - Attractiepark","address":"Spijkweg 30","city":"Biddinghuizen","operatorName":"Laadnet","maxPowerKw":22,"isMegawatt":false,"status":"AVAILABLE","source":"ndw"}},{"type":"Feature","geometry":{"type":"Point","coordinates":[5.702626,52.540932]},"properties":{"type":"charge","layer":"passenger","locationId":"03B9492F-5730-4F86-BE69-F4EF7847D44A","name":"Eneco eMobility Topa Thermal Packaging B.V. - De Regge 5 - Dronten","address":"De Regge 5","city":"Dronten","operatorName":"Eneco","maxPowerKw":11,"isMegawatt":false,"status":"AVAILABLE","source":"ndw","priceKwh":0.32}},{"type":"Feature","geometry":{"type":"Point","coordinates":[5.627583,52.582582]},"properties":{"type":"charge","layer":"passenger","locationId":"62c57f761b2119ea1e868b7b","name":"Shortgolf station paal 1","address":"Rivierduinweg  9","city":"Swifterbant","operatorName":"E-Flux by Road","maxPowerKw":11,"isMegawatt":false,"status":"AVAILABLE","source":"ndw","priceKwh":0.43}},{"type":"Feature","geometry":{"type":"Point","coordinates":[5.64376,52.389132]},"properties":{"type":"charge","layer":"passenger","locationId":"64770aaebc22e8001c9c8363","name":"WSV De Harder","address":"Harderdijk 5","city":"Biddinghuizen","operatorName":"E-Flux by Road","maxPowerKw":22,"isMegawatt":false,"status":"AVAILABLE","source":"ndw","priceKwh":0.43}},{"type":"Feature","geometry":{"type":"Point","coordinates":[5.693373,52.538445]},"properties":{"type":"charge","layer":"passenger","locationId":"d7176058-ff5c-445a-97ad-e66279ceb8b5","name":"PP005124","address":"Zeilenmakersgilde 46","city":"Dronten","operatorName":"TotalEnergies","maxPowerKw":14,"isMegawatt":false,"status":"CHARGING","source":"ndw"}},{"type":"Feature","geometry":{"type":"Point","coordinates":[5.724556,52.530252]},"properties":{"type":"charge","layer":"passenger","locationId":"ffe046c8-bf39-4fd6-b50a-e7e7e41df201","name":"TNLP034145","address":"De Morinel 158","city":"Dronten","operatorName":"TotalEnergies","maxPowerKw":14,"isMegawatt":false,"status":"AVAILABLE","source":"ndw"}},{"type":"Feature","geometry":{"type":"Point","coordinates":[5.722181,52.521812]},"properties":{"type":"charge","layer":"passenger","locationId":"3511de03-bd9c-442b-ac59-91ca9ab46159","name":"TNLP034120","address":"Kombuisstraat 18","city":"Dronten","operatorName":"TotalEnergies","maxPowerKw":14,"isMegawatt":false,"status":"AVAILABLE","source":"ndw"}},{"type":"Feature","geometry":{"type":"Point","coordinates":[5.723901,52.51035]},"properties":{"type":"charge","layer":"passenger","locationId":"651c255384b996001f45ce9b","name":"Venkel","address":"Venkel 33","city":"Dronten","operatorName":"E-Flux by Road","maxPowerKw":11,"isMegawatt":false,"status":"AVAILABLE","source":"ndw","priceKwh":0.38}},{"type":"Feature","geometry":{"type":"Point","coordinates":[5.691706,52.456055]},"properties":{"type":"charge","layer":"passenger","locationId":"6203c61b1fd5750602215ecb","name":"MFG2 De Binding3","address":"Akkerhof 3a","city":"Biddinghuizen","operatorName":"E-Flux by Road","maxPowerKw":22,"isMegawatt":false,"status":"AVAILABLE","source":"ndw","priceKwh":0.5}},{"type":"Feature","geometry":{"type":"Point","coordinates":[5.691706,52.456055]},"properties":{"type":"charge","layer":"passenger","locationId":"6203a227474f77289d2eff19","name":"MFG2 De Binding2","address":"Akkerhof 3a","city":"Biddinghuizen","operatorName":"E-Flux by Road","maxPowerKw":22,"isMegawatt":false,"status":"AVAILABLE","source":"ndw","priceKwh":0.5}},{"type":"Feature","geometry":{"type":"Point","coordinates":[5.622975,52.588092]},"properties":{"type":"charge","layer":"passenger","locationId":"646f62961a4d06001c555825","name":"Rivierduinweg 5","address":"Rivierduinweg  5a","city":"Swifterbant","operatorName":"E-Flux by Road","maxPowerKw":22,"isMegawatt":false,"status":"AVAILABLE","source":"ndw","priceKwh":0.66}},{"type":"Feature","geometry":{"type":"Point","coordinates":[5.648782,52.567398]},"properties":{"type":"charge","layer":"passenger","locationId":"FB034C93-F0CF-4FFD-B64F-FA7C0685A712","name":"TNLP007871","address":"Het Blazoen 51","city":"Swifterbant","operatorName":"TotalEnergies","maxPowerKw":14,"isMegawatt":false,"status":"AVAILABLE","source":"ndw"}},{"type":"Feature","geometry":{"type":"Point","coordinates":[5.704694,52.515568]},"properties":{"type":"charge","layer":"passenger","locationId":"ced7e093-72fd-49cd-ade0-6476a1517416","name":"TNLP005980","address":"De Barrage 8","city":"Dronten","operatorName":"TotalEnergies","maxPowerKw":14,"isMegawatt":false,"status":"AVAILABLE","source":"ndw"}},{"type":"Feature","geometry":{"type":"Point","coordinates":[5.702124,52.453596]},"properties":{"type":"charge","layer":"passenger","locationId":"8F2084C5-90C4-4CC3-B5D1-69A225AB98B7","name":"TNLP007775","address":"Harenberg 22","city":"Biddinghuizen","operatorName":"TotalEnergies","maxPowerKw":14,"isMegawatt":false,"status":"AVAILABLE","source":"ndw"}},{"type":"Feature","geometry":{"type":"Point","coordinates":[5.720362,52.525352]},"properties":{"type":"charge","layer":"passenger","locationId":"e7f39e962fea983fcfe32295da76d179","name":"Het Tussendek 1","address":"Het Tussendek 1","city":"Dronten","operatorName":"Vattenfall InCharge","maxPowerKw":11,"isMegawatt":false,"status":"AVAILABLE","source":"ndw"}},{"type":"Feature","geometry":{"type":"Point","coordinates":[5.686508,52.540678]},"properties":{"type":"charge","layer":"passenger","locationId":"343003ac-0de3-429f-a10d-a800ae384c28","name":"TNLP005802","address":"Troffel 14","city":"Dronten","operatorName":"TotalEnergies","maxPowerKw":14,"isMegawatt":false,"status":"AVAILABLE","source":"ndw"}},{"type":"Feature","geometry":{"type":"Point","coordinates":[5.6883995,52.5404999]},"properties":{"type":"charge","layer":"passenger","locationId":"2093","name":"Shell Recharge NL Zeilenmakersgilde 103","address":"Zeilenmakersgilde 103","city":"Dronten","operatorName":"Ubitricity","maxPowerKw":22,"isMegawatt":false,"status":"AVAILABLE","source":"ndw","priceKwh":0.266}},{"type":"Feature","geometry":{"type":"Point","coordinates":[5.810176,52.456079]},"properties":{"type":"charge","layer":"passenger","locationId":"66682a5871964c001cadd5c5","name":"Restaurant Beachclub NU","address":"Bremerbergdijk 10","city":"Biddinghuizen","operatorName":"Pluq","maxPowerKw":10,"isMegawatt":false,"status":"AVAILABLE","source":"ndw","priceKwh":0.35}},{"type":"Feature","geometry":{"type":"Point","coordinates":[5.720681,52.536245]},"properties":{"type":"charge","layer":"passenger","locationId":"3967145","name":"Laadnet Installatieweg 36","address":"Installatieweg 36","city":"Dronten","operatorName":"Laadnet","maxPowerKw":22,"isMegawatt":false,"status":"AVAILABLE","source":"ndw"}},{"type":"Feature","geometry":{"type":"Point","coordinates":[5.636242,52.569243]},"properties":{"type":"charge","layer":"passenger","locationId":"48e613c9-54e4-4dbe-82aa-6bbb6a0494d5","name":"TNLP006390","address":"Noordhoren 13","city":"Swifterbant","operatorName":"TotalEnergies","maxPowerKw":14,"isMegawatt":false,"status":"AVAILABLE","source":"ndw"}},{"type":"Feature","geometry":{"type":"Point","coordinates":[5.717661,52.540758]},"properties":{"type":"charge","layer":"passenger","locationId":"6a0ab5af650fae12c76e690f","name":"Moerdijk Vastgoed","address":"Pioniersweg  50","city":"Dronten","operatorName":"E-Flux by Road","maxPowerKw":22,"isMegawatt":false,"status":"AVAILABLE","source":"ndw","priceKwh":0.4}},{"type":"Feature","geometry":{"type":"Point","coordinates":[5.722486,52.514427]},"properties":{"type":"charge","layer":"passenger","locationId":"9786488d-d1c6-42f8-b7cc-8b70c8daac38","name":"PP005126","address":"Lancasterdreef 44","city":"Dronten","operatorName":"TotalEnergies","maxPowerKw":14,"isMegawatt":false,"status":"AVAILABLE","source":"ndw"}},{"type":"Feature","geometry":{"type":"Point","coordinates":[5.695095,52.537526]},"properties":{"type":"charge","layer":"passenger","locationId":"c97d6f969d0252f8b9a7b2d321b1669a","name":"Beursstraat 14","address":"Beursstraat 14","city":"Dronten","operatorName":"Vattenfall InCharge","maxPowerKw":11,"isMegawatt":false,"status":"AVAILABLE","source":"ndw"}},{"type":"Feature","geometry":{"type":"Point","coordinates":[5.64343,52.5709]},"properties":{"type":"charge","layer":"passenger","locationId":"76FAC565-412D-4154-BDA5-5D9618AF5B4B","name":"TNLP015350","address":"Zuidsingel 106","city":"Swifterbant","operatorName":"TotalEnergies","maxPowerKw":14,"isMegawatt":false,"status":"AVAILABLE","source":"ndw"}},{"type":"Feature","geometry":{"type":"Point","coordinates":[5.6437988,52.5644043]},"properties":{"type":"charge","layer":"passenger","locationId":"1938","name":"Shell Recharge NL Margrietenlaan 20","address":"Margrietenlaan 20","city":"Swifterbant","operatorName":"Ubitricity","maxPowerKw":22,"isMegawatt":false,"status":"AVAILABLE","source":"ndw","priceKwh":0.266}},{"type":"Feature","geometry":{"type":"Point","coordinates":[5.694522,52.452879]},"properties":{"type":"charge","layer":"passenger","locationId":"15a21125-1efe-457e-b1f4-d675ee86b9ac","name":"TNLP007275","address":"Koolzaadhof 144","city":"Biddinghuizen","operatorName":"TotalEnergies","maxPowerKw":17,"isMegawatt":false,"status":"AVAILABLE","source":"ndw"}},{"type":"Feature","geometry":{"type":"Point","coordinates":[5.709198,52.497538]},"properties":{"type":"charge","layer":"passenger","locationId":"66683b1a1481df001c99645e","name":"Golfclub dronten","address":"De Pan 2","city":"Dronten","operatorName":"Pluq","maxPowerKw":20,"isMegawatt":false,"status":"AVAILABLE","source":"ndw","priceKwh":0.41}},{"type":"Feature","geometry":{"type":"Point","coordinates":[5.707273,52.543982]},"properties":{"type":"charge","layer":"passenger","locationId":"4215517","name":"Laadnet Concordia Dronten","address":"De Aar 59","city":"Dronten","operatorName":"Laadnet","maxPowerKw":22,"isMegawatt":false,"status":"AVAILABLE","source":"ndw"}},{"type":"Feature","geometry":{"type":"Point","coordinates":[5.72065,52.51332]},"properties":{"type":"charge","layer":"passenger","locationId":"b693711a612374499a3ac508d046a513","name":"Wardhof 22","address":"Wardhof 22","city":"Dronten","operatorName":"Vattenfall InCharge","maxPowerKw":11,"isMegawatt":false,"status":"AVAILABLE","source":"ndw"}},{"type":"Feature","geometry":{"type":"Point","coordinates":[5.645195,52.55891]},"properties":{"type":"charge","layer":"passenger","locationId":"1dbfc6928f7f958d7cb4d979a2ce8829","name":"Bloemenzoom 156","address":"Bloemenzoom 156","city":"Swifterbant","operatorName":"Vattenfall InCharge","maxPowerKw":11,"isMegawatt":false,"status":"AVAILABLE","source":"ndw"}},{"type":"Feature","geometry":{"type":"Point","coordinates":[5.627583,52.582582]},"properties":{"type":"charge","layer":"passenger","locationId":"62c581c966d7ca0185e1929b","name":"Shortgolf station paal 2","address":"Rivierduinweg 9","city":"Swifterbant","operatorName":"E-Flux by Road","maxPowerKw":11,"isMegawatt":false,"status":"AVAILABLE","source":"ndw","priceKwh":0.43}},{"type":"Feature","geometry":{"type":"Point","coordinates":[5.707348,52.539041]},"properties":{"type":"charge","layer":"passenger","locationId":"67fe57cc0fc3b418e35d8d07","name":"Safebox mini opslagruimte","address":"De Dieze 6","city":"Dronten","operatorName":"E-Flux by Road","maxPowerKw":22,"isMegawatt":false,"status":"AVAILABLE","source":"ndw","priceKwh":0.42}},{"type":"Feature","geometry":{"type":"Point","coordinates":[5.704839,52.532189]},"properties":{"type":"charge","layer":"passenger","locationId":"59ED8FDA-BE41-47A8-B627-C18B707CD966","name":"TNLP007796","address":"Dukaat 15","city":"Dronten","operatorName":"TotalEnergies","maxPowerKw":14,"isMegawatt":false,"status":"AVAILABLE","source":"ndw"}},{"type":"Feature","geometry":{"type":"Point","coordinates":[5.684894,52.535382]},"properties":{"type":"charge","layer":"passenger","locationId":"870D23AE-EBE8-4FEE-94FD-A7D6B33D8DE0","name":"TNLP008808","address":"De Ontmoeting 2","city":"Dronten","operatorName":"TotalEnergies","maxPowerKw":14,"isMegawatt":false,"status":"AVAILABLE","source":"ndw"}},{"type":"Feature","geometry":{"type":"Point","coordinates":[5.694056,52.453746]},"properties":{"type":"charge","layer":"passenger","locationId":"048b90ef4621d6c78580e28bd673db08","name":"Dreef 18","address":"Dreef 18","city":"Biddinghuizen","operatorName":"Vattenfall InCharge","maxPowerKw":11,"isMegawatt":false,"status":"AVAILABLE","source":"ndw"}},{"type":"Feature","geometry":{"type":"Point","coordinates":[5.709731,52.511015]},"properties":{"type":"charge","layer":"passenger","locationId":"6544d2b1d08e05001cd168e7","name":"Shell Recharge - Van Staveren","address":"De Zuid  41","city":"Dronten","operatorName":"E-Flux by Road","maxPowerKw":150,"isMegawatt":false,"status":"AVAILABLE","source":"ndw","priceKwh":0.68}},{"type":"Feature","geometry":{"type":"Point","coordinates":[5.636297,52.405895]},"properties":{"type":"charge","layer":"passenger","locationId":"67b5f8dd29faf7f35b088efd","name":"62105 Flevoland - Werkschuur Harderbos","address":"Mosselweg 34","city":"Biddinghuizen","operatorName":"E-Flux by Road","maxPowerKw":11,"isMegawatt":false,"status":"AVAILABLE","source":"ndw","priceKwh":0.43}},{"type":"Feature","geometry":{"type":"Point","coordinates":[5.703153,52.546637]},"properties":{"type":"charge","layer":"passenger","locationId":"68d64f50317606c1254f917e","name":"Planvisie Dronten","address":"Koornmarktpoort 23","city":"DRONTEN","operatorName":"Tanx","maxPowerKw":11,"isMegawatt":false,"status":"AVAILABLE","source":"ndw","priceKwh":0.43}},{"type":"Feature","geometry":{"type":"Point","coordinates":[5.6875403,52.5337885]},"properties":{"type":"charge","layer":"passenger","locationId":"2268","name":"Shell Recharge NL Rembrandt van Rijnstraat 36","address":"Rembrandt van Rijnstraat 36","city":"Dronten","operatorName":"Ubitricity","maxPowerKw":22,"isMegawatt":false,"status":"AVAILABLE","source":"ndw","priceKwh":0.266}},{"type":"Feature","geometry":{"type":"Point","coordinates":[5.727322,52.528914]},"properties":{"type":"charge","layer":"passenger","locationId":"eac526a0-fae9-4e2e-a38d-4d7f60a239f8","name":"TNLP009858","address":"De Oeverloper 265","city":"Dronten","operatorName":"TotalEnergies","maxPowerKw":17,"isMegawatt":false,"status":"AVAILABLE","source":"ndw"}},{"type":"Feature","geometry":{"type":"MultiPolygon","coordinates":[[[[5.759878788168456,52.579613232097806],[5.760894875246359,52.581553850725946],[5.7639607690373404,52.58120631499483],[5.761432030329888,52.58108242325963],[5.761031936471882,52.57933341773217],[5.767412773865037,52.57929700319025],[5.783385432099926,52.5798192410575],[5.8039968775045185,52.57968166356063],[5.809015330026964,52.578936646846984],[5.812824604048416,52.57746338340576],[5.851729369782628,52.55121853142321],[5.853837642600454,52.54721038119689],[5.854957255933449,52.54508150931231],[5.855423833412881,52.54561935047214],[5.855751376309465,52.54615335170417],[5.856039909518055,52.546152504033],[5.855814262224054,52.54524609726705],[5.856271779008552,52.54513670062481],[5.856509809023955,52.54585014090859],[5.857015226928977,52.545870197644845],[5.857602269065899,52.54565040343671],[5.857722815446794,52.54518145140982],[5.857871083144972,52.54460458608449],[5.856951893566681,52.544027237446656],[5.8567581955128345,52.54436537043153],[5.856560308961497,52.544710807477145],[5.856156450123066,52.54478850320359],[5.855542941265237,52.5445872080407],[5.855688451040447,52.54410607412756],[5.856600991251774,52.54381151937594],[5.856083812703926,52.54351214063054],[5.8556372067817835,52.54382595897373],[5.855285089978662,52.54380068703165],[5.854981572091728,52.54304106399374],[5.856819827037893,52.520374787713564],[5.857526369223494,52.520202450285936],[5.857526638115002,52.51919267015847],[5.856914823921483,52.51920280605828],[5.856996411320158,52.518196216575845],[5.855467436500962,52.51684602422795],[5.852772485904277,52.50888667810549],[5.852981425837773,52.505980122852755],[5.847549306171771,52.49345184458593],[5.816112750678877,52.45885134190388],[5.816386126856767,52.45770900740094],[5.817418851804205,52.457302164609274],[5.817378415296422,52.457255541320166],[5.816291093667449,52.457606885013796],[5.815162959002523,52.45636097323032],[5.8144515487217525,52.456732447145114],[5.812332852089079,52.456624310903614],[5.803779326853753,52.445857390149634],[5.802718225443507,52.44620309468572],[5.799844671511646,52.44145569948294],[5.797274222628752,52.43962065360867],[5.797059667780321,52.438832367953516],[5.781334298491706,52.43088817331536],[5.7779115617214325,52.428335728226145],[5.7757818482005785,52.427907916883555],[5.7572560332072,52.418983393860664],[5.74701216352233,52.414582721471135],[5.745212527694846,52.41466059154231],[5.74460114444607,52.414050883080094],[5.744847843602678,52.41515620128677],[5.742339773755727,52.41530488736014],[5.742017476302958,52.41454462845704],[5.74381608653131,52.413747343030806],[5.74178250703938,52.41359596037844],[5.739776792588744,52.415308752010056],[5.726507797556167,52.41697229137881],[5.720113712092446,52.416135557530396],[5.661470667525403,52.397937700989914],[5.645254245545604,52.39073090111418],[5.644484062533361,52.389924008920595],[5.645163967988532,52.38923806918835],[5.643838154891346,52.389247288526235],[5.644759675574026,52.38854029099335],[5.63930589813318,52.387316974065],[5.637355333868399,52.38574334375176],[5.636710369286178,52.38618729840471],[5.635422674984866,52.38501021310797],[5.636217831046338,52.38415298057268],[5.63570104220604,52.383951053567486],[5.634544291607256,52.38478257512113],[5.632644234001627,52.384049053017954],[5.634394000820918,52.3825690985896],[5.6323050286740495,52.38391809661692],[5.625201870708161,52.38031584748052],[5.623336280240465,52.376613111845785],[5.620799572990988,52.375921562943724],[5.6161335686005724,52.37172191518379],[5.616777007604296,52.370778852382436],[5.615190513894131,52.37084104575058],[5.614735233060101,52.37056565569961],[5.614670403614233,52.37052644210737],[5.6135576784349945,52.37104269552418],[5.611852737413005,52.374687993862025],[5.6171887364192346,52.38478312931283],[5.622984181273812,52.408802017720255],[5.618401987298352,52.408568675906864],[5.5890709813511625,52.41118713392012],[5.58799919382565,52.41476678843649],[5.566637745566396,52.43586360155011],[5.573804075141165,52.43879468095164],[5.581973114961878,52.44559301653502],[5.586389490878872,52.44771113629032],[5.572780586220132,52.46244893959268],[5.565420530466413,52.47028126648099],[5.605870974146171,52.48452034342819],[5.591361371967045,52.49996426124466],[5.588147320369822,52.51339326786139],[5.58805637346431,52.51377314572076],[5.588057086744915,52.51377321011947],[5.59128127537661,52.51412299478069],[5.588313552201601,52.54918559153186],[5.587411138814164,52.56346021487157],[5.572889365628628,52.59615774911775],[5.628316298098938,52.605359238887026],[5.6415482251753994,52.61054846526152],[5.649321522552438,52.61466218033856],[5.650038280067937,52.61559391502993],[5.651210509978936,52.614766508587195],[5.6419766648968,52.60984602399295],[5.639968868841922,52.60786705519659],[5.650807483141884,52.59931843805991],[5.6547664565166995,52.59733686374732],[5.725554755979537,52.586435949788566],[5.730240583101332,52.58573080258649],[5.755709957145931,52.5818944011377],[5.756764960986326,52.58128406235935],[5.756828195434136,52.58064171284209],[5.75693309609783,52.57957608977981],[5.759878788168456,52.579613232097806]]],[[[5.858731279820051,52.51980992354878],[5.859584732036243,52.51985776560141],[5.8628590977988715,52.520906310775416],[5.86351319736006,52.520354590161205],[5.85877157473576,52.51906164045819],[5.858731279820051,52.51980992354878]]],[[[5.859212117150788,52.52040741941912],[5.858632152485074,52.524569871932684],[5.858632253744478,52.52456997128986],[5.8586423934894185,52.52457720085007],[5.860546211251856,52.52593957803722],[5.861542426933976,52.5256271967702],[5.862626951489361,52.52334528425034],[5.862052965472889,52.52185974607319],[5.860376710598802,52.521362704642435],[5.860028026823835,52.52030267366174],[5.859212117150788,52.52040741941912]]],[[[5.739593271638191,52.59102928790487],[5.7354165190267015,52.593959149904485],[5.734127825116584,52.59674875466982],[5.734842151467696,52.60228571730501],[5.741857410792924,52.60475154840785],[5.750572366298577,52.60388355568337],[5.754923589397956,52.60201836505605],[5.757928278113461,52.59075422915725],[5.756615086518448,52.58834042476321],[5.739593271638191,52.59102928790487]]]]},"properties":{"type":"boundary","gemeente":"Dronten","code":"GM0303"}}]}