{"type":"FeatureCollection","metadata":{"gemeente":"Eersel","slug":"eersel","code":"GM0770","generated_at":"2026-06-02T13:19:22.438Z","total_passenger":99,"total_freight":1,"bounds":[5.237596954230506,51.31823718499751,5.388905831906094,51.46853636782916],"operators":["DAEN Mobility","E-Flux by Road","Laadnet","Lidl","Opcharge","Pluq","Shell Recharge","Vattenfall InCharge"]},"features":[{"type":"Feature","geometry":{"type":"Point","coordinates":[5.328716,51.357862]},"properties":{"type":"charge","layer":"passenger","locationId":"4eb08bec-29b3-41cb-9a35-4cadd0dfff8a","name":"Klokstaart","address":"Klokstaart 59","city":"Eersel","operatorName":"Vattenfall InCharge","maxPowerKw":11,"isMegawatt":false,"status":"AVAILABLE","source":"ndw"}},{"type":"Feature","geometry":{"type":"Point","coordinates":[5.310229,51.359425]},"properties":{"type":"charge","layer":"passenger","locationId":"263595b2-c5ea-4d3c-b794-20485f546652","name":"Postakkers 8","address":"Postakkers 8","city":"Eersel","operatorName":"Vattenfall InCharge","maxPowerKw":11,"isMegawatt":false,"status":"AVAILABLE","source":"ndw"}},{"type":"Feature","geometry":{"type":"Point","coordinates":[5.297908,51.369792]},"properties":{"type":"charge","layer":"passenger","locationId":"a2a55a7a-d4f9-4346-a891-5b8ee3d02e1c","name":"Waterhof","address":"Waterhof 46","city":"Duizel","operatorName":"Vattenfall InCharge","maxPowerKw":11,"isMegawatt":false,"status":"AVAILABLE","source":"ndw"}},{"type":"Feature","geometry":{"type":"Point","coordinates":[5.312048,51.379125]},"properties":{"type":"charge","layer":"passenger","locationId":"923503","name":"DAE_NL_2001270 P4","address":"Meerheide 200","city":"Eersel","operatorName":"DAEN Mobility","maxPowerKw":11,"isMegawatt":false,"status":"AVAILABLE","source":"ndw"}},{"type":"Feature","geometry":{"type":"Point","coordinates":[5.287089,51.423493]},"properties":{"type":"charge","layer":"passenger","locationId":"ea8f50b6-2744-4829-832d-e2ea8e14ec9f","name":"Flinkert","address":"Flinkert 29","city":"Vessem","operatorName":"Vattenfall InCharge","maxPowerKw":11,"isMegawatt":false,"status":"AVAILABLE","source":"ndw"}},{"type":"Feature","geometry":{"type":"Point","coordinates":[5.34471,51.3989]},"properties":{"type":"charge","layer":"passenger","locationId":"0878092ead776b8a9da90258129c1a7d","name":"Den Heuvel 52","address":"Den Heuvel 52","city":"Knegsel","operatorName":"Vattenfall InCharge","maxPowerKw":11,"isMegawatt":false,"status":"AVAILABLE","source":"ndw"}},{"type":"Feature","geometry":{"type":"Point","coordinates":[5.312419,51.357009]},"properties":{"type":"charge","layer":"passenger","locationId":"851b2877-15c7-4e84-9180-2d1ead642dbe","name":"Dijk 15","address":"Dijk 15","city":"Eersel","operatorName":"Vattenfall InCharge","maxPowerKw":11,"isMegawatt":false,"status":"AVAILABLE","source":"ndw"}},{"type":"Feature","geometry":{"type":"Point","coordinates":[5.319081,51.367849]},"properties":{"type":"charge","layer":"passenger","locationId":"923221","name":"DAE_NL_2001061","address":"Brouwer 1","city":"Eersel","operatorName":"DAEN Mobility","maxPowerKw":11,"isMegawatt":false,"status":"UNAVAILABLE","source":"ndw"}},{"type":"Feature","geometry":{"type":"Point","coordinates":[5.312379,51.362559]},"properties":{"type":"charge","layer":"passenger","locationId":"7c330280-a279-4e2e-adb3-a4ae12290ec6","name":"Bospoort","address":"Bospoort 9","city":"Eersel","operatorName":"Vattenfall InCharge","maxPowerKw":11,"isMegawatt":false,"status":"AVAILABLE","source":"ndw"}},{"type":"Feature","geometry":{"type":"Point","coordinates":[5.323951,51.364291]},"properties":{"type":"charge","layer":"passenger","locationId":"510","name":"Shell Recharge NL9091 - Gamma Eersel","address":"Kuilenhurk 7","city":"Eersel","operatorName":"Shell Recharge","maxPowerKw":150,"isMegawatt":false,"status":"AVAILABLE","source":"ndw"}},{"type":"Feature","geometry":{"type":"Point","coordinates":[5.325729,51.356754]},"properties":{"type":"charge","layer":"passenger","locationId":"ed1a7790-4cb6-4663-b429-122d313813c3","name":"Gebint","address":"Gebint 99","city":"Eersel","operatorName":"Vattenfall InCharge","maxPowerKw":11,"isMegawatt":false,"status":"AVAILABLE","source":"ndw"}},{"type":"Feature","geometry":{"type":"Point","coordinates":[5.313257,51.361247]},"properties":{"type":"charge","layer":"passenger","locationId":"f9f546e2-f02f-11ed-b297-42010aa40fc0","name":"Lidl EERSEL","address":"Nieuwstraat","city":"Eersel","operatorName":"Lidl","maxPowerKw":50,"isMegawatt":false,"status":"AVAILABLE","source":"ndw"}},{"type":"Feature","geometry":{"type":"Point","coordinates":[5.324887,51.363922]},"properties":{"type":"charge","layer":"passenger","locationId":"44a38e5a-38bb-42e7-a707-37c4d8e736ba","name":"Mortel","address":"Mortel 4","city":"Eersel","operatorName":"Vattenfall InCharge","maxPowerKw":11,"isMegawatt":false,"status":"AVAILABLE","source":"ndw"}},{"type":"Feature","geometry":{"type":"Point","coordinates":[5.318265,51.356052]},"properties":{"type":"charge","layer":"passenger","locationId":"c20224fe-6771-4cf6-8436-e539327c3ebb","name":"Hoolhof","address":"Hoolhof 54","city":"Eersel","operatorName":"Vattenfall InCharge","maxPowerKw":11,"isMegawatt":false,"status":"AVAILABLE","source":"ndw"}},{"type":"Feature","geometry":{"type":"Point","coordinates":[5.315737,51.367283]},"properties":{"type":"charge","layer":"passenger","locationId":"6905c7246f28d67c8b0b3c0f","name":"Ad Kokx Witgoed","address":"Kerver 21","city":"EERSEL","operatorName":"E-Flux by Road","maxPowerKw":22,"isMegawatt":false,"status":"AVAILABLE","source":"ndw"}},{"type":"Feature","geometry":{"type":"Point","coordinates":[5.305787,51.354916]},"properties":{"type":"charge","layer":"passenger","locationId":"0917e3ef-ceb8-491a-9373-7c24254a87e6","name":"Oudland","address":"Oudland 1","city":"Eersel","operatorName":"Vattenfall InCharge","maxPowerKw":11,"isMegawatt":false,"status":"AVAILABLE","source":"ndw"}},{"type":"Feature","geometry":{"type":"Point","coordinates":[5.309672,51.359501]},"properties":{"type":"charge","layer":"passenger","locationId":"6f5a0eee8f942d55b3ee8a4a9a3acc88","name":"Markt 28","address":"Markt 28","city":"Eersel","operatorName":"Vattenfall InCharge","maxPowerKw":11,"isMegawatt":false,"status":"AVAILABLE","source":"ndw"}},{"type":"Feature","geometry":{"type":"Point","coordinates":[5.3122,51.37409]},"properties":{"type":"charge","layer":"passenger","locationId":"61e3350fe0cb458895916a4c66ae8f2d","name":"Eersel- EKB Nederland","address":" Meerheide 100R","city":"Eersel","operatorName":"Opcharge","maxPowerKw":22,"isMegawatt":false,"status":"AVAILABLE","source":"ndw"}},{"type":"Feature","geometry":{"type":"Point","coordinates":[5.312048,51.379125]},"properties":{"type":"charge","layer":"passenger","locationId":"923504","name":"DAE_NL_2001271 P5","address":"Meerheide 200","city":"Eersel","operatorName":"DAEN Mobility","maxPowerKw":11,"isMegawatt":false,"status":"AVAILABLE","source":"ndw"}},{"type":"Feature","geometry":{"type":"Point","coordinates":[5.2932,51.33799]},"properties":{"type":"charge","layer":"passenger","locationId":"2d5df3c6dc5443cdb483","name":"Eersel Boshuis ter Spegelt","address":"Postelseweg 185","city":"Eersel","operatorName":"Opcharge","maxPowerKw":22,"isMegawatt":false,"status":"AVAILABLE","source":"ndw"}},{"type":"Feature","geometry":{"type":"Point","coordinates":[5.320775,51.355196]},"properties":{"type":"charge","layer":"passenger","locationId":"d3aff34538e911587a71307dce4723e9","name":"Kerkevelden 57","address":"Kerkevelden 57","city":"Eersel","operatorName":"Vattenfall InCharge","maxPowerKw":11,"isMegawatt":false,"status":"AVAILABLE","source":"ndw"}},{"type":"Feature","geometry":{"type":"Point","coordinates":[5.35419,51.37373]},"properties":{"type":"charge","layer":"passenger","locationId":"476b37a4b5d299d96592ec032beeed6d","name":"Boterbocht 28","address":"Boterbocht 28","city":"Steensel","operatorName":"Vattenfall InCharge","maxPowerKw":11,"isMegawatt":false,"status":"UNAVAILABLE","source":"ndw"}},{"type":"Feature","geometry":{"type":"Point","coordinates":[5.308848,51.359894]},"properties":{"type":"charge","layer":"passenger","locationId":"3e8e695b-9aa7-4416-84ce-cb83d4e5abb2","name":"Markt","address":"Markt 22","city":"Eersel","operatorName":"Vattenfall InCharge","maxPowerKw":11,"isMegawatt":false,"status":"AVAILABLE","source":"ndw"}},{"type":"Feature","geometry":{"type":"Point","coordinates":[5.312048,51.379125]},"properties":{"type":"charge","layer":"passenger","locationId":"923506","name":"DAE_NL_2001273 P7","address":"Meerheide 200","city":"Eersel","operatorName":"DAEN Mobility","maxPowerKw":11,"isMegawatt":false,"status":"AVAILABLE","source":"ndw"}},{"type":"Feature","geometry":{"type":"Point","coordinates":[5.313257,51.361247]},"properties":{"type":"charge","layer":"passenger","locationId":"6875ca8c-00ad-412b-8781-78da41e1eda9","name":"Lidl EERSEL","address":"Nieuwstraat","city":"Eersel","operatorName":"Lidl","maxPowerKw":50,"isMegawatt":false,"status":"AVAILABLE","source":"ndw"}},{"type":"Feature","geometry":{"type":"Point","coordinates":[5.323951,51.364291]},"properties":{"type":"charge","layer":"passenger","locationId":"155f4ade-6959-11ee-ae43-42010aa40fc0","name":"Shell Recharge Kuilenhurk 7","address":"Kuilenhurk 7","city":"Eersel","operatorName":"Shell Recharge","maxPowerKw":150,"isMegawatt":false,"status":"AVAILABLE","source":"ndw"}},{"type":"Feature","geometry":{"type":"Point","coordinates":[5.308656,51.360121]},"properties":{"type":"charge","layer":"passenger","locationId":"2664179","name":"Laadnet Dinee café Veertien","address":"Markt 14","city":"Eersel","operatorName":"Laadnet","maxPowerKw":22,"isMegawatt":false,"status":"UNAVAILABLE","source":"ndw"}},{"type":"Feature","geometry":{"type":"Point","coordinates":[5.289852,51.419601]},"properties":{"type":"charge","layer":"passenger","locationId":"64e7237ffbe917001cd08bd1","name":"WayPoint Zuid","address":"Jan Smuldersstraat 28","city":"Vessem","operatorName":"E-Flux by Road","maxPowerKw":22,"isMegawatt":false,"status":"CHARGING","source":"ndw"}},{"type":"Feature","geometry":{"type":"Point","coordinates":[5.312048,51.379125]},"properties":{"type":"charge","layer":"passenger","locationId":"923491","name":"DAE_NL_2001260 voorzijde 1","address":"Meerheide 200","city":"Eersel","operatorName":"DAEN Mobility","maxPowerKw":11,"isMegawatt":false,"status":"AVAILABLE","source":"ndw"}},{"type":"Feature","geometry":{"type":"Point","coordinates":[5.314218,51.375051]},"properties":{"type":"charge","layer":"passenger","locationId":"69fd8aa18bb44b15225f289c","name":"Solar Crew HQ","address":"Meerheide  72","city":"Eersel","operatorName":"E-Flux by Road","maxPowerKw":22,"isMegawatt":false,"status":"AVAILABLE","source":"ndw"}},{"type":"Feature","geometry":{"type":"Point","coordinates":[5.339041,51.339453]},"properties":{"type":"charge","layer":"passenger","locationId":"6a181f4e4d7691e001f622e2","name":"W'tjewel  laadstation","address":"stokkelen 43","city":"Eersel","operatorName":"E-Flux by Road","maxPowerKw":22,"isMegawatt":false,"status":"AVAILABLE","source":"ndw"}},{"type":"Feature","geometry":{"type":"Point","coordinates":[5.323964,51.356404]},"properties":{"type":"charge","layer":"passenger","locationId":"bc5db0a2-bf31-4345-9057-9b4eb3f26123","name":"Gebint","address":"Gebint 151","city":"Eersel","operatorName":"Vattenfall InCharge","maxPowerKw":11,"isMegawatt":false,"status":"AVAILABLE","source":"ndw"}},{"type":"Feature","geometry":{"type":"Point","coordinates":[5.312048,51.379125]},"properties":{"type":"charge","layer":"passenger","locationId":"923492","name":"DAE_NL_2001261 voorzijde 2","address":"Meerheide 200","city":"Eersel","operatorName":"DAEN Mobility","maxPowerKw":11,"isMegawatt":false,"status":"AVAILABLE","source":"ndw"}},{"type":"Feature","geometry":{"type":"Point","coordinates":[5.297849,51.417718]},"properties":{"type":"charge","layer":"passenger","locationId":"69b947f5b22c15f5cbc01f4f","name":"Veneind 13","address":"Veneind 13","city":"Vessem","operatorName":"E-Flux by Road","maxPowerKw":22,"isMegawatt":false,"status":"UNAVAILABLE","source":"ndw"}},{"type":"Feature","geometry":{"type":"Point","coordinates":[5.355524,51.381803]},"properties":{"type":"charge","layer":"passenger","locationId":"a508bcfe6a6ddf42706336bc72680d7b","name":"Knegselseweg 24","address":"Knegselseweg 24","city":"Knegsel","operatorName":"Vattenfall InCharge","maxPowerKw":11,"isMegawatt":false,"status":"AVAILABLE","source":"ndw"}},{"type":"Feature","geometry":{"type":"Point","coordinates":[5.32004,51.364447]},"properties":{"type":"charge","layer":"passenger","locationId":"aad489a6-4cec-4fcf-8aed-86e1dd7073f4","name":"Nieuwstraat","address":"Nieuwstraat 69","city":"Eersel","operatorName":"Vattenfall InCharge","maxPowerKw":11,"isMegawatt":false,"status":"AVAILABLE","source":"ndw"}},{"type":"Feature","geometry":{"type":"Point","coordinates":[5.312048,51.379125]},"properties":{"type":"charge","layer":"passenger","locationId":"923500","name":"DAE_NL_2001264 P1","address":"Meerheide 200","city":"Eersel","operatorName":"DAEN Mobility","maxPowerKw":11,"isMegawatt":false,"status":"AVAILABLE","source":"ndw"}},{"type":"Feature","geometry":{"type":"Point","coordinates":[5.272561,51.41414]},"properties":{"type":"charge","layer":"passenger","locationId":"667d7977e8f211001c66ed0a","name":"Eurocamping Vessem","address":"zwembadweg 1","city":"vessem","operatorName":"E-Flux by Road","maxPowerKw":22,"isMegawatt":false,"status":"AVAILABLE","source":"ndw"}},{"type":"Feature","geometry":{"type":"Point","coordinates":[5.318471,51.366615]},"properties":{"type":"charge","layer":"passenger","locationId":"686d39d9dd728e8e46756816","name":"Brabantse Postzegel en Munten Veiling Laadpaal","address":"Kerver  10","city":"Eersel","operatorName":"E-Flux by Road","maxPowerKw":22,"isMegawatt":false,"status":"AVAILABLE","source":"ndw"}},{"type":"Feature","geometry":{"type":"Point","coordinates":[5.343925,51.361302]},"properties":{"type":"charge","layer":"passenger","locationId":"679b7ced795de86c9329b067","name":"Paardensportcentrum De Kempen V.O.F.","address":"Molenveld 5","city":"Eersel","operatorName":"Pluq","maxPowerKw":22,"isMegawatt":false,"status":"AVAILABLE","source":"ndw"}},{"type":"Feature","geometry":{"type":"Point","coordinates":[5.312048,51.379125]},"properties":{"type":"charge","layer":"passenger","locationId":"923508","name":"DAE_NL_2001275 P9","address":"Meerheide 200","city":"Eersel","operatorName":"DAEN Mobility","maxPowerKw":11,"isMegawatt":false,"status":"AVAILABLE","source":"ndw"}},{"type":"Feature","geometry":{"type":"Point","coordinates":[5.312048,51.379125]},"properties":{"type":"charge","layer":"passenger","locationId":"923510","name":"DAE_NL_2001277 P11","address":"Meerheide 200","city":"Eersel","operatorName":"DAEN Mobility","maxPowerKw":11,"isMegawatt":false,"status":"AVAILABLE","source":"ndw"}},{"type":"Feature","geometry":{"type":"Point","coordinates":[5.301994,51.351383]},"properties":{"type":"charge","layer":"passenger","locationId":"80595241-2f13-459d-90f4-91ebc1d99427","name":"Vinkenbos","address":"Vinkenbos 13","city":"Eersel","operatorName":"Vattenfall InCharge","maxPowerKw":11,"isMegawatt":false,"status":"AVAILABLE","source":"ndw"}},{"type":"Feature","geometry":{"type":"Point","coordinates":[5.320904,51.36041]},"properties":{"type":"charge","layer":"passenger","locationId":"20c758c909a2f1e357ec9988eb632cba","name":"Nicolaas Sichmansstraat 40","address":"Nicolaas Sichmansstraat 40","city":"Eersel","operatorName":"Vattenfall InCharge","maxPowerKw":11,"isMegawatt":false,"status":"AVAILABLE","source":"ndw"}},{"type":"Feature","geometry":{"type":"Point","coordinates":[5.312048,51.379125]},"properties":{"type":"charge","layer":"passenger","locationId":"923505","name":"DAE_NL_2001272 P6","address":"Meerheide 200","city":"Eersel","operatorName":"DAEN Mobility","maxPowerKw":11,"isMegawatt":false,"status":"CHARGING","source":"ndw"}},{"type":"Feature","geometry":{"type":"Point","coordinates":[5.312048,51.379125]},"properties":{"type":"charge","layer":"passenger","locationId":"923501","name":"DAE_NL_2001265 P2","address":"Meerheide 200","city":"Eersel","operatorName":"DAEN Mobility","maxPowerKw":11,"isMegawatt":false,"status":"CHARGING","source":"ndw"}},{"type":"Feature","geometry":{"type":"Point","coordinates":[5.312048,51.379125]},"properties":{"type":"charge","layer":"passenger","locationId":"923502","name":"DAE_NL_2001269 P3","address":"Meerheide 200","city":"Eersel","operatorName":"DAEN Mobility","maxPowerKw":11,"isMegawatt":false,"status":"AVAILABLE","source":"ndw"}},{"type":"Feature","geometry":{"type":"Point","coordinates":[5.304091,51.354338]},"properties":{"type":"charge","layer":"passenger","locationId":"f473486d99becfa7d1209f5dc2247cd8","name":"Bunderstraat 2","address":"Bunderstraat 2","city":"Eersel","operatorName":"Vattenfall InCharge","maxPowerKw":11,"isMegawatt":false,"status":"AVAILABLE","source":"ndw"}},{"type":"Feature","geometry":{"type":"Point","coordinates":[5.310303,51.374704]},"properties":{"type":"charge","layer":"passenger","locationId":"62b5a5c75e1ba10d8eb4757c","name":"Wouters Groep","address":"Meerheide 248","city":"Eersel","operatorName":"E-Flux by Road","maxPowerKw":22,"isMegawatt":false,"status":"AVAILABLE","source":"ndw"}},{"type":"Feature","geometry":{"type":"Point","coordinates":[5.28403,51.422859]},"properties":{"type":"charge","layer":"passenger","locationId":"5d7f8a4c9c3b63873c1d033182533b20","name":"Pastorij 6","address":"Pastorij 6","city":"Vessem","operatorName":"Vattenfall InCharge","maxPowerKw":11,"isMegawatt":false,"status":"AVAILABLE","source":"ndw"}},{"type":"Feature","geometry":{"type":"Point","coordinates":[5.347554,51.399245]},"properties":{"type":"charge","layer":"passenger","locationId":"0c8c6f0b-e103-49a3-b318-071b435e3561","name":"Het Groen","address":"Het Groen 30","city":"Knegsel","operatorName":"Vattenfall InCharge","maxPowerKw":11,"isMegawatt":false,"status":"AVAILABLE","source":"ndw"}},{"type":"Feature","geometry":{"type":"Point","coordinates":[5.329924,51.35716]},"properties":{"type":"charge","layer":"passenger","locationId":"0c84693580a2700245af721fec91fc9d","name":"Klokstaart 73","address":"Klokstaart 73","city":"Eersel","operatorName":"Vattenfall InCharge","maxPowerKw":11,"isMegawatt":false,"status":"AVAILABLE","source":"ndw"}},{"type":"Feature","geometry":{"type":"Point","coordinates":[5.286647,51.423542]},"properties":{"type":"charge","layer":"passenger","locationId":"5a9b49b59ccb85720af452e3f3cbc192","name":"Flinkert 25","address":"Flinkert 25","city":"Vessem","operatorName":"Vattenfall InCharge","maxPowerKw":11,"isMegawatt":false,"status":"AVAILABLE","source":"ndw"}},{"type":"Feature","geometry":{"type":"Point","coordinates":[5.312939,51.351752]},"properties":{"type":"charge","layer":"passenger","locationId":"77d6cd22-677b-45ce-b264-91876fa660ea","name":"gagel 4","address":"gagel 4","city":"Eersel","operatorName":"Vattenfall InCharge","maxPowerKw":11,"isMegawatt":false,"status":"AVAILABLE","source":"ndw"}},{"type":"Feature","geometry":{"type":"Point","coordinates":[5.319081,51.367849]},"properties":{"type":"charge","layer":"passenger","locationId":"923330","name":"DAE_NL_2001177","address":"Brouwer 1","city":"Eersel","operatorName":"DAEN Mobility","maxPowerKw":11,"isMegawatt":false,"status":"AVAILABLE","source":"ndw"}},{"type":"Feature","geometry":{"type":"Point","coordinates":[5.305946,51.350033]},"properties":{"type":"charge","layer":"passenger","locationId":"83c622b0-d100-4dd2-8fd7-97a4f261bddc","name":"Rapen","address":"Rapen 2","city":"Eersel","operatorName":"Vattenfall InCharge","maxPowerKw":11,"isMegawatt":false,"status":"AVAILABLE","source":"ndw"}},{"type":"Feature","geometry":{"type":"Point","coordinates":[5.30939,51.351745]},"properties":{"type":"charge","layer":"passenger","locationId":"fd960da0-1ba0-4efa-9cba-1bb56037ea58","name":"Boekweit","address":"Boekweit 7","city":"Eersel","operatorName":"Vattenfall InCharge","maxPowerKw":11,"isMegawatt":false,"status":"AVAILABLE","source":"ndw"}},{"type":"Feature","geometry":{"type":"Point","coordinates":[5.342235,51.448127]},"properties":{"type":"charge","layer":"passenger","locationId":"55011bcaf83156cad4c12221928a94f4","name":"Koemeershoeve 10","address":"Koemeershoeve 10","city":"Wintelre","operatorName":"Vattenfall InCharge","maxPowerKw":11,"isMegawatt":false,"status":"AVAILABLE","source":"ndw"}},{"type":"Feature","geometry":{"type":"Point","coordinates":[5.28547,51.4186]},"properties":{"type":"charge","layer":"passenger","locationId":"886b2d75c148144245d88f6477372e73","name":"Putterstraat 33","address":"Putterstraat 33","city":"Vessem","operatorName":"Vattenfall InCharge","maxPowerKw":11,"isMegawatt":false,"status":"AVAILABLE","source":"ndw"}},{"type":"Feature","geometry":{"type":"Point","coordinates":[5.325842,51.356601]},"properties":{"type":"charge","layer":"passenger","locationId":"1630b9e3-95a3-4e1d-bec1-2412a2b68616","name":"Gebint","address":"Gebint 99","city":"Eersel","operatorName":"Vattenfall InCharge","maxPowerKw":11,"isMegawatt":false,"status":"AVAILABLE","source":"ndw"}},{"type":"Feature","geometry":{"type":"Point","coordinates":[5.30766,51.35394]},"properties":{"type":"charge","layer":"passenger","locationId":"a0805d8c-d011-463c-88c7-f09c94631d9b","name":"Zicht","address":"Zicht 44","city":"Eersel","operatorName":"Vattenfall InCharge","maxPowerKw":11,"isMegawatt":false,"status":"AVAILABLE","source":"ndw"}},{"type":"Feature","geometry":{"type":"Point","coordinates":[5.336451,51.442714]},"properties":{"type":"charge","layer":"passenger","locationId":"69e8a8a472282dfccc0b083e","name":"Fam. Louwers Privé","address":"Kloosterstraat 51","city":"Wintelre","operatorName":"E-Flux by Road","maxPowerKw":11,"isMegawatt":false,"status":"AVAILABLE","source":"ndw"}},{"type":"Feature","geometry":{"type":"Point","coordinates":[5.293911,51.368172]},"properties":{"type":"charge","layer":"passenger","locationId":"b8c78986af3b981a1dcf58a8cc5ce949","name":"Oude Kerkstraat 28A","address":"Oude Kerkstraat 28A","city":"Duizel","operatorName":"Vattenfall InCharge","maxPowerKw":11,"isMegawatt":false,"status":"AVAILABLE","source":"ndw"}},{"type":"Feature","geometry":{"type":"Point","coordinates":[5.307426,51.352647]},"properties":{"type":"charge","layer":"passenger","locationId":"991d1f6d-ad84-4dd9-8372-f741d272aac6","name":"Schapendries","address":"Schapendries 21","city":"Eersel","operatorName":"Vattenfall InCharge","maxPowerKw":11,"isMegawatt":false,"status":"AVAILABLE","source":"ndw"}},{"type":"Feature","geometry":{"type":"Point","coordinates":[5.312048,51.379125]},"properties":{"type":"charge","layer":"passenger","locationId":"923507","name":"DAE_NL_2001274 P8","address":"Meerheide 200","city":"Eersel","operatorName":"DAEN Mobility","maxPowerKw":11,"isMegawatt":false,"status":"AVAILABLE","source":"ndw"}},{"type":"Feature","geometry":{"type":"Point","coordinates":[5.29318,51.418412]},"properties":{"type":"charge","layer":"passenger","locationId":"cef7d0885b2f3d4579ff2e6610e6926d","name":"Groenewoud 30","address":"Groenewoud 30","city":"Vessem","operatorName":"Vattenfall InCharge","maxPowerKw":11,"isMegawatt":false,"status":"AVAILABLE","source":"ndw"}},{"type":"Feature","geometry":{"type":"Point","coordinates":[5.312048,51.379125]},"properties":{"type":"charge","layer":"passenger","locationId":"923509","name":"DAE_NL_2001276 P10","address":"Meerheide 200","city":"Eersel","operatorName":"DAEN Mobility","maxPowerKw":11,"isMegawatt":false,"status":"CHARGING","source":"ndw"}},{"type":"Feature","geometry":{"type":"Point","coordinates":[5.286274,51.419403]},"properties":{"type":"charge","layer":"passenger","locationId":"95bb18da-0690-43ad-88f6-2303f665f58f","name":"Putterstraat 13","address":"Putterstraat 13","city":"Vessem","operatorName":"Vattenfall InCharge","maxPowerKw":11,"isMegawatt":false,"status":"AVAILABLE","source":"ndw"}},{"type":"Feature","geometry":{"type":"Point","coordinates":[5.341076,51.443813]},"properties":{"type":"charge","layer":"passenger","locationId":"a34d47b5-07e0-450a-9b7d-8b961eb293c7","name":"Kerkstraat","address":"Kerkstraat 10","city":"Wintelre","operatorName":"Vattenfall InCharge","maxPowerKw":11,"isMegawatt":false,"status":"AVAILABLE","source":"ndw"}},{"type":"Feature","geometry":{"type":"Point","coordinates":[5.321754,51.35323]},"properties":{"type":"charge","layer":"passenger","locationId":"a91df5ba7771daacca834b5a9e268263","name":"Kerkevelden 18","address":"Kerkevelden 18","city":"Eersel","operatorName":"Vattenfall InCharge","maxPowerKw":11,"isMegawatt":false,"status":"AVAILABLE","source":"ndw"}},{"type":"Feature","geometry":{"type":"Point","coordinates":[5.343294,51.445231]},"properties":{"type":"charge","layer":"passenger","locationId":"1c0d79eee2dcda27be6dd2662589eeb5","name":"De Biezenvelden 8","address":"De Biezenvelden 8","city":"Wintelre","operatorName":"Vattenfall InCharge","maxPowerKw":11,"isMegawatt":false,"status":"AVAILABLE","source":"ndw"}},{"type":"Feature","geometry":{"type":"Point","coordinates":[5.316426,51.357207]},"properties":{"type":"charge","layer":"passenger","locationId":"97e2a0056d018507650917df7f1f3c6f","name":"Dijkhof 17","address":"Dijkhof 17","city":"Eersel","operatorName":"Vattenfall InCharge","maxPowerKw":11,"isMegawatt":false,"status":"AVAILABLE","source":"ndw"}},{"type":"Feature","geometry":{"type":"Point","coordinates":[5.317969,51.351686]},"properties":{"type":"charge","layer":"passenger","locationId":"3451c324-a3bc-46a8-a7dc-b7fc0ece839f","name":"Steenstraat 119","address":"Steenstraat 119","city":"Eersel","operatorName":"Vattenfall InCharge","maxPowerKw":11,"isMegawatt":false,"status":"AVAILABLE","source":"ndw"}},{"type":"Feature","geometry":{"type":"Point","coordinates":[5.296495,51.364277]},"properties":{"type":"charge","layer":"passenger","locationId":"62386b5f5804ec759c103c66","name":"Anicura Duizel","address":"Wolverstraat  21","city":"Duizel","operatorName":"E-Flux by Road","maxPowerKw":22,"isMegawatt":false,"status":"UNAVAILABLE","source":"ndw"}},{"type":"Feature","geometry":{"type":"Point","coordinates":[5.317621,51.3667]},"properties":{"type":"charge","layer":"passenger","locationId":"035b6406-03f1-416f-afd3-51b4e35d9fc2","name":"Lange Voren","address":"Lange Voren 18A","city":"Eersel","operatorName":"Vattenfall InCharge","maxPowerKw":11,"isMegawatt":false,"status":"AVAILABLE","source":"ndw"}},{"type":"Feature","geometry":{"type":"Point","coordinates":[5.313454,51.362165]},"properties":{"type":"charge","layer":"passenger","locationId":"3401b7c7-dc53-4fc3-9651-b79103f14292","name":"Bospoort ","address":"Bospoort  6","city":"Eersel","operatorName":"Vattenfall InCharge","maxPowerKw":11,"isMegawatt":false,"status":"AVAILABLE","source":"ndw"}},{"type":"Feature","geometry":{"type":"Point","coordinates":[5.329275,51.361288]},"properties":{"type":"charge","layer":"passenger","locationId":"b5befad9-8ad4-46fe-9655-96618789217e","name":"Dreef","address":"Dreef 31","city":"Eersel","operatorName":"Vattenfall InCharge","maxPowerKw":11,"isMegawatt":false,"status":"AVAILABLE","source":"ndw"}},{"type":"Feature","geometry":{"type":"Point","coordinates":[5.312919,51.356834]},"properties":{"type":"charge","layer":"passenger","locationId":"0f5a449e-8ab5-48b9-a17d-9e0207c490ed","name":"Eikenburg","address":"Eikenburg 7","city":"Eersel","operatorName":"Vattenfall InCharge","maxPowerKw":11,"isMegawatt":false,"status":"AVAILABLE","source":"ndw"}},{"type":"Feature","geometry":{"type":"Point","coordinates":[5.343933,51.446898]},"properties":{"type":"charge","layer":"passenger","locationId":"c1659c133425da704b9810a16fbf4253","name":"Akkerweg 48","address":"Akkerweg 48","city":"Wintelre","operatorName":"Vattenfall InCharge","maxPowerKw":11,"isMegawatt":false,"status":"AVAILABLE","source":"ndw"}},{"type":"Feature","geometry":{"type":"Point","coordinates":[5.313644,51.353203]},"properties":{"type":"charge","layer":"passenger","locationId":"a86f170ebf8b4c54fe767cb4feae0764","name":"Frankenstraat 25","address":"Frankenstraat 25","city":"Eersel","operatorName":"Vattenfall InCharge","maxPowerKw":11,"isMegawatt":false,"status":"AVAILABLE","source":"ndw"}},{"type":"Feature","geometry":{"type":"Point","coordinates":[5.312048,51.379125]},"properties":{"type":"charge","layer":"passenger","locationId":"923494","name":"DAE_NL_2001263 voorzijde 4","address":"Meerheide 200","city":"Eersel","operatorName":"DAEN Mobility","maxPowerKw":11,"isMegawatt":false,"status":"AVAILABLE","source":"ndw"}},{"type":"Feature","geometry":{"type":"Point","coordinates":[5.31706,51.353932]},"properties":{"type":"charge","layer":"passenger","locationId":"c49e9946-cc4f-4fd9-88d5-49aee157c44c","name":"Pankenstraat","address":"Pankenstraat 7","city":"Eersel","operatorName":"Vattenfall InCharge","maxPowerKw":11,"isMegawatt":false,"status":"AVAILABLE","source":"ndw"}},{"type":"Feature","geometry":{"type":"Point","coordinates":[5.34852,51.398805]},"properties":{"type":"charge","layer":"passenger","locationId":"681f384f84c68fa3d9dba2a1adac62d7","name":"Het Groen 34","address":"Het Groen 34","city":"Knegsel","operatorName":"Vattenfall InCharge","maxPowerKw":11,"isMegawatt":false,"status":"AVAILABLE","source":"ndw"}},{"type":"Feature","geometry":{"type":"Point","coordinates":[5.312048,51.379125]},"properties":{"type":"charge","layer":"passenger","locationId":"923511","name":"DAE_NL_2001278 P12","address":"Meerheide 200","city":"Eersel","operatorName":"DAEN Mobility","maxPowerKw":11,"isMegawatt":false,"status":"CHARGING","source":"ndw"}},{"type":"Feature","geometry":{"type":"Point","coordinates":[5.312048,51.379125]},"properties":{"type":"charge","layer":"passenger","locationId":"923493","name":"DAE_NL_2001262 voorzijde 3","address":"Meerheide 200","city":"Eersel","operatorName":"DAEN Mobility","maxPowerKw":11,"isMegawatt":false,"status":"AVAILABLE","source":"ndw"}},{"type":"Feature","geometry":{"type":"Point","coordinates":[5.319908,51.354458]},"properties":{"type":"charge","layer":"passenger","locationId":"71d3c915-8b28-4368-8ec2-6b03b5de7106","name":"Hoolstraat","address":"Hoolstraat 51E","city":"Eersel","operatorName":"Vattenfall InCharge","maxPowerKw":11,"isMegawatt":false,"status":"AVAILABLE","source":"ndw"}},{"type":"Feature","geometry":{"type":"Point","coordinates":[5.318268,51.366]},"properties":{"type":"charge","layer":"passenger","locationId":"98a863c6-84ba-46da-b857-f977f0330270","name":"Kerver","address":"Kerver 7","city":"Eersel","operatorName":"Vattenfall InCharge","maxPowerKw":11,"isMegawatt":false,"status":"AVAILABLE","source":"ndw"}},{"type":"Feature","geometry":{"type":"Point","coordinates":[5.318557,51.35516]},"properties":{"type":"charge","layer":"passenger","locationId":"584f0904-329f-4173-aaf7-7f389ec945ee","name":"Hoolstraat","address":"Hoolstraat 34","city":"Eersel","operatorName":"Vattenfall InCharge","maxPowerKw":11,"isMegawatt":false,"status":"AVAILABLE","source":"ndw"}},{"type":"Feature","geometry":{"type":"Point","coordinates":[5.296072,51.36541]},"properties":{"type":"charge","layer":"passenger","locationId":"661a3e8b-aa64-44be-a5f0-ee289b73a41d","name":"Wolverstraat 36","address":"Wolverstraat 36","city":"Duizel","operatorName":"Vattenfall InCharge","maxPowerKw":11,"isMegawatt":false,"status":"AVAILABLE","source":"ndw"}},{"type":"Feature","geometry":{"type":"Point","coordinates":[5.289783,51.418623]},"properties":{"type":"charge","layer":"passenger","locationId":"b53b20cc9c54812e4ca5f05d57bd2b12","name":"Groenewoud 57","address":"Groenewoud 57","city":"Vessem","operatorName":"Vattenfall InCharge","maxPowerKw":11,"isMegawatt":false,"status":"AVAILABLE","source":"ndw"}},{"type":"Feature","geometry":{"type":"Point","coordinates":[5.302577,51.35245]},"properties":{"type":"charge","layer":"passenger","locationId":"429de9ab-2c6b-4b84-a6e3-2c4e1a8b5146","name":"Hongerman","address":"Hongerman 15","city":"Eersel","operatorName":"Vattenfall InCharge","maxPowerKw":11,"isMegawatt":false,"status":"AVAILABLE","source":"ndw"}},{"type":"Feature","geometry":{"type":"Point","coordinates":[5.3443,51.44553]},"properties":{"type":"charge","layer":"passenger","locationId":"88e09718-fdaa-4712-83d1-dac6058338e2","name":"Distelveld","address":"Distelveld 12","city":"Wintelre","operatorName":"Vattenfall InCharge","maxPowerKw":11,"isMegawatt":false,"status":"AVAILABLE","source":"ndw"}},{"type":"Feature","geometry":{"type":"Point","coordinates":[5.309252,51.348926]},"properties":{"type":"charge","layer":"passenger","locationId":"0f34a5cf2be973e6c75b828eec225fea","name":"Rosheuvelsedijk 38","address":"Rosheuvelsedijk 38","city":"Eersel","operatorName":"Vattenfall InCharge","maxPowerKw":11,"isMegawatt":false,"status":"AVAILABLE","source":"ndw"}},{"type":"Feature","geometry":{"type":"Point","coordinates":[5.340799,51.442845]},"properties":{"type":"charge","layer":"passenger","locationId":"80783875-9ff9-4016-a349-89f3de22e4f2","name":"Willibrordusstraat","address":"Willibrordusstraat 37","city":"Wintelre","operatorName":"Vattenfall InCharge","maxPowerKw":11,"isMegawatt":false,"status":"AVAILABLE","source":"ndw"}},{"type":"Feature","geometry":{"type":"Point","coordinates":[5.319279,51.354624]},"properties":{"type":"charge","layer":"passenger","locationId":"ae17ba6267acd55a58c9bcfd9a19715c","name":"Hoolstraat 51A","address":"Hoolstraat 51A","city":"Eersel","operatorName":"Vattenfall InCharge","maxPowerKw":11,"isMegawatt":false,"status":"AVAILABLE","source":"ndw"}},{"type":"Feature","geometry":{"type":"Point","coordinates":[5.330202,51.356941]},"properties":{"type":"charge","layer":"passenger","locationId":"c36179a1-fe5b-4b99-b214-5844ef932dab","name":"Trieneweegske","address":"Trieneweegske 1","city":"Eersel","operatorName":"Vattenfall InCharge","maxPowerKw":11,"isMegawatt":false,"status":"AVAILABLE","source":"ndw"}},{"type":"Feature","geometry":{"type":"Point","coordinates":[5.323713,51.363316]},"properties":{"type":"charge","layer":"passenger","locationId":"134bcf9c520b3b6a747a8c51055c5aa3","name":"Mortel 41","address":"Mortel 41","city":"Eersel","operatorName":"Vattenfall InCharge","maxPowerKw":11,"isMegawatt":false,"status":"AVAILABLE","source":"ndw"}},{"type":"Feature","geometry":{"type":"Point","coordinates":[5.283581,51.423931]},"properties":{"type":"charge","layer":"passenger","locationId":"54564c0a-6d1f-469e-9280-64347d592bfb","name":"Costerij","address":"Costerij 17","city":"Vessem","operatorName":"Vattenfall InCharge","maxPowerKw":11,"isMegawatt":false,"status":"AVAILABLE","source":"ndw"}},{"type":"Feature","geometry":{"type":"Point","coordinates":[5.30434,51.352275]},"properties":{"type":"charge","layer":"passenger","locationId":"25e6d342-eb05-42c2-b161-06a46cf478ad","name":"Krekelbos","address":"Krekelbos 34","city":"Eersel","operatorName":"Vattenfall InCharge","maxPowerKw":11,"isMegawatt":false,"status":"AVAILABLE","source":"ndw"}},{"type":"Feature","geometry":{"type":"Point","coordinates":[5.299748,51.378186]},"properties":{"type":"charge","layer":"freight","locationId":"6941424c60f0bef2fc53b889","name":"Isotras Duizel","address":"Hoef 11","city":"Duizel","operatorName":"E-Flux by Road","maxPowerKw":396,"isMegawatt":false,"status":"AVAILABLE","source":"ndw"}},{"type":"Feature","geometry":{"type":"MultiPolygon","coordinates":[[[[5.333815314072269,51.46853636782916],[5.3560009418625585,51.46231448682479],[5.358387780967264,51.46701508702776],[5.3694451624495025,51.4653163436373],[5.367167323261343,51.45943046393443],[5.3635112384195125,51.46026464817875],[5.361488153156273,51.45736209003646],[5.356717129982109,51.453597478750986],[5.360637789007711,51.44985194670247],[5.36122751887574,51.44709878325689],[5.360828915698206,51.44311843587364],[5.3577415980446235,51.44023316547003],[5.356915625114754,51.43820324856746],[5.3557935377663535,51.43410993864799],[5.352855544299625,51.43282523856369],[5.346253953201798,51.42895598137327],[5.345533530765059,51.43092217510616],[5.342367597283644,51.43106750686754],[5.343368628689703,51.42743599469354],[5.339841048516999,51.42555769513666],[5.3193703043223115,51.42379507625396],[5.319995427380609,51.419927715602974],[5.316088677170066,51.41940904398936],[5.315894587704932,51.418910772106926],[5.317147623427889,51.41491365866287],[5.321788875075064,51.40869137633436],[5.323663246247734,51.40618695863725],[5.331592248015325,51.40628546147294],[5.335135709527957,51.40740240761191],[5.354378050675679,51.40877241777902],[5.36761637625256,51.4000708800012],[5.3706858359273095,51.39804769660197],[5.372281181673728,51.39274156501191],[5.37248350007645,51.39224612800451],[5.374033536522245,51.38856510049225],[5.388905831906094,51.37645976237557],[5.388025333850165,51.37526752763673],[5.382604323591772,51.37283096732685],[5.381132016732082,51.37113056006795],[5.378210288651815,51.36939326146898],[5.37563664899452,51.36876222029346],[5.374065628713897,51.369528058158984],[5.370495203068023,51.36931109717648],[5.36432109586668,51.36697576200441],[5.355751220327913,51.362531297431254],[5.352450063260624,51.3618206867973],[5.346149907169635,51.35794508695425],[5.344743462610811,51.35490742138034],[5.3425875028999,51.35267197918971],[5.346782630395526,51.34751590289691],[5.341991167769662,51.344217589379795],[5.347120228889537,51.33745280853264],[5.341739260514172,51.33582503102682],[5.3378382329145335,51.33480375002878],[5.332202366531629,51.33316518325369],[5.324009060621084,51.33290213728369],[5.321157856643497,51.329569212338086],[5.322950729693823,51.328691902857464],[5.318875843756319,51.32485473921734],[5.314990108615534,51.3228913689251],[5.309550755812069,51.321048429346426],[5.308055260643604,51.32182804488151],[5.292173022391116,51.31823718499751],[5.263410041471824,51.31928156873811],[5.285971818506951,51.33633862353263],[5.279095884548481,51.35333867771471],[5.278921725321658,51.353769090205056],[5.275298088925123,51.36272274819899],[5.275890448107215,51.36439560474282],[5.277441908486219,51.36877634640313],[5.277442969679017,51.36877934334193],[5.279274304701338,51.373861010874805],[5.279764953768811,51.375328593400276],[5.285914544462132,51.384469625935196],[5.29032270088582,51.38612977477737],[5.289414092000376,51.38892241856569],[5.2988147983441385,51.38968159609792],[5.302710634042881,51.39071093203857],[5.306282451103798,51.390958875598955],[5.307098587859127,51.39061675126164],[5.3108648721877225,51.390714737592155],[5.310443188465215,51.39605483732183],[5.313649064580306,51.39944066062386],[5.307294186006093,51.40611402887133],[5.305160311609735,51.406925690094475],[5.302845742421162,51.40753070969843],[5.296252524775597,51.407751675088356],[5.290148038085223,51.404080958088244],[5.281425763710781,51.404994459340706],[5.278385904554308,51.40865021045903],[5.276392424039402,51.40934799264623],[5.272902800582453,51.409469801357055],[5.248775011934565,51.422557587332165],[5.2494456573879145,51.42295375692138],[5.244781710268877,51.42625379822478],[5.243379716306579,51.42548247737526],[5.237703890111403,51.42855876689352],[5.237596954230506,51.43071409389485],[5.23906164211761,51.433669395447716],[5.252481314278613,51.437939077812],[5.2488190955196155,51.443081780158614],[5.248395257383137,51.445630902395024],[5.249024228118329,51.445720576370825],[5.2588733507172645,51.447124400405826],[5.260441893964288,51.44823524408031],[5.264661815493977,51.448927633523894],[5.271019352612073,51.449032679008006],[5.2792523799177555,51.45021926310296],[5.282248619840352,51.452249881890225],[5.285017268441601,51.45411143522882],[5.294496581008151,51.45528331734071],[5.2972287308047505,51.45313779207709],[5.298067188315655,51.45462562912084],[5.303177139878267,51.45858532564966],[5.303095524329404,51.459149046058805],[5.315076319430702,51.46137184348068],[5.321022421444702,51.461162183950215],[5.32420349461022,51.46272234656482],[5.325895094584809,51.4628764094518],[5.325838750538563,51.46379151675226],[5.328040738982547,51.46422617088746],[5.330511018237322,51.46384069701701],[5.331596688815123,51.4628316984257],[5.334597739551793,51.4629345899357],[5.332625627978546,51.465422005948156],[5.334726773585478,51.46587456307694],[5.333815314072269,51.46853636782916]]]]},"properties":{"type":"boundary","gemeente":"Eersel","code":"GM0770"}}]}