{"type":"FeatureCollection","metadata":{"gemeente":"Eindhoven","slug":"eindhoven","code":"GM0772","generated_at":"2026-06-02T13:19:22.438Z","total_passenger":1156,"total_freight":0,"bounds":[5.356717129982109,51.40011332699954,5.546778322834324,51.49706794981207],"operators":["Allego","ChargePoint","DAEN Mobility","E-Flux by Road","EQUANS","Eneco","Fleet Charge Services","JOLT Energy","Laadnet","Lidl","OPCHARGE","Opcharge","Operator","Pluq","PowerGo","Q-Park Netherlands","Shell Recharge","Spirii","Tanx","Tesla","Vattenfall InCharge","e-VOLTT"]},"features":[{"type":"Feature","geometry":{"type":"Point","coordinates":[5.504855,51.440055]},"properties":{"type":"charge","layer":"passenger","locationId":"6eca37fa-a1f2-11ef-bccb-42010aa400b8","name":"Circle K Eindhoven inz Haagdijk","address":"Jeroen Boschlaan 5","city":"Eindhoven","operatorName":"Spirii","maxPowerKw":0,"isMegawatt":false,"status":"AVAILABLE","source":"ndw"}},{"type":"Feature","geometry":{"type":"Point","coordinates":[5.483109,51.414182]},"properties":{"type":"charge","layer":"passenger","locationId":"NLLOC005943","name":"NLD, Aalsterweg 267 5644RD Eindhoven","address":"Aalsterweg 267","city":"Eindhoven","operatorName":"Allego","maxPowerKw":0,"isMegawatt":false,"status":"AVAILABLE","source":"ndw"}},{"type":"Feature","geometry":{"type":"Point","coordinates":[5.442351,51.425722]},"properties":{"type":"charge","layer":"passenger","locationId":"702654ec-9d7f-44f0-83ff-62d9ec382ba7","name":"Duinbeek","address":"Duinbeek 54","city":"Eindhoven","operatorName":"Vattenfall InCharge","maxPowerKw":11,"isMegawatt":false,"status":"AVAILABLE","source":"ndw"}},{"type":"Feature","geometry":{"type":"Point","coordinates":[5.453563,51.446437]},"properties":{"type":"charge","layer":"passenger","locationId":"620e4196706b144edc7fd626","name":"Eindhoven/Laboratoriumstraat","address":"Laboratoriumstraat 2","city":"Eindhoven","operatorName":"E-Flux by Road","maxPowerKw":14,"isMegawatt":false,"status":"AVAILABLE","source":"ndw"}},{"type":"Feature","geometry":{"type":"Point","coordinates":[5.51537,51.45352]},"properties":{"type":"charge","layer":"passenger","locationId":"9b8807e01cb1fe7a13e7f5def9d2b4d7","name":"Ministerlaan 24","address":"Ministerlaan 24","city":"Eindhoven","operatorName":"Vattenfall InCharge","maxPowerKw":11,"isMegawatt":false,"status":"AVAILABLE","source":"ndw"}},{"type":"Feature","geometry":{"type":"Point","coordinates":[5.483747,51.48881]},"properties":{"type":"charge","layer":"passenger","locationId":"8d3d85c1-7b19-48a0-b116-247c0fb1f4dc","name":"Oude Sultan","address":"Oude Sultan 10","city":"Eindhoven","operatorName":"Vattenfall InCharge","maxPowerKw":11,"isMegawatt":false,"status":"AVAILABLE","source":"ndw"}},{"type":"Feature","geometry":{"type":"Point","coordinates":[5.46772,51.437326]},"properties":{"type":"charge","layer":"passenger","locationId":"NLLOC007710","name":"NL, Lodewijk Napoleonlaan 21, 5616 BB, Eindhoven","address":"Lodewijk Napoleonlaan 21","city":"Eindhoven","operatorName":"Allego","maxPowerKw":0,"isMegawatt":false,"status":"CHARGING","source":"ndw"}},{"type":"Feature","geometry":{"type":"Point","coordinates":[5.466825,51.427829]},"properties":{"type":"charge","layer":"passenger","locationId":"d0b525f4-8d47-4e8a-9e81-556bcdc943d9","name":"Scheidingstraat","address":"Scheidingstraat 19","city":"Eindhoven","operatorName":"Vattenfall InCharge","maxPowerKw":11,"isMegawatt":false,"status":"AVAILABLE","source":"ndw"}},{"type":"Feature","geometry":{"type":"Point","coordinates":[5.43194,51.42582]},"properties":{"type":"charge","layer":"passenger","locationId":"7578c9211f68bb8d5cb9a4bc91ba42db","name":"Dillenburgstraat 53","address":"Dillenburgstraat 53","city":"Eindhoven","operatorName":"Vattenfall InCharge","maxPowerKw":11,"isMegawatt":false,"status":"CHARGING","source":"ndw"}},{"type":"Feature","geometry":{"type":"Point","coordinates":[5.495076,51.464639]},"properties":{"type":"charge","layer":"passenger","locationId":"NLLOC002471","name":"NLD, Remuslaan 9, Eindhoven","address":"Remuslaan 9","city":"Eindhoven","operatorName":"Allego","maxPowerKw":0,"isMegawatt":false,"status":"AVAILABLE","source":"ndw"}},{"type":"Feature","geometry":{"type":"Point","coordinates":[5.452301,51.432308]},"properties":{"type":"charge","layer":"passenger","locationId":"dcdc13de-29b7-11ef-aafb-42010aa400b8","name":"Basic-Fit 1166 Eindhoven Limburglaan (PowerGo)","address":"Limburglaan 36","city":"Eindhoven","operatorName":"PowerGo","maxPowerKw":0,"isMegawatt":false,"status":"UNAVAILABLE","source":"ndw"}},{"type":"Feature","geometry":{"type":"Point","coordinates":[5.444415,51.426123]},"properties":{"type":"charge","layer":"passenger","locationId":"60c376edbe36b32ee7eecdec","name":"Eindhoven/Martin Luther Kingstraat 70","address":"Martin Luther Kingstraat 70","city":"Eindhoven","operatorName":"E-Flux by Road","maxPowerKw":14,"isMegawatt":false,"status":"AVAILABLE","source":"ndw"}},{"type":"Feature","geometry":{"type":"Point","coordinates":[5.460216,51.4782]},"properties":{"type":"charge","layer":"passenger","locationId":"6213690db8d544044880ebdb","name":"Eindhoven/Sallandlaan","address":"Sallandlaan 38","city":"Eindhoven","operatorName":"E-Flux by Road","maxPowerKw":14,"isMegawatt":false,"status":"AVAILABLE","source":"ndw"}},{"type":"Feature","geometry":{"type":"Point","coordinates":[5.506748,51.418823]},"properties":{"type":"charge","layer":"passenger","locationId":"64524adf28bb300012b1f02c","name":"Eindhoven/Heezerweg 419 , 5645KV","address":"Heezerweg 419","city":"Eindhoven","operatorName":"E-Flux by Road","maxPowerKw":14,"isMegawatt":false,"status":"AVAILABLE","source":"ndw"}},{"type":"Feature","geometry":{"type":"Point","coordinates":[5.415504,51.48284]},"properties":{"type":"charge","layer":"passenger","locationId":"673468b93ea6cfab633bf589","name":"Eindhoven/Hooge Zijde 32","address":"Hooge Zijde 32","city":"Eindhoven","operatorName":"E-Flux by Road","maxPowerKw":14,"isMegawatt":false,"status":"AVAILABLE","source":"ndw"}},{"type":"Feature","geometry":{"type":"Point","coordinates":[5.454,51.43607]},"properties":{"type":"charge","layer":"passenger","locationId":"60f929dc-00db-11ef-8e29-42010aa400b8","name":"Eneco eMobility Inbo - Eindhoven","address":"Scherpakkerweg 15","city":"Eindhoven","operatorName":"Eneco","maxPowerKw":22,"isMegawatt":false,"status":"AVAILABLE","source":"ndw"}},{"type":"Feature","geometry":{"type":"Point","coordinates":[5.476405,51.440285]},"properties":{"type":"charge","layer":"passenger","locationId":"a4703ab2-bdb7-11f0-b620-42010aa400b8","name":"Q-Park Eindhoven Centrum de Admirant","address":"Emmasingel 29","city":"Eindhoven","operatorName":"Q-Park Netherlands","maxPowerKw":11,"isMegawatt":false,"status":"AVAILABLE","source":"ndw"}},{"type":"Feature","geometry":{"type":"Point","coordinates":[5.47998,51.44381]},"properties":{"type":"charge","layer":"passenger","locationId":"d6b4614a-9d7f-11f0-b7d4-42010aa400b8","name":"Q-Park Eindhoven Kennedyplein","address":"Kennedyplein 400","city":"Eindhoven","operatorName":"Q-Park Netherlands","maxPowerKw":11,"isMegawatt":false,"status":"AVAILABLE","source":"ndw"}},{"type":"Feature","geometry":{"type":"Point","coordinates":[5.481229,51.437992]},"properties":{"type":"charge","layer":"passenger","locationId":"df6c994a-be83-11f0-a9a4-42010aa400b8","name":"Q-Park Eindhoven Heuvel","address":"Ten Hagestraat 6","city":"Eindhoven","operatorName":"Q-Park Netherlands","maxPowerKw":11,"isMegawatt":false,"status":"AVAILABLE","source":"ndw"}},{"type":"Feature","geometry":{"type":"Point","coordinates":[5.46624,51.47884]},"properties":{"type":"charge","layer":"passenger","locationId":"bb254af62c523073ce302ef7d2caf711","name":"Noordzeelaan 50","address":"Noordzeelaan 50","city":"Eindhoven","operatorName":"Vattenfall InCharge","maxPowerKw":11,"isMegawatt":false,"status":"AVAILABLE","source":"ndw"}},{"type":"Feature","geometry":{"type":"Point","coordinates":[5.468466,51.459898]},"properties":{"type":"charge","layer":"passenger","locationId":"a78d9ca32593ab6cfd20f6653a5ac6e9","name":"Sebastiaan van Noyestraat 30","address":"Sebastiaan van Noyestraat 30","city":"Eindhoven","operatorName":"Vattenfall InCharge","maxPowerKw":11,"isMegawatt":false,"status":"AVAILABLE","source":"ndw"}},{"type":"Feature","geometry":{"type":"Point","coordinates":[5.394607,51.437637]},"properties":{"type":"charge","layer":"passenger","locationId":"609e3b3003000815651e7fd9","name":"Eindhoven/Waterwijk 13/5658RB","address":"Waterwijk 13 ","city":"Eindhoven","operatorName":"E-Flux by Road","maxPowerKw":14,"isMegawatt":false,"status":"UNAVAILABLE","source":"ndw"}},{"type":"Feature","geometry":{"type":"Point","coordinates":[5.474495,51.440316]},"properties":{"type":"charge","layer":"passenger","locationId":"b6ded910-0057-11f0-a346-42010aa400b8","name":"Q-Park Eindhoven Witte Dame","address":"Emmasingel 2","city":"Eindhoven","operatorName":"Q-Park Netherlands","maxPowerKw":11,"isMegawatt":false,"status":"CHARGING","source":"ndw"}},{"type":"Feature","geometry":{"type":"Point","coordinates":[5.477,51.43769]},"properties":{"type":"charge","layer":"passenger","locationId":"ec25c4a2-b6a6-11f0-948d-42010aa400b8","name":"Q-Park Eindhoven Hooghuis","address":"Keizersgracht 9","city":"Eindhoven","operatorName":"Q-Park Netherlands","maxPowerKw":11,"isMegawatt":false,"status":"UNAVAILABLE","source":"ndw"}},{"type":"Feature","geometry":{"type":"Point","coordinates":[5.40523,51.446533]},"properties":{"type":"charge","layer":"passenger","locationId":"6762855d1d5a818de6ab25e3","name":"Eindhoven/Zandvliegje 8","address":"Zandvliegje 8","city":"Eindhoven","operatorName":"E-Flux by Road","maxPowerKw":14,"isMegawatt":false,"status":"AVAILABLE","source":"ndw"}},{"type":"Feature","geometry":{"type":"Point","coordinates":[5.49742,51.415523]},"properties":{"type":"charge","layer":"passenger","locationId":"468","name":"Shell Recharge NL0024 - Shell Floraplein","address":"Floraplein 15","city":"Eindhoven","operatorName":"Shell Recharge","maxPowerKw":300,"isMegawatt":false,"status":"AVAILABLE","source":"ndw"}},{"type":"Feature","geometry":{"type":"Point","coordinates":[5.45208,51.4344]},"properties":{"type":"charge","layer":"passenger","locationId":"74fd036c-e6ec-11ee-abc5-42010aa400b8","name":"Eneco eMobility Albert Heijn - Limburglaan 20","address":"Limburglaan 20","city":"Eindhoven","operatorName":"Eneco","maxPowerKw":150,"isMegawatt":false,"status":"AVAILABLE","source":"ndw"}},{"type":"Feature","geometry":{"type":"Point","coordinates":[5.467327,51.423909]},"properties":{"type":"charge","layer":"passenger","locationId":"635fb0aaa7bf931d4fef6b89","name":"Groene Buurt Charger","address":"Genneperweg 86-01","city":"Eindhoven","operatorName":"E-Flux by Road","maxPowerKw":22,"isMegawatt":false,"status":"AVAILABLE","source":"ndw"}},{"type":"Feature","geometry":{"type":"Point","coordinates":[5.491745,51.445553]},"properties":{"type":"charge","layer":"passenger","locationId":"f917c8ebf0c141da8f21","name":"DHVM - Dorgelo Building Eindhoven","address":"Professor Doctor Dorgelolaan 30","city":"Eindhoven","operatorName":"Opcharge","maxPowerKw":22,"isMegawatt":false,"status":"AVAILABLE","source":"ndw"}},{"type":"Feature","geometry":{"type":"Point","coordinates":[5.498346,51.438995]},"properties":{"type":"charge","layer":"passenger","locationId":"NLLOC005961","name":"NLD, Bosboomstraat 84 5613KG Eindhoven","address":"Bosboomstraat 84","city":"Eindhoven","operatorName":"Allego","maxPowerKw":0,"isMegawatt":false,"status":"AVAILABLE","source":"ndw"}},{"type":"Feature","geometry":{"type":"Point","coordinates":[5.492531,51.426069]},"properties":{"type":"charge","layer":"passenger","locationId":"NLLOC024261","name":"NL, Lupinestraat 14, 5614 GM Eindhoven","address":"Lupinestraat 14","city":"Eindhoven","operatorName":"Allego","maxPowerKw":0,"isMegawatt":false,"status":"AVAILABLE","source":"ndw"}},{"type":"Feature","geometry":{"type":"Point","coordinates":[5.430624,51.431379]},"properties":{"type":"charge","layer":"passenger","locationId":"7d73446a27684dba8328","name":"Profinn - Ictivity Eindhoven","address":"Looyenbeemd 16","city":"Eindhoven","operatorName":"Opcharge","maxPowerKw":22,"isMegawatt":false,"status":"AVAILABLE","source":"ndw"}},{"type":"Feature","geometry":{"type":"Point","coordinates":[5.481926,51.48115]},"properties":{"type":"charge","layer":"passenger","locationId":"f435b3dc-9de2-4d33-b648-feb679ff21ce","name":"Mechelenlaan","address":"Mechelenlaan 35","city":"Eindhoven","operatorName":"Vattenfall InCharge","maxPowerKw":11,"isMegawatt":false,"status":"AVAILABLE","source":"ndw"}},{"type":"Feature","geometry":{"type":"Point","coordinates":[5.410235,51.480884]},"properties":{"type":"charge","layer":"passenger","locationId":"24a53a14-423c-4eb9-99d1-ec62c6bccd45","name":"Achtseweg Noord 33","address":"Achtseweg Noord 33","city":"Eindhoven","operatorName":"Vattenfall InCharge","maxPowerKw":22,"isMegawatt":false,"status":"AVAILABLE","source":"ndw"}},{"type":"Feature","geometry":{"type":"Point","coordinates":[5.455825,51.481556]},"properties":{"type":"charge","layer":"passenger","locationId":"53296030-13e3-11f0-b7e5-42010aa400b8","name":"Eneco eMobility Automobielbedrijf Cito B.V. Eindhoven","address":"Hondsruglaan 99","city":"Eindhoven","operatorName":"Eneco","maxPowerKw":50,"isMegawatt":false,"status":"AVAILABLE","source":"ndw"}},{"type":"Feature","geometry":{"type":"Point","coordinates":[5.39109,51.45527]},"properties":{"type":"charge","layer":"passenger","locationId":"d3a0ae98796d4719adfbf9d6400f7074","name":"Eindhoven Johnson & Johnson","address":"Marinus van Meelweg 2","city":"Eindhoven","operatorName":"Opcharge","maxPowerKw":22,"isMegawatt":false,"status":"AVAILABLE","source":"ndw"}},{"type":"Feature","geometry":{"type":"Point","coordinates":[5.432222,51.418442]},"properties":{"type":"charge","layer":"passenger","locationId":"969cae39cbc54a0bb10e","name":"Profinn - Croy 7 wandlader Ehvn - Eindhoven, Croy","address":"Croy 7","city":"Eindhoven","operatorName":"Opcharge","maxPowerKw":11,"isMegawatt":false,"status":"AVAILABLE","source":"ndw"}},{"type":"Feature","geometry":{"type":"Point","coordinates":[5.469004,51.445765]},"properties":{"type":"charge","layer":"passenger","locationId":"e22a3bdaa76946f29e60","name":"Zernikestraat 17 Eindhoven","address":"Zernikestraat 17","city":"Eindhoven","operatorName":"Opcharge","maxPowerKw":22,"isMegawatt":false,"status":"AVAILABLE","source":"ndw"}},{"type":"Feature","geometry":{"type":"Point","coordinates":[5.449226,51.445363]},"properties":{"type":"charge","layer":"passenger","locationId":"0483AAA1-B172-4F70-934F-E98E7B15E82D","name":"Eneco eMobility Royal HaskoningDHV Eindhoven","address":"Larixplein 1","city":"Eindhoven","operatorName":"Eneco","maxPowerKw":22,"isMegawatt":false,"status":"AVAILABLE","source":"ndw"}},{"type":"Feature","geometry":{"type":"Point","coordinates":[5.485747,51.434892]},"properties":{"type":"charge","layer":"passenger","locationId":"db6f714c5ab64c9a0b625d740e16f34b","name":"Geldropseweg 17","address":"Geldropseweg 17","city":"Eindhoven","operatorName":"Vattenfall InCharge","maxPowerKw":22,"isMegawatt":false,"status":"AVAILABLE","source":"ndw"}},{"type":"Feature","geometry":{"type":"Point","coordinates":[5.47287,51.47335]},"properties":{"type":"charge","layer":"passenger","locationId":"33114956ac41daab13fa8c6af02577ee","name":"Clervauxlaan 49","address":"Clervauxlaan 49","city":"Eindhoven","operatorName":"Vattenfall InCharge","maxPowerKw":11,"isMegawatt":false,"status":"AVAILABLE","source":"ndw"}},{"type":"Feature","geometry":{"type":"Point","coordinates":[5.473441,51.441324]},"properties":{"type":"charge","layer":"passenger","locationId":"9E846982-D1A2-4315-8F69-A5B1CCED2BA4","name":"Q-Park Eindhoven Mathildelaan","address":"Mathildelaan 2","city":"Eindhoven","operatorName":"Q-Park Netherlands","maxPowerKw":11,"isMegawatt":false,"status":"AVAILABLE","source":"ndw"}},{"type":"Feature","geometry":{"type":"Point","coordinates":[5.464308,51.479417]},"properties":{"type":"charge","layer":"passenger","locationId":"2343d1bf-8a3b-4c71-824d-ebda99dc47fb","name":"Lauwerszeeweg","address":"Lauwerszeeweg 146","city":"Eindhoven","operatorName":"Vattenfall InCharge","maxPowerKw":11,"isMegawatt":false,"status":"AVAILABLE","source":"ndw"}},{"type":"Feature","geometry":{"type":"Point","coordinates":[5.474495,51.440316]},"properties":{"type":"charge","layer":"passenger","locationId":"15D4AEE9-4D0A-4A26-B7D1-423CAC9B68A9","name":"Q-Park Eindhoven Witte Dame","address":"Emmasingel 2","city":"Eindhoven","operatorName":"Q-Park Netherlands","maxPowerKw":11,"isMegawatt":false,"status":"AVAILABLE","source":"ndw"}},{"type":"Feature","geometry":{"type":"Point","coordinates":[5.481229,51.437992]},"properties":{"type":"charge","layer":"passenger","locationId":"d79ae4dc-a881-11f0-af5c-42010aa400b8","name":"Q-Park Eindhoven Heuvel","address":"Ten Hagestraat 6","city":"Eindhoven","operatorName":"Q-Park Netherlands","maxPowerKw":11,"isMegawatt":false,"status":"AVAILABLE","source":"ndw"}},{"type":"Feature","geometry":{"type":"Point","coordinates":[5.417499,51.465199]},"properties":{"type":"charge","layer":"passenger","locationId":"b2f651c4-7dc8-11ee-9175-42010aa40fc0","name":"Shell Recharge Het Schakelplein 6 (Truck only)","address":"Het Schakelplein 6","city":"Eindhoven","operatorName":"Shell Recharge","maxPowerKw":300,"isMegawatt":false,"status":"AVAILABLE","source":"ndw"}},{"type":"Feature","geometry":{"type":"Point","coordinates":[5.488353,51.476975]},"properties":{"type":"charge","layer":"passenger","locationId":"d8877832-4875-11ea-a65a-42010a840003","name":"Shell Recharge Kennedylaan 9","address":"Kennedylaan 9","city":"Eindhoven","operatorName":"Shell Recharge","maxPowerKw":300,"isMegawatt":false,"status":"AVAILABLE","source":"ndw"}},{"type":"Feature","geometry":{"type":"Point","coordinates":[5.475693,51.442917]},"properties":{"type":"charge","layer":"passenger","locationId":"5BDC5FEF-D2B8-4537-8A88-56DAC0B4C8A1","name":"Q-Park Eindhoven Bijenkorf","address":"Schimmelt 50","city":"Eindhoven","operatorName":"Q-Park Netherlands","maxPowerKw":11,"isMegawatt":false,"status":"AVAILABLE","source":"ndw"}},{"type":"Feature","geometry":{"type":"Point","coordinates":[5.491381,51.441778]},"properties":{"type":"charge","layer":"passenger","locationId":"1dc2a30c-da69-11e9-bb51-42010a840003","name":"NLD Merellaan 24, 5613 AL Eindhoven","address":"Merellaan 24","city":"Eindhoven","operatorName":"Allego","maxPowerKw":0,"isMegawatt":false,"status":"AVAILABLE","source":"ndw"}},{"type":"Feature","geometry":{"type":"Point","coordinates":[5.457321,51.42113]},"properties":{"type":"charge","layer":"passenger","locationId":"1de2d576-2386-11ea-972a-42010a840003","name":"NLD Lassusstraat 88 5654 LM Eindhoven","address":"Lassusstraat 88","city":"Eindhoven","operatorName":"Allego","maxPowerKw":0,"isMegawatt":false,"status":"AVAILABLE","source":"ndw"}},{"type":"Feature","geometry":{"type":"Point","coordinates":[5.451104,51.425812]},"properties":{"type":"charge","layer":"passenger","locationId":"65e98f7da92466001c3cdd86","name":"Eindhoven/Mendelssohnlaan 154","address":"Mendelssohnlaan 154","city":"Eindhoven","operatorName":"E-Flux by Road","maxPowerKw":14,"isMegawatt":false,"status":"AVAILABLE","source":"ndw"}},{"type":"Feature","geometry":{"type":"Point","coordinates":[5.452353,51.43043]},"properties":{"type":"charge","layer":"passenger","locationId":"0e87a06af11c4a8c8146","name":"Profinn - Beemdstraat 1 Eindhoven (parkeergarage -1 (hoekveldkast))","address":"Beemdstraat 1","city":"Eindhoven","operatorName":"Opcharge","maxPowerKw":22,"isMegawatt":false,"status":"AVAILABLE","source":"ndw"}},{"type":"Feature","geometry":{"type":"Point","coordinates":[5.50965,51.43808]},"properties":{"type":"charge","layer":"passenger","locationId":"102ecf40162ebc246e0536859ee5f064","name":"Sint Josephlaan 53","address":"Sint Josephlaan 53","city":"Eindhoven","operatorName":"Vattenfall InCharge","maxPowerKw":11,"isMegawatt":false,"status":"AVAILABLE","source":"ndw"}},{"type":"Feature","geometry":{"type":"Point","coordinates":[5.480662,51.469136]},"properties":{"type":"charge","layer":"passenger","locationId":"3dd602a6-7c7f-11eb-9002-42010a840003","name":"NL, Hasenbosakker 2, 5625XN, Eindhoven","address":"Hasenbosakker 2","city":"Eindhoven","operatorName":"Allego","maxPowerKw":0,"isMegawatt":false,"status":"AVAILABLE","source":"ndw"}},{"type":"Feature","geometry":{"type":"Point","coordinates":[5.46547,51.463994]},"properties":{"type":"charge","layer":"passenger","locationId":"621ac20c-a8b3-11ed-905e-42010aa40fc0","name":"NL, Bleyslaan 1, 5622 GM Eindhoven","address":"Bleyslaan 1","city":"Eindhoven","operatorName":"Allego","maxPowerKw":0,"isMegawatt":false,"status":"AVAILABLE","source":"ndw"}},{"type":"Feature","geometry":{"type":"Point","coordinates":[5.464456,51.417862]},"properties":{"type":"charge","layer":"passenger","locationId":"646fa960-2061-11ea-80d3-42010a840003","name":"NLD, Holstraat 165 5654BP Eindhoven","address":"Holstraat 165","city":"Eindhoven","operatorName":"Allego","maxPowerKw":0,"isMegawatt":false,"status":"AVAILABLE","source":"ndw"}},{"type":"Feature","geometry":{"type":"Point","coordinates":[5.476408,51.447804]},"properties":{"type":"charge","layer":"passenger","locationId":"9305ff56-4f3c-11e8-8a79-42010a840002","name":"NLD, Eindhoven, Gildelaan 34","address":"Gildelaan 34","city":"Eindhoven","operatorName":"Allego","maxPowerKw":0,"isMegawatt":false,"status":"CHARGING","source":"ndw"}},{"type":"Feature","geometry":{"type":"Point","coordinates":[5.471431,51.469719]},"properties":{"type":"charge","layer":"passenger","locationId":"f9453f90-8354-11ea-9dee-42010a840003","name":"NL, Badelochstraat 88, 5625BB, Eindhoven","address":"Badelochstraat 88","city":"Eindhoven","operatorName":"Allego","maxPowerKw":0,"isMegawatt":false,"status":"AVAILABLE","source":"ndw"}},{"type":"Feature","geometry":{"type":"Point","coordinates":[5.484018,51.433813]},"properties":{"type":"charge","layer":"passenger","locationId":"16d6796024c92ce87872365974d02b80","name":"Stratumsedijk 20-A","address":"Stratumsedijk 20-A","city":"Eindhoven","operatorName":"Vattenfall InCharge","maxPowerKw":11,"isMegawatt":false,"status":"CHARGING","source":"ndw"}},{"type":"Feature","geometry":{"type":"Point","coordinates":[5.475617,51.436539]},"properties":{"type":"charge","layer":"passenger","locationId":"2604776","name":"Laadnet Hotel the Match B.V.","address":"Kleine Berg 43","city":"Eindhoven","operatorName":"Laadnet","maxPowerKw":22,"isMegawatt":false,"status":"AVAILABLE","source":"ndw"}},{"type":"Feature","geometry":{"type":"Point","coordinates":[5.480209,51.49082]},"properties":{"type":"charge","layer":"passenger","locationId":"621369ecdc5114026596af8f","name":"Eindhoven/Atilla","address":"Atilla 39","city":"Eindhoven","operatorName":"E-Flux by Road","maxPowerKw":14,"isMegawatt":false,"status":"AVAILABLE","source":"ndw"}},{"type":"Feature","geometry":{"type":"Point","coordinates":[5.467903,51.425569]},"properties":{"type":"charge","layer":"passenger","locationId":"4859ff7a2432aee85e1a7a2d8fe00622","name":"Gestelsestraat 232","address":"Gestelsestraat 232","city":"Eindhoven","operatorName":"Vattenfall InCharge","maxPowerKw":11,"isMegawatt":false,"status":"AVAILABLE","source":"ndw"}},{"type":"Feature","geometry":{"type":"Point","coordinates":[5.46887,51.48423]},"properties":{"type":"charge","layer":"passenger","locationId":"f940eecaaeb2be46bf7e86b316b68f6e","name":"Hondsruglaan 8","address":"Hondsruglaan 8","city":"Eindhoven","operatorName":"Vattenfall InCharge","maxPowerKw":11,"isMegawatt":false,"status":"AVAILABLE","source":"ndw"}},{"type":"Feature","geometry":{"type":"Point","coordinates":[5.481721,51.482874]},"properties":{"type":"charge","layer":"passenger","locationId":"NLLOC001246","name":"NLD, Eindhoven, Aarlenlaan 39","address":"Aarlenlaan 39","city":"Eindhoven","operatorName":"Allego","maxPowerKw":0,"isMegawatt":false,"status":"AVAILABLE","source":"ndw"}},{"type":"Feature","geometry":{"type":"Point","coordinates":[5.438561,51.487756]},"properties":{"type":"charge","layer":"passenger","locationId":"dedb1faa-bf90-4767-8bcd-94000a72b96b","name":"Fransebaan","address":"Fransebaan 443","city":"Eindhoven","operatorName":"Vattenfall InCharge","maxPowerKw":11,"isMegawatt":false,"status":"AVAILABLE","source":"ndw"}},{"type":"Feature","geometry":{"type":"Point","coordinates":[5.478816,51.491091]},"properties":{"type":"charge","layer":"passenger","locationId":"00b62766-6f30-11ed-b16f-42010aa40fc0","name":"NL, Otello 1, 5629 NE Eindhoven","address":"Otello 1","city":"Eindhoven","operatorName":"Allego","maxPowerKw":0,"isMegawatt":false,"status":"CHARGING","source":"ndw"}},{"type":"Feature","geometry":{"type":"Point","coordinates":[5.439319,51.432053]},"properties":{"type":"charge","layer":"passenger","locationId":"e6bf2bfb688a44a79b85","name":"NTS Dillenburgstraat Eindhoven","address":"Dillenburgstraat 9","city":"Eindhoven","operatorName":"Opcharge","maxPowerKw":22,"isMegawatt":false,"status":"AVAILABLE","source":"ndw"}},{"type":"Feature","geometry":{"type":"Point","coordinates":[5.410325,51.450154]},"properties":{"type":"charge","layer":"passenger","locationId":"47b9f502-7c7f-11eb-b7c2-42010a840003","name":"NL, Zandschuit 79, 5658 AB Eindhoven","address":"Zandschuit 79","city":"Eindhoven","operatorName":"Allego","maxPowerKw":0,"isMegawatt":false,"status":"AVAILABLE","source":"ndw"}},{"type":"Feature","geometry":{"type":"Point","coordinates":[5.457088,51.460486]},"properties":{"type":"charge","layer":"passenger","locationId":"521bb06c-03dd-11ed-8184-42010aa40fc0","name":"NL, Willem van Noortlaan 7, 5622 PD Eindhoven","address":"Willem van Noortlaan 7","city":"Eindhoven","operatorName":"Allego","maxPowerKw":0,"isMegawatt":false,"status":"AVAILABLE","source":"ndw"}},{"type":"Feature","geometry":{"type":"Point","coordinates":[5.458985,51.418448]},"properties":{"type":"charge","layer":"passenger","locationId":"548327d4-eb7f-11ec-90b1-42010aa40fc0","name":"NL, Bennekelstraat 156, 5654DK, Eindhoven","address":"Bennekelstraat 156","city":"Eindhoven","operatorName":"Allego","maxPowerKw":0,"isMegawatt":false,"status":"AVAILABLE","source":"ndw"}},{"type":"Feature","geometry":{"type":"Point","coordinates":[5.475789,51.451327]},"properties":{"type":"charge","layer":"passenger","locationId":"710580fe-d5d9-11ea-ab39-42010a840003","name":"NL, Looierstraat 20, 5612 BR, Eindhoven","address":"Looierstraat 20","city":"Eindhoven","operatorName":"Allego","maxPowerKw":0,"isMegawatt":false,"status":"CHARGING","source":"ndw"}},{"type":"Feature","geometry":{"type":"Point","coordinates":[5.459081,51.470517]},"properties":{"type":"charge","layer":"passenger","locationId":"81c19250-4f3c-11e8-a677-42010a840002","name":"NLD, Eindhoven, Bakhuizen van den Brinklaan 93","address":"Bakhuizen van den Brinklaan 93","city":"Eindhoven","operatorName":"Allego","maxPowerKw":0,"isMegawatt":false,"status":"AVAILABLE","source":"ndw"}},{"type":"Feature","geometry":{"type":"Point","coordinates":[5.517708,51.437454]},"properties":{"type":"charge","layer":"passenger","locationId":"90065a6c-4f3c-11e8-bc55-42010a840002","name":"NLD, Eindhoven, Pieter lastmanstraat 28","address":"Pieter lastmanstraat 28","city":"Eindhoven","operatorName":"Allego","maxPowerKw":0,"isMegawatt":false,"status":"AVAILABLE","source":"ndw"}},{"type":"Feature","geometry":{"type":"Point","coordinates":[5.469677,51.445118]},"properties":{"type":"charge","layer":"passenger","locationId":"9e865af0-3143-11ec-9b8e-42010a840003","name":"NL, Rosa Manusstraat 25, 5612RA, Eindhoven","address":"Rosa Manusstraat 25","city":"Eindhoven","operatorName":"Allego","maxPowerKw":0,"isMegawatt":false,"status":"AVAILABLE","source":"ndw"}},{"type":"Feature","geometry":{"type":"Point","coordinates":[5.498346,51.438995]},"properties":{"type":"charge","layer":"passenger","locationId":"d077490e-21f3-11ea-9709-42010a840003","name":"NLD, Bosboomstraat 84 5613KG Eindhoven","address":"Bosboomstraat 84","city":"Eindhoven","operatorName":"Allego","maxPowerKw":0,"isMegawatt":false,"status":"AVAILABLE","source":"ndw"}},{"type":"Feature","geometry":{"type":"Point","coordinates":[5.460014,51.430098]},"properties":{"type":"charge","layer":"passenger","locationId":"d5efd208-3f07-11ea-b2cc-42010a840003","name":"NL, Karel de stoutestraat 4, 5616 CS, Eindhoven","address":"Karel de stoutestraat 4","city":"Eindhoven","operatorName":"Allego","maxPowerKw":0,"isMegawatt":false,"status":"AVAILABLE","source":"ndw"}},{"type":"Feature","geometry":{"type":"Point","coordinates":[5.46772,51.437326]},"properties":{"type":"charge","layer":"passenger","locationId":"02f24d1e-cad9-11ea-9aa0-42010a840003","name":"NL, Lodewijk Napoleonlaan 21, 5616 BB, Eindhoven","address":"Lodewijk Napoleonlaan 21","city":"Eindhoven","operatorName":"Allego","maxPowerKw":0,"isMegawatt":false,"status":"AVAILABLE","source":"ndw"}},{"type":"Feature","geometry":{"type":"Point","coordinates":[5.401096,51.438698]},"properties":{"type":"charge","layer":"passenger","locationId":"6c509076-d005-11ec-8317-42010a840003","name":"NL, Waterlinie 623, 5658NR, Eindhoven","address":"Waterlinie 623","city":"Eindhoven","operatorName":"Allego","maxPowerKw":0,"isMegawatt":false,"status":"AVAILABLE","source":"ndw"}},{"type":"Feature","geometry":{"type":"Point","coordinates":[5.47106,51.433275]},"properties":{"type":"charge","layer":"passenger","locationId":"7f7bbc42-4e20-11f0-bda1-42010aa40043","name":"NLD, Eindhoven, Sint Lambertusstraat 42","address":"Sint Lambertusstraat 42","city":"Eindhoven","operatorName":"Allego","maxPowerKw":0,"isMegawatt":false,"status":"AVAILABLE","source":"ndw"}},{"type":"Feature","geometry":{"type":"Point","coordinates":[5.470246,51.462174]},"properties":{"type":"charge","layer":"passenger","locationId":"8218b7ba-4f3c-11e8-aa78-42010a840002","name":"NLD, Eindhoven, Joris Minnestraat 9","address":"Joris Minnestraat 9","city":"Eindhoven","operatorName":"Allego","maxPowerKw":0,"isMegawatt":false,"status":"CHARGING","source":"ndw"}},{"type":"Feature","geometry":{"type":"Point","coordinates":[5.457105,51.439213]},"properties":{"type":"charge","layer":"passenger","locationId":"824c37fc-4f3c-11e8-938f-42010a840002","name":"NLD, Eindhoven, Kerkakkerstraat 17","address":"Kerkakkerstraat 17","city":"Eindhoven","operatorName":"Allego","maxPowerKw":0,"isMegawatt":false,"status":"AVAILABLE","source":"ndw"}},{"type":"Feature","geometry":{"type":"Point","coordinates":[5.457802,51.457017]},"properties":{"type":"charge","layer":"passenger","locationId":"a84d8b76-701c-11ed-ad85-42010aa40fc0","name":"NL, Kamerlingh Onnesstraat 25, 5621 EL Eindhoven","address":"Kamerlingh Onnesstraat 25","city":"Eindhoven","operatorName":"Allego","maxPowerKw":0,"isMegawatt":false,"status":"AVAILABLE","source":"ndw"}},{"type":"Feature","geometry":{"type":"Point","coordinates":[5.435581,51.41552]},"properties":{"type":"charge","layer":"passenger","locationId":"b2ca361c-9154-11e9-9a85-42010a840003","name":"NLD Twickel 3 5655 JK Eindhoven","address":"Twickel 3","city":"Eindhoven","operatorName":"Allego","maxPowerKw":0,"isMegawatt":false,"status":"AVAILABLE","source":"ndw"}},{"type":"Feature","geometry":{"type":"Point","coordinates":[5.458604,51.438379]},"properties":{"type":"charge","layer":"passenger","locationId":"c3ef8784-e632-11e9-88ec-42010a840003","name":"NLD Willem de Rijkelaan 19 5616 HZ Eindhoven","address":"Willem de Rijkelaan 19","city":"Eindhoven","operatorName":"Allego","maxPowerKw":0,"isMegawatt":false,"status":"AVAILABLE","source":"ndw"}},{"type":"Feature","geometry":{"type":"Point","coordinates":[5.443527,51.415791]},"properties":{"type":"charge","layer":"passenger","locationId":"e787bb82-761f-11e8-8564-42010a840002","name":"NLD, Eindhoven, Puthof 3","address":"Puthof 3","city":"Eindhoven","operatorName":"Allego","maxPowerKw":0,"isMegawatt":false,"status":"AVAILABLE","source":"ndw"}},{"type":"Feature","geometry":{"type":"Point","coordinates":[5.453405,51.444117]},"properties":{"type":"charge","layer":"passenger","locationId":"f038c624-82ae-11f0-9561-42010aa400b8","name":"NLD, Kleinakker 2, 5616 RV, Eindhoven","address":"Kleinakker 2","city":"Eindhoven","operatorName":"Allego","maxPowerKw":0,"isMegawatt":false,"status":"AVAILABLE","source":"ndw"}},{"type":"Feature","geometry":{"type":"Point","coordinates":[5.492436,51.437312]},"properties":{"type":"charge","layer":"passenger","locationId":"f7338294-8ae4-11e8-b49f-42010a840002","name":"NLD, Eindhoven, Picushof 5","address":"Picushof 5","city":"Eindhoven","operatorName":"Allego","maxPowerKw":0,"isMegawatt":false,"status":"AVAILABLE","source":"ndw"}},{"type":"Feature","geometry":{"type":"Point","coordinates":[5.48809,51.44198]},"properties":{"type":"charge","layer":"passenger","locationId":"0AACE7A9-8411-4580-B3BB-7775FE965E4A","name":"Eneco eMobility VB Real Estate B.V.","address":"Parklaan 54","city":"Eindhoven","operatorName":"Eneco","maxPowerKw":11,"isMegawatt":false,"status":"AVAILABLE","source":"ndw"}},{"type":"Feature","geometry":{"type":"Point","coordinates":[5.43079,51.43134]},"properties":{"type":"charge","layer":"passenger","locationId":"9b89b5e96bdb42089580","name":"Profinn - BAM Looyenbeemd 14 Eindhoven 1","address":"Looyenbeemd 14","city":"Eindhoven","operatorName":"Opcharge","maxPowerKw":11,"isMegawatt":false,"status":"AVAILABLE","source":"ndw"}},{"type":"Feature","geometry":{"type":"Point","coordinates":[5.4027,51.45099]},"properties":{"type":"charge","layer":"passenger","locationId":"885AFA03-3CDC-4EF1-8827-A814BFAF0663","name":"Eneco eMobility Promese Logistics Flight Forum 1500 5657EA Eindhoven","address":"Flight Forum 1500","city":"Eindhoven","operatorName":"Eneco","maxPowerKw":22,"isMegawatt":false,"status":"AVAILABLE","source":"ndw"}},{"type":"Feature","geometry":{"type":"Point","coordinates":[5.448623,51.429271]},"properties":{"type":"charge","layer":"passenger","locationId":"53922f7c-e508-4cab-9a62-bff4f812440e","name":"Beemdstraat","address":"Beemdstraat 15","city":"Eindhoven","operatorName":"Vattenfall InCharge","maxPowerKw":11,"isMegawatt":false,"status":"AVAILABLE","source":"ndw"}},{"type":"Feature","geometry":{"type":"Point","coordinates":[5.470605,51.46056]},"properties":{"type":"charge","layer":"passenger","locationId":"c30306e6-5256-4718-add0-0af39cd618c0","name":"Woenselsestraat","address":"Woenselsestraat 365","city":"Eindhoven","operatorName":"Vattenfall InCharge","maxPowerKw":11,"isMegawatt":false,"status":"AVAILABLE","source":"ndw"}},{"type":"Feature","geometry":{"type":"Point","coordinates":[5.449226,51.445363]},"properties":{"type":"charge","layer":"passenger","locationId":"e44c6172-4e72-11e8-a5fa-42010a840002","name":"Eneco eMobility Royal HaskoningDHV Eindhoven","address":"Larixplein 1","city":"Eindhoven","operatorName":"Eneco","maxPowerKw":22,"isMegawatt":false,"status":"AVAILABLE","source":"ndw"}},{"type":"Feature","geometry":{"type":"Point","coordinates":[5.475693,51.442917]},"properties":{"type":"charge","layer":"passenger","locationId":"468852e4-a7ba-11f0-a8fe-42010aa400b8","name":"Q-Park Eindhoven Bijenkorf","address":"Schimmelt 50","city":"Eindhoven","operatorName":"Q-Park Netherlands","maxPowerKw":11,"isMegawatt":false,"status":"CHARGING","source":"ndw"}},{"type":"Feature","geometry":{"type":"Point","coordinates":[5.48029,51.435444]},"properties":{"type":"charge","layer":"passenger","locationId":"58e348ae-b2b9-11f0-8811-42010aa400b8","name":"Q-Park Eindhoven Stadhuisplein","address":"Stadhuisplein 1A","city":"Eindhoven","operatorName":"Q-Park Netherlands","maxPowerKw":11,"isMegawatt":false,"status":"AVAILABLE","source":"ndw"}},{"type":"Feature","geometry":{"type":"Point","coordinates":[5.497719,51.436512]},"properties":{"type":"charge","layer":"passenger","locationId":"7d155904-4e20-11f0-aad0-42010aa40043","name":"Shell Recharge Kanaaldijk-Noord 15A","address":"Kanaaldijk-Noord 15A","city":"Eindhoven","operatorName":"Shell Recharge","maxPowerKw":150,"isMegawatt":false,"status":"AVAILABLE","source":"ndw"}},{"type":"Feature","geometry":{"type":"Point","coordinates":[5.468869,51.445974]},"properties":{"type":"charge","layer":"passenger","locationId":"620e40e2fcf67ed24e9d1f5f","name":"Eindhoven/Zernikestraat","address":"Zernikestraat 130","city":"Eindhoven","operatorName":"E-Flux by Road","maxPowerKw":14,"isMegawatt":false,"status":"AVAILABLE","source":"ndw"}},{"type":"Feature","geometry":{"type":"Point","coordinates":[5.400824,51.455928]},"properties":{"type":"charge","layer":"passenger","locationId":"183a8c7a5ffa43c0a53e","name":"Profinn - Flight Forum 840 (kopgebouw), Eindhoven ","address":"Flight Forum 1","city":"Eindhoven","operatorName":"Opcharge","maxPowerKw":22,"isMegawatt":false,"status":"AVAILABLE","source":"ndw"}},{"type":"Feature","geometry":{"type":"Point","coordinates":[5.454294,51.447776]},"properties":{"type":"charge","layer":"passenger","locationId":"922729","name":"DAE-NL-2000415","address":"Torenallee 80","city":"Eindhoven","operatorName":"DAEN Mobility","maxPowerKw":11,"isMegawatt":false,"status":"AVAILABLE","source":"ndw"}},{"type":"Feature","geometry":{"type":"Point","coordinates":[5.491181,51.487346]},"properties":{"type":"charge","layer":"passenger","locationId":"879617fe-fc36-11ec-91a6-42010aa40032","name":"Eneco eMobility VCD Business Solutions B.V. - Eindhoven","address":"Esp 120","city":"Eindhoven","operatorName":"Eneco","maxPowerKw":22,"isMegawatt":false,"status":"AVAILABLE","source":"ndw"}},{"type":"Feature","geometry":{"type":"Point","coordinates":[5.461257,51.422989]},"properties":{"type":"charge","layer":"passenger","locationId":"248a69f0-805a-11e8-9dc0-42010a840002","name":"Lidl Eindhoven","address":"Willaertplein","city":"Eindhoven","operatorName":"Lidl","maxPowerKw":22,"isMegawatt":false,"status":"AVAILABLE","source":"ndw"}},{"type":"Feature","geometry":{"type":"Point","coordinates":[5.452301,51.432308]},"properties":{"type":"charge","layer":"passenger","locationId":"dcdc13de-29b7-11ef-aafb-42010aa400b8","name":"Basic-Fit 1166 Eindhoven Limburglaan (PowerGo)","address":"Limburglaan 36","city":"Eindhoven","operatorName":"PowerGo","maxPowerKw":0,"isMegawatt":false,"status":"UNAVAILABLE","source":"ndw"}},{"type":"Feature","geometry":{"type":"Point","coordinates":[5.515775,51.445112]},"properties":{"type":"charge","layer":"passenger","locationId":"62d5425ac63f3bcd5547183b","name":"Eindhoven/Telefoonstraat","address":"Telefoonstraat 21","city":"Eindhoven","operatorName":"E-Flux by Road","maxPowerKw":14,"isMegawatt":false,"status":"AVAILABLE","source":"ndw"}},{"type":"Feature","geometry":{"type":"Point","coordinates":[5.449226,51.445363]},"properties":{"type":"charge","layer":"passenger","locationId":"0eb9461c-d603-11f0-9a55-42010aa400b8","name":"Eneco eMobility Royal HaskoningDHV Eindhoven","address":"Larixplein 1","city":"Eindhoven","operatorName":"Eneco","maxPowerKw":22,"isMegawatt":false,"status":"AVAILABLE","source":"ndw"}},{"type":"Feature","geometry":{"type":"Point","coordinates":[5.42744,51.43632]},"properties":{"type":"charge","layer":"passenger","locationId":"81b616ae-fc36-11ec-9837-42010aa4001d","name":"Eneco eMobility Hurksestraat 45 Eindhoven","address":"Hurksestraat 45","city":"Eindhoven","operatorName":"Eneco","maxPowerKw":22,"isMegawatt":false,"status":"AVAILABLE","source":"ndw"}},{"type":"Feature","geometry":{"type":"Point","coordinates":[5.410424,51.479668]},"properties":{"type":"charge","layer":"passenger","locationId":"82942d42-d85e-11f0-901a-42010aa400b8","name":"Eneco eMobility Morrison Express","address":"Achtseweg Noord 2","city":"Eindhoven","operatorName":"Eneco","maxPowerKw":11,"isMegawatt":false,"status":"AVAILABLE","source":"ndw"}},{"type":"Feature","geometry":{"type":"Point","coordinates":[5.46535,51.457896]},"properties":{"type":"charge","layer":"passenger","locationId":"OST22P0016_0052_0","name":"OST22P0016_0052_0","address":"van Vorststraat 8","city":"Eindhoven","operatorName":"e-VOLTT","maxPowerKw":0,"isMegawatt":false,"status":"AVAILABLE","source":"ndw"}},{"type":"Feature","geometry":{"type":"Point","coordinates":[5.462768,51.431601]},"properties":{"type":"charge","layer":"passenger","locationId":"67616a98f4638b2e0e785aa3","name":"Eindhoven/Clovislaan 141","address":"Clovislaan 141","city":"Eindhoven","operatorName":"E-Flux by Road","maxPowerKw":14,"isMegawatt":false,"status":"AVAILABLE","source":"ndw"}},{"type":"Feature","geometry":{"type":"Point","coordinates":[5.449912,51.422798]},"properties":{"type":"charge","layer":"passenger","locationId":"cf7a56d2-408e-43d3-8ce4-f03740f87823","name":"Delibesweg","address":"Delibesweg 8","city":"Eindhoven","operatorName":"Vattenfall InCharge","maxPowerKw":11,"isMegawatt":false,"status":"AVAILABLE","source":"ndw"}},{"type":"Feature","geometry":{"type":"Point","coordinates":[5.473411,51.473395]},"properties":{"type":"charge","layer":"passenger","locationId":"216ea0e6-22e4-4f0e-9940-47fa50db469d","name":"Clervauxlaan","address":"Clervauxlaan 16","city":"Eindhoven","operatorName":"Vattenfall InCharge","maxPowerKw":11,"isMegawatt":false,"status":"AVAILABLE","source":"ndw"}},{"type":"Feature","geometry":{"type":"Point","coordinates":[5.431629,51.436029]},"properties":{"type":"charge","layer":"passenger","locationId":"69DE55ED-0063-47C5-AA9F-043C7D83FD8A","name":"Eneco eMobility KWS Infra Eindhoven","address":"Huiskesweg 7","city":"Eindhoven","operatorName":"Eneco","maxPowerKw":200,"isMegawatt":false,"status":"AVAILABLE","source":"ndw"}},{"type":"Feature","geometry":{"type":"Point","coordinates":[5.395378,51.458462]},"properties":{"type":"charge","layer":"passenger","locationId":"02646083935a4569973a","name":"Park 4 You Eindhoven","address":"Freddy van Riemsdijkweg 11","city":"Eindhoven","operatorName":"Opcharge","maxPowerKw":22,"isMegawatt":false,"status":"AVAILABLE","source":"ndw"}},{"type":"Feature","geometry":{"type":"Point","coordinates":[5.469596,51.43479]},"properties":{"type":"charge","layer":"passenger","locationId":"NLLOC015211","name":"NL, Mecklenburgstraat 46, 5616 AP Eindhoven","address":"Mecklenburgstraat 46","city":"Eindhoven","operatorName":"Allego","maxPowerKw":0,"isMegawatt":false,"status":"AVAILABLE","source":"ndw"}},{"type":"Feature","geometry":{"type":"Point","coordinates":[5.41842,51.48442]},"properties":{"type":"charge","layer":"passenger","locationId":"65160c2a-fc36-11ec-93b9-42010aa4001d","name":"Eneco eMobility KPN N.V. RES - Eindhoven","address":"Hooge zijde 28","city":"Eindhoven","operatorName":"Eneco","maxPowerKw":0,"isMegawatt":false,"status":"AVAILABLE","source":"ndw"}},{"type":"Feature","geometry":{"type":"Point","coordinates":[5.465641,51.429835]},"properties":{"type":"charge","layer":"passenger","locationId":"647300de142a6aad924b62dcb9e4e5ec","name":"Frederik Hendrikplein 19E","address":"Frederik Hendrikplein 19E","city":"Eindhoven","operatorName":"Vattenfall InCharge","maxPowerKw":11,"isMegawatt":false,"status":"AVAILABLE","source":"ndw"}},{"type":"Feature","geometry":{"type":"Point","coordinates":[5.429037,51.424217]},"properties":{"type":"charge","layer":"passenger","locationId":"6684404b0adc402e8cd9","name":"Profinn - Hoevenweg 13-19 Eindhoven","address":"Hoevenweg 13","city":"Eindhoven","operatorName":"Opcharge","maxPowerKw":22,"isMegawatt":false,"status":"AVAILABLE","source":"ndw"}},{"type":"Feature","geometry":{"type":"Point","coordinates":[5.455845,51.427166]},"properties":{"type":"charge","layer":"passenger","locationId":"673b2ebf332ec616ac6f73b7","name":"Eindhoven/Donizettilaan 33","address":"Donizettilaan 33","city":"Eindhoven","operatorName":"E-Flux by Road","maxPowerKw":14,"isMegawatt":false,"status":"AVAILABLE","source":"ndw"}},{"type":"Feature","geometry":{"type":"Point","coordinates":[5.468928,51.443129]},"properties":{"type":"charge","layer":"passenger","locationId":"675fefd1f53928682497d846","name":"Eindhoven/Clara Wichmannstraat 40","address":"Clara Wichmannstraat 40","city":"Eindhoven","operatorName":"E-Flux by Road","maxPowerKw":14,"isMegawatt":false,"status":"AVAILABLE","source":"ndw"}},{"type":"Feature","geometry":{"type":"Point","coordinates":[5.477,51.43769]},"properties":{"type":"charge","layer":"passenger","locationId":"AD65BCFD-AFE0-4E90-8535-A40835F1E33B","name":"Q-Park Eindhoven Hooghuis","address":"Keizersgracht 9","city":"Eindhoven","operatorName":"Q-Park Netherlands","maxPowerKw":11,"isMegawatt":false,"status":"AVAILABLE","source":"ndw"}},{"type":"Feature","geometry":{"type":"Point","coordinates":[5.467073,51.451724]},"properties":{"type":"charge","layer":"passenger","locationId":"634d6845b1b3767c9a55ec29","name":"Eindhoven/Zeeheldenlaan","address":"Zeeheldenlaan 115","city":"Eindhoven","operatorName":"E-Flux by Road","maxPowerKw":14,"isMegawatt":false,"status":"AVAILABLE","source":"ndw"}},{"type":"Feature","geometry":{"type":"Point","coordinates":[5.439319,51.432053]},"properties":{"type":"charge","layer":"passenger","locationId":"54dc14cef458421db5dc","name":"NTS Campus (achterzijde HQ) - Eindhoven, Dillenburgstraat","address":"Dillenburgstraat 9","city":"Eindhoven","operatorName":"Opcharge","maxPowerKw":22,"isMegawatt":false,"status":"AVAILABLE","source":"ndw"}},{"type":"Feature","geometry":{"type":"Point","coordinates":[5.459588,51.473323]},"properties":{"type":"charge","layer":"passenger","locationId":"b2df8772-b3d1-4978-b18a-8099f85781c6","name":"Fruinlaan","address":"Fruinlaan 253","city":"Eindhoven","operatorName":"Vattenfall InCharge","maxPowerKw":11,"isMegawatt":false,"status":"AVAILABLE","source":"ndw"}},{"type":"Feature","geometry":{"type":"Point","coordinates":[5.486273,51.419029]},"properties":{"type":"charge","layer":"passenger","locationId":"621741c6d553a446b8900ad1","name":"Eindhoven/Balsemienplein","address":"Balsemienplein 15","city":"Eindhoven","operatorName":"E-Flux by Road","maxPowerKw":14,"isMegawatt":false,"status":"AVAILABLE","source":"ndw"}},{"type":"Feature","geometry":{"type":"Point","coordinates":[5.444356,51.487474]},"properties":{"type":"charge","layer":"passenger","locationId":"65e9c2f3ea3193001c08da8b","name":"Eindhoven/Tourslaan 37 d","address":"Tourslaan  37 D","city":"Eindhoven","operatorName":"E-Flux by Road","maxPowerKw":14,"isMegawatt":false,"status":"AVAILABLE","source":"ndw"}},{"type":"Feature","geometry":{"type":"Point","coordinates":[5.393439,51.458667]},"properties":{"type":"charge","layer":"passenger","locationId":"20052f6890a941e79715","name":"Luchthavenweg 55, Eindhoven","address":"Luchthavenweg 55","city":"Eindhoven","operatorName":"Opcharge","maxPowerKw":11,"isMegawatt":false,"status":"AVAILABLE","source":"ndw"}},{"type":"Feature","geometry":{"type":"Point","coordinates":[5.483612,51.433377]},"properties":{"type":"charge","layer":"passenger","locationId":"6521371502db420020947dc4","name":"Eindhoven/Jan Smitzlaan 2","address":"Jan Smitzlaan 2","city":"Eindhoven","operatorName":"E-Flux by Road","maxPowerKw":14,"isMegawatt":false,"status":"AVAILABLE","source":"ndw"}},{"type":"Feature","geometry":{"type":"Point","coordinates":[5.48748,51.445164]},"properties":{"type":"charge","layer":"passenger","locationId":"bab90468be554b939d51","name":"Profinn - The Core (FRONT BUITEN) - Eindhoven, Prof. Dr. Dorgelolaan","address":"Professor Doctor Dorgelolaan 14","city":"Eindhoven","operatorName":"Opcharge","maxPowerKw":22,"isMegawatt":false,"status":"AVAILABLE","source":"ndw"}},{"type":"Feature","geometry":{"type":"Point","coordinates":[5.468968,51.475001]},"properties":{"type":"charge","layer":"passenger","locationId":"6a211057-aabb-4de9-8ab9-7747b1742351","name":"Adelaertstraat","address":"Adelaertstraat 19","city":"Eindhoven","operatorName":"Vattenfall InCharge","maxPowerKw":11,"isMegawatt":false,"status":"AVAILABLE","source":"ndw"}},{"type":"Feature","geometry":{"type":"Point","coordinates":[5.465654,51.454515]},"properties":{"type":"charge","layer":"passenger","locationId":"04744838-8979-11e9-a0a8-42010a840003","name":"NLD, Frankrijkstraat 73 5622AE Eindhoven","address":"Frankrijkstraat 73","city":"Eindhoven","operatorName":"Allego","maxPowerKw":0,"isMegawatt":false,"status":"AVAILABLE","source":"ndw"}},{"type":"Feature","geometry":{"type":"Point","coordinates":[5.520493,51.44811]},"properties":{"type":"charge","layer":"passenger","locationId":"7e25ff72-84e7-11ea-a462-42010a840003","name":"NL, 't Hofke, 22, 5641AL, Eindhoven","address":"'t Hofke 22","city":"Eindhoven","operatorName":"Allego","maxPowerKw":0,"isMegawatt":false,"status":"AVAILABLE","source":"ndw"}},{"type":"Feature","geometry":{"type":"Point","coordinates":[5.41029,51.446595]},"properties":{"type":"charge","layer":"passenger","locationId":"8fb3aba0-4f3c-11e8-a773-42010a840002","name":"NLD, Eindhoven, Zandreiger 26","address":"Zandreiger 26","city":"Eindhoven","operatorName":"Allego","maxPowerKw":0,"isMegawatt":false,"status":"AVAILABLE","source":"ndw"}},{"type":"Feature","geometry":{"type":"Point","coordinates":[5.472571,51.458796]},"properties":{"type":"charge","layer":"passenger","locationId":"9f7b7212-08ed-11eb-856d-42010a840033","name":"NL, Jan van Boonenstraat 6, 5623BV Eindhoven","address":"Jan van Boonenstraat 6","city":"Eindhoven","operatorName":"Allego","maxPowerKw":0,"isMegawatt":false,"status":"AVAILABLE","source":"ndw"}},{"type":"Feature","geometry":{"type":"Point","coordinates":[5.465552,51.441367]},"properties":{"type":"charge","layer":"passenger","locationId":"a42a99b0-aeec-11ea-b438-42010a840fd5","name":"NL, Hulstlaan 2, 5616 PL Eindhoven","address":"Hulstlaan 2","city":"Eindhoven","operatorName":"Allego","maxPowerKw":0,"isMegawatt":false,"status":"AVAILABLE","source":"ndw"}},{"type":"Feature","geometry":{"type":"Point","coordinates":[5.452926,51.438727]},"properties":{"type":"charge","layer":"passenger","locationId":"cf5474c2-ca4c-11eb-aa23-42010a840003","name":"NL, Boegstraat 2, 5616KH Eindhoven","address":"Boegstraat 2","city":"Eindhoven","operatorName":"Allego","maxPowerKw":0,"isMegawatt":false,"status":"AVAILABLE","source":"ndw"}},{"type":"Feature","geometry":{"type":"Point","coordinates":[5.464069,51.458665]},"properties":{"type":"charge","layer":"passenger","locationId":"OST22P0016_0063_0","name":"OST22P0016_0063_0","address":"van Vorststraat 2","city":"Eindhoven","operatorName":"e-VOLTT","maxPowerKw":0,"isMegawatt":false,"status":"AVAILABLE","source":"ndw"}},{"type":"Feature","geometry":{"type":"Point","coordinates":[5.39554,51.46027]},"properties":{"type":"charge","layer":"passenger","locationId":"56ED3352-C25D-4109-8C4C-FE5FCC975348","name":"Eneco eMobility Luchthavenweg 45 Eindhoven","address":"Luchthavenweg 45","city":"Eindhoven","operatorName":"Eneco","maxPowerKw":0,"isMegawatt":false,"status":"AVAILABLE","source":"ndw"}},{"type":"Feature","geometry":{"type":"Point","coordinates":[5.50798,51.425436]},"properties":{"type":"charge","layer":"passenger","locationId":"NLLOC004165","name":"NLD Geert Grootestraat 72 5645RE Eindhoven","address":"Geert Grootestraat 72","city":"Eindhoven","operatorName":"Allego","maxPowerKw":0,"isMegawatt":false,"status":"UNAVAILABLE","source":"ndw"}},{"type":"Feature","geometry":{"type":"Point","coordinates":[5.441086,51.427067]},"properties":{"type":"charge","layer":"passenger","locationId":"cd6d80ccddc8452aaf4b","name":"Profinn - Meerenakkerplein Eindhoven (deel 3)","address":"Meerenakkerplein 12","city":"Eindhoven","operatorName":"Opcharge","maxPowerKw":22,"isMegawatt":false,"status":"AVAILABLE","source":"ndw"}},{"type":"Feature","geometry":{"type":"Point","coordinates":[5.478133,51.413459]},"properties":{"type":"charge","layer":"passenger","locationId":"bcf49950-af02-4543-85f5-380e36e0b7a5","name":"Theo Koomenlaan 7","address":"Theo Koomenlaan 7","city":"Eindhoven","operatorName":"Vattenfall InCharge","maxPowerKw":11,"isMegawatt":false,"status":"AVAILABLE","source":"ndw"}},{"type":"Feature","geometry":{"type":"Point","coordinates":[5.504137,51.419778]},"properties":{"type":"charge","layer":"passenger","locationId":"NLLOC010984","name":"NL, Kalmoesplein 77 5643 LM Eindhoven","address":"Kalmoesplein 77","city":"Eindhoven","operatorName":"Allego","maxPowerKw":0,"isMegawatt":false,"status":"AVAILABLE","source":"ndw"}},{"type":"Feature","geometry":{"type":"Point","coordinates":[5.445996,51.450721]},"properties":{"type":"charge","layer":"passenger","locationId":"NLLOC005006","name":"NLD Pixelhof 15, 5651 HL Eindhoven","address":"Pixelhof 15","city":"Eindhoven","operatorName":"Allego","maxPowerKw":0,"isMegawatt":false,"status":"AVAILABLE","source":"ndw"}},{"type":"Feature","geometry":{"type":"Point","coordinates":[5.393974,51.435191]},"properties":{"type":"charge","layer":"passenger","locationId":"60c37ff1462ca84d682d4321","name":"Eindhoven/Waterlinie 97 (achterzijde)","address":"Waterlinie 97","city":"Eindhoven","operatorName":"E-Flux by Road","maxPowerKw":14,"isMegawatt":false,"status":"AVAILABLE","source":"ndw"}},{"type":"Feature","geometry":{"type":"Point","coordinates":[5.45822,51.48096]},"properties":{"type":"charge","layer":"passenger","locationId":"f12f9618-aaca-11f0-bb97-42010aa400b8","name":"Eneco eMobility Nefkens BV - Eindhoven- Werkplaats","address":"Pietersbergweg 25","city":"Eindhoven","operatorName":"Eneco","maxPowerKw":1,"isMegawatt":false,"status":"CHARGING","source":"ndw"}},{"type":"Feature","geometry":{"type":"Point","coordinates":[5.477,51.43769]},"properties":{"type":"charge","layer":"passenger","locationId":"e822b3ba-0120-11f0-8bad-42010aa400b8","name":"Q-Park Eindhoven Hooghuis","address":"Keizersgracht 9","city":"Eindhoven","operatorName":"Q-Park Netherlands","maxPowerKw":11,"isMegawatt":false,"status":"AVAILABLE","source":"ndw"}},{"type":"Feature","geometry":{"type":"Point","coordinates":[5.431823,51.44284]},"properties":{"type":"charge","layer":"passenger","locationId":"NLLOC003411","name":"NLD, Eindhoven, Peckiuslaan 1","address":"Peckiuslaan 1","city":"Eindhoven","operatorName":"Allego","maxPowerKw":0,"isMegawatt":false,"status":"AVAILABLE","source":"ndw"}},{"type":"Feature","geometry":{"type":"Point","coordinates":[5.454294,51.447776]},"properties":{"type":"charge","layer":"passenger","locationId":"922724","name":"DAE-NL-2000410","address":"Torenallee 80","city":"Eindhoven","operatorName":"DAEN Mobility","maxPowerKw":11,"isMegawatt":false,"status":"CHARGING","source":"ndw"}},{"type":"Feature","geometry":{"type":"Point","coordinates":[5.462896,51.464442]},"properties":{"type":"charge","layer":"passenger","locationId":"6214c3ef1b995556bd4da16a","name":"Eindhoven/Staalstraat","address":"Staalstraat 1","city":"Eindhoven","operatorName":"E-Flux by Road","maxPowerKw":14,"isMegawatt":false,"status":"AVAILABLE","source":"ndw"}},{"type":"Feature","geometry":{"type":"Point","coordinates":[5.445773,51.479327]},"properties":{"type":"charge","layer":"passenger","locationId":"6231c85f42678bbe980ba084","name":"Eindhoven/Marseillelaan","address":"Marseillelaan 30","city":"Eindhoven","operatorName":"E-Flux by Road","maxPowerKw":14,"isMegawatt":false,"status":"AVAILABLE","source":"ndw"}},{"type":"Feature","geometry":{"type":"Point","coordinates":[5.482448,51.421862]},"properties":{"type":"charge","layer":"passenger","locationId":"NLLOC001747","name":"NLD, Eindhoven, Melati van Javalaan 3","address":"Melati van Javalaan 3","city":"Eindhoven","operatorName":"Allego","maxPowerKw":0,"isMegawatt":false,"status":"AVAILABLE","source":"ndw"}},{"type":"Feature","geometry":{"type":"Point","coordinates":[5.486314,51.470578]},"properties":{"type":"charge","layer":"passenger","locationId":"618cd88e02b0d255658f572b","name":"Eindhoven/Maalakker 18","address":"Maalakker 18","city":"Eindhoven","operatorName":"E-Flux by Road","maxPowerKw":14,"isMegawatt":false,"status":"AVAILABLE","source":"ndw"}},{"type":"Feature","geometry":{"type":"Point","coordinates":[5.417888,51.44002]},"properties":{"type":"charge","layer":"passenger","locationId":"NLLOC013466","name":"NL, Graslelie 22, 5658GR, Eindhoven","address":"Graslelie 22","city":"Eindhoven","operatorName":"Allego","maxPowerKw":0,"isMegawatt":false,"status":"AVAILABLE","source":"ndw"}},{"type":"Feature","geometry":{"type":"Point","coordinates":[5.464432,51.442277]},"properties":{"type":"charge","layer":"passenger","locationId":"63529b7b0fc8dde5e4a94a3a","name":"Eindhoven/Frederiklaan","address":"Frederiklaan 73","city":"Eindhoven","operatorName":"E-Flux by Road","maxPowerKw":14,"isMegawatt":false,"status":"AVAILABLE","source":"ndw"}},{"type":"Feature","geometry":{"type":"Point","coordinates":[5.442987,51.437942]},"properties":{"type":"charge","layer":"passenger","locationId":"62752352d32461495bb37fe0","name":"Eindhoven/Zeelsterstraat","address":"Zeelsterstraat 80","city":"Eindhoven","operatorName":"E-Flux by Road","maxPowerKw":14,"isMegawatt":false,"status":"AVAILABLE","source":"ndw"}},{"type":"Feature","geometry":{"type":"Point","coordinates":[5.426309,51.481317]},"properties":{"type":"charge","layer":"passenger","locationId":"652e3cdb1afec8001c0887e3","name":"Eindhoven/Roerstraat 44","address":"Roerstraat 44","city":"Eindhoven","operatorName":"E-Flux by Road","maxPowerKw":14,"isMegawatt":false,"status":"AVAILABLE","source":"ndw"}},{"type":"Feature","geometry":{"type":"Point","coordinates":[5.459081,51.470517]},"properties":{"type":"charge","layer":"passenger","locationId":"NLLOC001561","name":"NLD, Eindhoven, Bakhuizen van den Brinklaan 93","address":"Bakhuizen van den Brinklaan 93","city":"Eindhoven","operatorName":"Allego","maxPowerKw":0,"isMegawatt":false,"status":"CHARGING","source":"ndw"}},{"type":"Feature","geometry":{"type":"Point","coordinates":[5.515792,51.418702]},"properties":{"type":"charge","layer":"passenger","locationId":"NLLOC017182","name":"NL, Bunderkensven 2, 5646HD Eindhoven","address":"Bunderkensven 2","city":"Eindhoven","operatorName":"Allego","maxPowerKw":0,"isMegawatt":false,"status":"AVAILABLE","source":"ndw"}},{"type":"Feature","geometry":{"type":"Point","coordinates":[5.521955,51.44601]},"properties":{"type":"charge","layer":"passenger","locationId":"88e942c8-106e-11ee-a280-42010aa40fc0","name":"Eindhoven","address":"Urkhovenseweg","city":"Eindhoven","operatorName":"Lidl","maxPowerKw":11,"isMegawatt":false,"status":"AVAILABLE","source":"ndw"}},{"type":"Feature","geometry":{"type":"Point","coordinates":[5.452301,51.4323082]},"properties":{"type":"charge","layer":"passenger","locationId":"23615","name":"Basic-Fit 1166 Eindhoven Limburglaan (PowerGo)","address":"Limburglaan 36","city":"Eindhoven","operatorName":"PowerGo","maxPowerKw":0,"isMegawatt":false,"status":"AVAILABLE","source":"ndw"}},{"type":"Feature","geometry":{"type":"Point","coordinates":[5.488467,51.415727]},"properties":{"type":"charge","layer":"passenger","locationId":"NLLOC003706","name":"NLD Gemeente Eindhoven Boerhaavelaan 1 5644BB Eindhoven","address":"Boerhaavelaan 1","city":"Eindhoven","operatorName":"Allego","maxPowerKw":0,"isMegawatt":false,"status":"AVAILABLE","source":"ndw"}},{"type":"Feature","geometry":{"type":"Point","coordinates":[5.421054,51.433212]},"properties":{"type":"charge","layer":"passenger","locationId":"c4d1065889834482b03fec4dfa682106","name":"Eindhoven Campanile Hotel","address":" Noord Brabantlaan 309","city":"Eindhoven","operatorName":"Opcharge","maxPowerKw":22,"isMegawatt":false,"status":"AVAILABLE","source":"ndw"}},{"type":"Feature","geometry":{"type":"Point","coordinates":[5.477913,51.45507]},"properties":{"type":"charge","layer":"passenger","locationId":"NLLOC002906","name":"NLD, Amundsenlaan 141 5623 PR Eindhoven","address":"Amundsenlaan 141","city":"Eindhoven","operatorName":"Allego","maxPowerKw":0,"isMegawatt":false,"status":"AVAILABLE","source":"ndw"}},{"type":"Feature","geometry":{"type":"Point","coordinates":[5.486169,51.436613]},"properties":{"type":"charge","layer":"passenger","locationId":"618b81232f0391127d53d829","name":"Eindhoven/Kleine Bleekstraat","address":"Kleine Bleekstraat 24","city":"Eindhoven","operatorName":"E-Flux by Road","maxPowerKw":14,"isMegawatt":false,"status":"AVAILABLE","source":"ndw"}},{"type":"Feature","geometry":{"type":"Point","coordinates":[5.467093,51.424617]},"properties":{"type":"charge","layer":"passenger","locationId":"6734a6bf87e2da5f4bf53610","name":"Eindhoven/Gestelsestraat 217","address":"Gestelsestraat 217","city":"Eindhoven","operatorName":"E-Flux by Road","maxPowerKw":14,"isMegawatt":false,"status":"AVAILABLE","source":"ndw"}},{"type":"Feature","geometry":{"type":"Point","coordinates":[5.49457,51.44224]},"properties":{"type":"charge","layer":"passenger","locationId":"c8371467fcdd4f28251185d861e2f3a7","name":"Lijsterlaan 38","address":"Lijsterlaan 38","city":"Eindhoven","operatorName":"Vattenfall InCharge","maxPowerKw":11,"isMegawatt":false,"status":"AVAILABLE","source":"ndw"}},{"type":"Feature","geometry":{"type":"Point","coordinates":[5.462592,51.47483]},"properties":{"type":"charge","layer":"passenger","locationId":"3dcad12c-d05c-4203-adc9-90f6ec10e63a","name":"Cantecleerstraat","address":"Cantecleerstraat 2","city":"Eindhoven","operatorName":"Vattenfall InCharge","maxPowerKw":11,"isMegawatt":false,"status":"AVAILABLE","source":"ndw"}},{"type":"Feature","geometry":{"type":"Point","coordinates":[5.43079,51.43134]},"properties":{"type":"charge","layer":"passenger","locationId":"af7f788c8ce346b28abb","name":"Profinn - BAM Bezoekersparkeerplaats Looyenbeemd Eindhoven","address":"Looyenbeemd 14","city":"Eindhoven","operatorName":"Opcharge","maxPowerKw":11,"isMegawatt":false,"status":"CHARGING","source":"ndw"}},{"type":"Feature","geometry":{"type":"Point","coordinates":[5.497719,51.436512]},"properties":{"type":"charge","layer":"passenger","locationId":"127","name":"Shell Recharge NL9092 - Gamma Eindhoven Centrum","address":"Kanaaldijk-Noord 15A","city":"Eindhoven","operatorName":"Shell Recharge","maxPowerKw":150,"isMegawatt":false,"status":"AVAILABLE","source":"ndw"}},{"type":"Feature","geometry":{"type":"Point","coordinates":[5.465538,51.423229]},"properties":{"type":"charge","layer":"passenger","locationId":"NLLOC007681","name":"NL, Diabellistraat 2, 5654cs, Eindhoven","address":"Diabellistraat 2","city":"Eindhoven","operatorName":"Allego","maxPowerKw":0,"isMegawatt":false,"status":"AVAILABLE","source":"ndw"}},{"type":"Feature","geometry":{"type":"Point","coordinates":[5.457014,51.46467]},"properties":{"type":"charge","layer":"passenger","locationId":"4f6f1792-0413-485f-b984-18c7a22360e0","name":"De Klerklaan","address":"De Klerklaan 6a","city":"Eindhoven","operatorName":"Vattenfall InCharge","maxPowerKw":11,"isMegawatt":false,"status":"AVAILABLE","source":"ndw"}},{"type":"Feature","geometry":{"type":"Point","coordinates":[5.414958,51.446149]},"properties":{"type":"charge","layer":"passenger","locationId":"NLLOC003744","name":"NLD Gemeente Eindhoven Bosfazant 17 5658 CA Eindhoven","address":"Bosfazant 17","city":"Eindhoven","operatorName":"Allego","maxPowerKw":0,"isMegawatt":false,"status":"AVAILABLE","source":"ndw"}},{"type":"Feature","geometry":{"type":"Point","coordinates":[5.477674,51.434949]},"properties":{"type":"charge","layer":"passenger","locationId":"a9e70614-4a25-11ed-9ca7-42010aa40fc0","name":"COCON VASTGOED WERKPARADIJS -1","address":"Paradijslaan 30-38A","city":"Eindhoven","operatorName":"ChargePoint","maxPowerKw":22,"isMegawatt":false,"status":"UNAVAILABLE","source":"ndw"}},{"type":"Feature","geometry":{"type":"Point","coordinates":[5.459044,51.456462]},"properties":{"type":"charge","layer":"passenger","locationId":"NLLOC003708","name":"NLD Gemeente Eindhoven Minckelersplein 17 5621EE Eindhoven","address":"Minckelersplein 17","city":"Eindhoven","operatorName":"Allego","maxPowerKw":0,"isMegawatt":false,"status":"AVAILABLE","source":"ndw"}},{"type":"Feature","geometry":{"type":"Point","coordinates":[5.491559,51.417795]},"properties":{"type":"charge","layer":"passenger","locationId":"668d28ee262ad1001c4a3c84","name":"Eindhoven/ Hyacinthstrtaat-Roostenlaan 184","address":"Roostenlaan 184","city":"Eindhoven","operatorName":"E-Flux by Road","maxPowerKw":14,"isMegawatt":false,"status":"AVAILABLE","source":"ndw"}},{"type":"Feature","geometry":{"type":"Point","coordinates":[5.468732,51.445386]},"properties":{"type":"charge","layer":"passenger","locationId":"6905480c7b4a475eb0fc286e8eb9f657","name":"Eindhoven Artiensis Zernikestraat 17b ","address":"Zernikestraat 17b","city":"Eindhoven","operatorName":"OPCHARGE","maxPowerKw":22,"isMegawatt":false,"status":"AVAILABLE","source":"ndw"}},{"type":"Feature","geometry":{"type":"Point","coordinates":[5.502198,51.425077]},"properties":{"type":"charge","layer":"passenger","locationId":"5404a37cbcaa4ecc832e8840765ed7c5","name":"Arnhem OPL1178 Thomas A. Kempislaan 9","address":"Thomas A. Kempislaan 7","city":"Anrhem","operatorName":"Opcharge","maxPowerKw":11,"isMegawatt":false,"status":"AVAILABLE","source":"ndw"}},{"type":"Feature","geometry":{"type":"Point","coordinates":[5.461337,51.468642]},"properties":{"type":"charge","layer":"passenger","locationId":"NLLOC005933","name":"NLD, Neumannlaan 26 5624KM Eindhoven","address":"Neumannlaan 26","city":"Eindhoven","operatorName":"Allego","maxPowerKw":0,"isMegawatt":false,"status":"AVAILABLE","source":"ndw"}},{"type":"Feature","geometry":{"type":"Point","coordinates":[5.455472,51.420357]},"properties":{"type":"charge","layer":"passenger","locationId":"12c94454-7ba5-11f0-90d0-42010aa400b8","name":"Eneco eMobility PMeulesteen BV","address":"Peter van Anrooylaan 5","city":"Eindhoven","operatorName":"Eneco","maxPowerKw":11,"isMegawatt":false,"status":"AVAILABLE","source":"ndw"}},{"type":"Feature","geometry":{"type":"Point","coordinates":[5.501506,51.438851]},"properties":{"type":"charge","layer":"passenger","locationId":"652d2d7aba447c001c7f5302","name":"Eindhoven/Van Ostadestraat-Rembrandtplein 1","address":"Rembrandtplein 1","city":"Eindhoven","operatorName":"E-Flux by Road","maxPowerKw":14,"isMegawatt":false,"status":"AVAILABLE","source":"ndw"}},{"type":"Feature","geometry":{"type":"Point","coordinates":[5.406226,51.445443]},"properties":{"type":"charge","layer":"passenger","locationId":"668fd99d050b7e001d5cba63","name":"Eindhoven/Zandbloem 67","address":"Zandbloem 67","city":"Eindhoven","operatorName":"E-Flux by Road","maxPowerKw":14,"isMegawatt":false,"status":"AVAILABLE","source":"ndw"}},{"type":"Feature","geometry":{"type":"Point","coordinates":[5.457105,51.439213]},"properties":{"type":"charge","layer":"passenger","locationId":"NLLOC001196","name":"NLD, Eindhoven, Kerkakkerstraat 17","address":"Kerkakkerstraat 17","city":"Eindhoven","operatorName":"Allego","maxPowerKw":0,"isMegawatt":false,"status":"AVAILABLE","source":"ndw"}},{"type":"Feature","geometry":{"type":"Point","coordinates":[5.47576,51.41703]},"properties":{"type":"charge","layer":"passenger","locationId":"92cd0e56-39fd-4743-a243-c3faedc5262a","name":"Antoon Coolenlaan 1","address":"Antoon Coolenlaan 1","city":"Eindhoven","operatorName":"Vattenfall InCharge","maxPowerKw":11,"isMegawatt":false,"status":"AVAILABLE","source":"ndw"}},{"type":"Feature","geometry":{"type":"Point","coordinates":[5.435073,51.486662]},"properties":{"type":"charge","layer":"passenger","locationId":"6734aa049ef7432cc88660d7","name":"Eindhoven/Mainelaan 171","address":"Mainelaan 171","city":"Eindhoven","operatorName":"E-Flux by Road","maxPowerKw":14,"isMegawatt":false,"status":"AVAILABLE","source":"ndw"}},{"type":"Feature","geometry":{"type":"Point","coordinates":[5.513532,51.428386]},"properties":{"type":"charge","layer":"passenger","locationId":"6184f134c3f32b7f38a47ea7","name":"Eindhoven / Van Renesseweg","address":"Van Renesseweg 26","city":"Eindhoven","operatorName":"E-Flux by Road","maxPowerKw":14,"isMegawatt":false,"status":"AVAILABLE","source":"ndw"}},{"type":"Feature","geometry":{"type":"Point","coordinates":[5.471039,51.428068]},"properties":{"type":"charge","layer":"passenger","locationId":"64523f1970ee140012a241af","name":"Eindhoven/Jan van Heelustraat 1 5615NC","address":"Jan van Heelustraat  1","city":"Eindhoven","operatorName":"E-Flux by Road","maxPowerKw":14,"isMegawatt":false,"status":"AVAILABLE","source":"ndw"}},{"type":"Feature","geometry":{"type":"Point","coordinates":[5.496029,51.438007]},"properties":{"type":"charge","layer":"passenger","locationId":"fe1a4b0e-2da4-4efb-b8f1-b1f600a9556f","name":"Willem van Konijnenburglaan","address":"Willem van Konijnenburglaan 1","city":"Eindhoven","operatorName":"Vattenfall InCharge","maxPowerKw":11,"isMegawatt":false,"status":"AVAILABLE","source":"ndw"}},{"type":"Feature","geometry":{"type":"Point","coordinates":[5.473438,51.455359]},"properties":{"type":"charge","layer":"passenger","locationId":"c7153d7f14d24eabae5a69d8032c0e5b","name":"Eindhoven - Petruspark","address":"Petruspark","city":"Eindhoven","operatorName":"","maxPowerKw":22,"isMegawatt":false,"status":"AVAILABLE","source":"ndw"}},{"type":"Feature","geometry":{"type":"Point","coordinates":[5.432628,51.419431]},"properties":{"type":"charge","layer":"passenger","locationId":"ea8c72ff-aecb-405b-84fc-1b6b16acd35f","name":"Croy","address":"Croy 6","city":"Eindhoven","operatorName":"Vattenfall InCharge","maxPowerKw":11,"isMegawatt":false,"status":"AVAILABLE","source":"ndw"}},{"type":"Feature","geometry":{"type":"Point","coordinates":[5.440963,51.426675]},"properties":{"type":"charge","layer":"passenger","locationId":"08f0e4beee174e2ca51eecbfa683a607","name":"Profinn - Meerenakkerplein 21-29, Eindhoven SNELLADER","address":"Meerenakkerplein 21-29","city":"Eindhoven","operatorName":"Opcharge","maxPowerKw":50,"isMegawatt":false,"status":"AVAILABLE","source":"ndw"}},{"type":"Feature","geometry":{"type":"Point","coordinates":[5.43079,51.43134]},"properties":{"type":"charge","layer":"passenger","locationId":"c675ebf2e6774b8182b9","name":"Profinn - BAM Looyenbeemd 14 Eindhoven 2","address":"Looyenbeemd 14","city":"Eindhoven","operatorName":"Opcharge","maxPowerKw":22,"isMegawatt":false,"status":"AVAILABLE","source":"ndw"}},{"type":"Feature","geometry":{"type":"Point","coordinates":[5.46093,51.44947]},"properties":{"type":"charge","layer":"passenger","locationId":"418c5e7d6a3d01ba151281822279512a","name":"'s Gravesandestraat 39","address":"'s Gravesandestraat 39","city":"Eindhoven","operatorName":"Vattenfall InCharge","maxPowerKw":11,"isMegawatt":false,"status":"AVAILABLE","source":"ndw"}},{"type":"Feature","geometry":{"type":"Point","coordinates":[5.467573,51.466323]},"properties":{"type":"charge","layer":"passenger","locationId":"c509f9a6-2b01-11ef-90f3-42010aa400b8","name":"JOLT EIN00870","address":"1e Lieven de Keylaan 122","city":"Eindhoven","operatorName":"JOLT Energy","maxPowerKw":300,"isMegawatt":false,"status":"AVAILABLE","source":"ndw"}},{"type":"Feature","geometry":{"type":"Point","coordinates":[5.412421,51.469615]},"properties":{"type":"charge","layer":"passenger","locationId":"b235c442-a1e6-11eb-900c-42010a84000a","name":"Eneco eMobility De Keten 1 Eindhoven","address":"De Keten 1","city":"Eindhoven","operatorName":"Eneco","maxPowerKw":0,"isMegawatt":false,"status":"AVAILABLE","source":"ndw"}},{"type":"Feature","geometry":{"type":"Point","coordinates":[5.442711,51.436506]},"properties":{"type":"charge","layer":"passenger","locationId":"765fcff545d84f74827efcf015250f18","name":"Eindhoven Caspar de Haan (voorkant)","address":"Hastelweg 218","city":"Eindhoven","operatorName":"Operator","maxPowerKw":22,"isMegawatt":false,"status":"AVAILABLE","source":"ndw"}},{"type":"Feature","geometry":{"type":"Point","coordinates":[5.525901,51.445356]},"properties":{"type":"charge","layer":"passenger","locationId":"1dbd385c-2386-11ea-82ab-42010a840003","name":"NLD Urkhovenseweg 388 5641 KR Eindhoven","address":"Urkhovenseweg 388","city":"Eindhoven","operatorName":"Allego","maxPowerKw":0,"isMegawatt":false,"status":"AVAILABLE","source":"ndw"}},{"type":"Feature","geometry":{"type":"Point","coordinates":[5.45325,51.430795]},"properties":{"type":"charge","layer":"passenger","locationId":"ea0fb6131f8c4ffa95af","name":"Profinn - Beemdstraat 1 Eindhoven (hoofdingang)","address":"Beemdstraat 1","city":"Eindhoven","operatorName":"Opcharge","maxPowerKw":22,"isMegawatt":false,"status":"AVAILABLE","source":"ndw"}},{"type":"Feature","geometry":{"type":"Point","coordinates":[5.469004,51.445765]},"properties":{"type":"charge","layer":"passenger","locationId":"f2de5b6f04ce41a495e9","name":"Zernikestraat 17 Eindhoven (achter)","address":"Zernikestraat 17","city":"Eindhoven","operatorName":"Opcharge","maxPowerKw":22,"isMegawatt":false,"status":"AVAILABLE","source":"ndw"}},{"type":"Feature","geometry":{"type":"Point","coordinates":[5.41668,51.436893]},"properties":{"type":"charge","layer":"passenger","locationId":"6617a07ced68ef001c2a0adc","name":"Eindhoven/Grasveld 76","address":"Grasveld  76","city":"Eindhoven","operatorName":"E-Flux by Road","maxPowerKw":14,"isMegawatt":false,"status":"AVAILABLE","source":"ndw"}},{"type":"Feature","geometry":{"type":"Point","coordinates":[5.452486,51.43032]},"properties":{"type":"charge","layer":"passenger","locationId":"eb8de7b472264e978131","name":"Profinn - Beemdstraat 1 Eindhoven (parkeergarage -1 & parkeerdek achter (middenveldkast))","address":"Beemdstraat 1","city":"Eindhoven","operatorName":"Opcharge","maxPowerKw":22,"isMegawatt":false,"status":"AVAILABLE","source":"ndw"}},{"type":"Feature","geometry":{"type":"Point","coordinates":[5.48748,51.445164]},"properties":{"type":"charge","layer":"passenger","locationId":"33de0111397f4e4fb487","name":"Profinn - The Core Eindhoven (PARKEERGARAGE)","address":"Professor Doctor Dorgelolaan 14","city":"Eindhoven","operatorName":"Opcharge","maxPowerKw":22,"isMegawatt":false,"status":"AVAILABLE","source":"ndw"}},{"type":"Feature","geometry":{"type":"Point","coordinates":[5.488377,51.423901]},"properties":{"type":"charge","layer":"passenger","locationId":"61c33d88b7945c5232e6a25c","name":"Eindhoven/Versantvoortstraat 38","address":"Versantvoortstraat 38","city":"Eindhoven","operatorName":"E-Flux by Road","maxPowerKw":14,"isMegawatt":false,"status":"AVAILABLE","source":"ndw"}},{"type":"Feature","geometry":{"type":"Point","coordinates":[5.47983,51.487214]},"properties":{"type":"charge","layer":"passenger","locationId":"0f3deff0e4d8e9f473299d8f79ca15b9","name":"Vuurvogel 2","address":"Vuurvogel 2","city":"Eindhoven","operatorName":"Vattenfall InCharge","maxPowerKw":11,"isMegawatt":false,"status":"AVAILABLE","source":"ndw"}},{"type":"Feature","geometry":{"type":"Point","coordinates":[5.515792,51.418702]},"properties":{"type":"charge","layer":"passenger","locationId":"16d12c8e-74d6-11ed-b35b-42010aa40fc0","name":"NL, Bunderkensven 2, 5646HD Eindhoven","address":"Bunderkensven 2","city":"Eindhoven","operatorName":"Allego","maxPowerKw":0,"isMegawatt":false,"status":"AVAILABLE","source":"ndw"}},{"type":"Feature","geometry":{"type":"Point","coordinates":[5.442868,51.424357]},"properties":{"type":"charge","layer":"passenger","locationId":"NLLOC007700","name":"NL, Frankendaal 56, 5653 PE, Eindhoven","address":"Frankendaal 56","city":"Eindhoven","operatorName":"Allego","maxPowerKw":0,"isMegawatt":false,"status":"AVAILABLE","source":"ndw"}},{"type":"Feature","geometry":{"type":"Point","coordinates":[5.479328,51.40693]},"properties":{"type":"charge","layer":"passenger","locationId":"4e42b9b0-cc1c-11e8-9e0a-42010a840002","name":"Allego - Van der Valk Eindhoven A2","address":"Aalsterweg 322","city":"Eindhoven","operatorName":"Allego","maxPowerKw":0,"isMegawatt":false,"status":"AVAILABLE","source":"ndw"}},{"type":"Feature","geometry":{"type":"Point","coordinates":[5.497253,51.472439]},"properties":{"type":"charge","layer":"passenger","locationId":"60023f00-b1f1-11eb-b6ec-42010a840003","name":"NL, zwaardvispad 14, 5632 DM Eindhoven","address":"zwaardvispad 14","city":"Eindhoven","operatorName":"Allego","maxPowerKw":0,"isMegawatt":false,"status":"AVAILABLE","source":"ndw"}},{"type":"Feature","geometry":{"type":"Point","coordinates":[5.510728,51.419145]},"properties":{"type":"charge","layer":"passenger","locationId":"6819adfa-7d48-11eb-93f6-42010a840003","name":"NL, Raatven 27, 5646 HS Eindhoven","address":"Raatven 27","city":"Eindhoven","operatorName":"Allego","maxPowerKw":0,"isMegawatt":false,"status":"AVAILABLE","source":"ndw"}},{"type":"Feature","geometry":{"type":"Point","coordinates":[5.474039,51.491128]},"properties":{"type":"charge","layer":"passenger","locationId":"7df5d496-84e7-11ea-b9b3-42010a840003","name":"NL, Ill Corsaro 1, 5629 NM, Eindhoven","address":"Ill Corsaro 1","city":"Eindhoven","operatorName":"Allego","maxPowerKw":0,"isMegawatt":false,"status":"AVAILABLE","source":"ndw"}},{"type":"Feature","geometry":{"type":"Point","coordinates":[5.460566,51.48274]},"properties":{"type":"charge","layer":"passenger","locationId":"86c49dce-4f3c-11e8-af5b-42010a840002","name":"NLD, Eindhoven, Vaalserbergweg 317","address":"Vaalserbergweg 317","city":"Eindhoven","operatorName":"Allego","maxPowerKw":0,"isMegawatt":false,"status":"AVAILABLE","source":"ndw"}},{"type":"Feature","geometry":{"type":"Point","coordinates":[5.483065,51.455117]},"properties":{"type":"charge","layer":"passenger","locationId":"8b4706a2-4f3c-11e8-8cc6-42010a840002","name":"NLD, Eindhoven, Vroenhof 1","address":"Vroenhof 1","city":"Eindhoven","operatorName":"Allego","maxPowerKw":0,"isMegawatt":false,"status":"AVAILABLE","source":"ndw"}},{"type":"Feature","geometry":{"type":"Point","coordinates":[5.463471,51.442977]},"properties":{"type":"charge","layer":"passenger","locationId":"ab657498-8059-11e8-a7cd-42010a840002","name":"NLD, De Jonghlaan 32, 5616 LB, Eindhoven","address":"De Jonghlaan","city":"Eindhoven","operatorName":"Allego","maxPowerKw":0,"isMegawatt":false,"status":"AVAILABLE","source":"ndw"}},{"type":"Feature","geometry":{"type":"Point","coordinates":[5.471935,51.488844]},"properties":{"type":"charge","layer":"passenger","locationId":"e01999c6-88af-11e9-a57f-42010a840003","name":"NLD, Molièrelaan 88, 5629PN, Eindhoven","address":"Molièrelaan 88","city":"Eindhoven","operatorName":"Allego","maxPowerKw":0,"isMegawatt":false,"status":"AVAILABLE","source":"ndw"}},{"type":"Feature","geometry":{"type":"Point","coordinates":[5.450631,51.423678]},"properties":{"type":"charge","layer":"passenger","locationId":"ead828ba-2b39-11e9-874d-42010a840003","name":"NLD, Eindhoven, Schubertlaan 106","address":"Schubertlaan 106","city":"Eindhoven","operatorName":"Allego","maxPowerKw":0,"isMegawatt":false,"status":"AVAILABLE","source":"ndw"}},{"type":"Feature","geometry":{"type":"Point","coordinates":[5.490714,51.43103]},"properties":{"type":"charge","layer":"passenger","locationId":"f38f607e-4f3c-11e8-b854-42010a840002","name":"NLD, Sint Jorislaan 45, 5614 AA Eindhoven","address":"Sint Jorislaan 45","city":"Eindhoven","operatorName":"Allego","maxPowerKw":0,"isMegawatt":false,"status":"AVAILABLE","source":"ndw"}},{"type":"Feature","geometry":{"type":"Point","coordinates":[5.511805,51.42488]},"properties":{"type":"charge","layer":"passenger","locationId":"81aa23542aa855f66e149898aa907bdb","name":"Van Renesseweg 71","address":"Van Renesseweg 71","city":"Eindhoven","operatorName":"Vattenfall InCharge","maxPowerKw":11,"isMegawatt":false,"status":"AVAILABLE","source":"ndw"}},{"type":"Feature","geometry":{"type":"Point","coordinates":[5.4423,51.477937]},"properties":{"type":"charge","layer":"passenger","locationId":"d1f5a504-c588-45e9-954a-5472895ea9c7","name":"Industrieweg","address":"Industrieweg 15","city":"Eindhoven","operatorName":"Vattenfall InCharge","maxPowerKw":11,"isMegawatt":false,"status":"AVAILABLE","source":"ndw"}},{"type":"Feature","geometry":{"type":"Point","coordinates":[5.451765,51.480805]},"properties":{"type":"charge","layer":"passenger","locationId":"609e38014262fe517e4a2f48","name":"Eindhoven/Normandielaan 49/5627HP","address":"Normandielaan 49","city":"Eindhoven","operatorName":"E-Flux by Road","maxPowerKw":14,"isMegawatt":false,"status":"AVAILABLE","source":"ndw"}},{"type":"Feature","geometry":{"type":"Point","coordinates":[5.43552,51.421633]},"properties":{"type":"charge","layer":"passenger","locationId":"NLLOC002147","name":"NLD, Eindhoven, Goudestein 30","address":"Goudestein 30","city":"Eindhoven","operatorName":"Allego","maxPowerKw":0,"isMegawatt":false,"status":"AVAILABLE","source":"ndw"}},{"type":"Feature","geometry":{"type":"Point","coordinates":[5.521955,51.44601]},"properties":{"type":"charge","layer":"passenger","locationId":"77851d48-5cda-45d0-9742-6f537469dff0","name":"Eindhoven","address":"Urkhovenseweg","city":"Eindhoven","operatorName":"Lidl","maxPowerKw":11,"isMegawatt":false,"status":"CHARGING","source":"ndw"}},{"type":"Feature","geometry":{"type":"Point","coordinates":[5.450288,51.419739]},"properties":{"type":"charge","layer":"passenger","locationId":"NLLOC005986","name":"NLD Tinelstraat 154 5654 LW Eindhoven","address":"Tinelstraat 154","city":"Eindhoven","operatorName":"Allego","maxPowerKw":0,"isMegawatt":false,"status":"AVAILABLE","source":"ndw"}},{"type":"Feature","geometry":{"type":"Point","coordinates":[5.401539,51.453364]},"properties":{"type":"charge","layer":"passenger","locationId":"b8b42cb790fc4cedb470","name":"Profinn - Flight Forum 120-159 (Luchtruim), Eindhoven","address":"Flight Forum 3720","city":"Eindhoven","operatorName":"Opcharge","maxPowerKw":22,"isMegawatt":false,"status":"CHARGING","source":"ndw"}},{"type":"Feature","geometry":{"type":"Point","coordinates":[5.443979,51.432268]},"properties":{"type":"charge","layer":"passenger","locationId":"565c29c975d44f258efa0f972f524dc6","name":"Eindhoven Anna Dutch","address":"Hurksestraat 8","city":"Eindhoven","operatorName":"Opcharge","maxPowerKw":22,"isMegawatt":false,"status":"AVAILABLE","source":"ndw"}},{"type":"Feature","geometry":{"type":"Point","coordinates":[5.449874,51.442332]},"properties":{"type":"charge","layer":"passenger","locationId":"6615566531d174001cca572e","name":"SVN Notarissen - Eindhoven","address":"beukenlaan 137","city":"Eindhoven","operatorName":"Fleet Charge Services","maxPowerKw":11,"isMegawatt":false,"status":"AVAILABLE","source":"ndw"}},{"type":"Feature","geometry":{"type":"Point","coordinates":[5.496118,51.476011]},"properties":{"type":"charge","layer":"passenger","locationId":"NLLOC004719","name":"NLD, Eindhoven, Den Ouden Dries 3","address":"Den Ouden Dries 3","city":"Eindhoven","operatorName":"Allego","maxPowerKw":0,"isMegawatt":false,"status":"AVAILABLE","source":"ndw"}},{"type":"Feature","geometry":{"type":"Point","coordinates":[5.459044,51.456462]},"properties":{"type":"charge","layer":"passenger","locationId":"690d7c74-4d93-11e8-b771-42010a840002","name":"NLD Gemeente Eindhoven Minckelersplein 17 5621EE Eindhoven","address":"Minckelersplein 17","city":"Eindhoven","operatorName":"Allego","maxPowerKw":0,"isMegawatt":false,"status":"AVAILABLE","source":"ndw"}},{"type":"Feature","geometry":{"type":"Point","coordinates":[5.470271,51.480594]},"properties":{"type":"charge","layer":"passenger","locationId":"6f5cefd2-2539-11e9-841f-42010a840003","name":"NLD, Rode Kruislaan 14, 5628 GM Eindhoven","address":"Rode Kruislaan 14","city":"Eindhoven","operatorName":"Allego","maxPowerKw":0,"isMegawatt":false,"status":"CHARGING","source":"ndw"}},{"type":"Feature","geometry":{"type":"Point","coordinates":[5.445466,51.445723]},"properties":{"type":"charge","layer":"passenger","locationId":"8b543444-4f3c-11e8-8ba2-42010a840002","name":"NLD, Eindhoven, Zevenaarlaan 2","address":"Zevenaarlaan 2","city":"Eindhoven","operatorName":"Allego","maxPowerKw":0,"isMegawatt":false,"status":"AVAILABLE","source":"ndw"}},{"type":"Feature","geometry":{"type":"Point","coordinates":[5.464126,51.433021]},"properties":{"type":"charge","layer":"passenger","locationId":"90e66850-4f3c-11e8-9bd6-42010a840002","name":"NLD, Eindhoven, Hertog Jan I Laan 12","address":"Hertog Jan I Laan 12","city":"Eindhoven","operatorName":"Allego","maxPowerKw":0,"isMegawatt":false,"status":"AVAILABLE","source":"ndw"}},{"type":"Feature","geometry":{"type":"Point","coordinates":[5.494118,51.429514]},"properties":{"type":"charge","layer":"passenger","locationId":"c54b8960-c558-11ea-ae7a-42010a840003","name":"NL, Burghplein 9, 5614BA, Eindhoven,","address":"Burghplein 9","city":"Eindhoven","operatorName":"Allego","maxPowerKw":0,"isMegawatt":false,"status":"AVAILABLE","source":"ndw"}},{"type":"Feature","geometry":{"type":"Point","coordinates":[5.466959,51.459215]},"properties":{"type":"charge","layer":"passenger","locationId":"e0f79e4a-2682-11e9-9eea-42010a840003","name":"NLD van Norenburchstraat 42 5622 KP Eindhoven","address":"van Norenburchstraat 42","city":"Eindhoven","operatorName":"Allego","maxPowerKw":0,"isMegawatt":false,"status":"AVAILABLE","source":"ndw"}},{"type":"Feature","geometry":{"type":"Point","coordinates":[5.487811,51.423172]},"properties":{"type":"charge","layer":"passenger","locationId":"f57ccdb2-769c-11e9-a52a-42010a840003","name":"NLD, Anjelierstraat 4 A 5644PG Eindhoven","address":"Anjelierstraat 4 A","city":"Eindhoven","operatorName":"Allego","maxPowerKw":0,"isMegawatt":false,"status":"AVAILABLE","source":"ndw"}},{"type":"Feature","geometry":{"type":"Point","coordinates":[5.410514,51.440484]},"properties":{"type":"charge","layer":"passenger","locationId":"fc472ab8-c621-11ea-b6d7-42010a840003","name":"NL, Grassavanne 22, 5658EA, Eindhoven","address":"Grassnip 2","city":"Eindhoven","operatorName":"Allego","maxPowerKw":0,"isMegawatt":false,"status":"AVAILABLE","source":"ndw"}},{"type":"Feature","geometry":{"type":"Point","coordinates":[5.437943,51.485352]},"properties":{"type":"charge","layer":"passenger","locationId":"00a3c914-5665-11e9-95c4-42010a840003","name":"NLD Gemeente Eindhoven Heraultlaan 9 5627 DM Eindhoven","address":"Heraultlaan 9","city":"Eindhoven","operatorName":"Allego","maxPowerKw":0,"isMegawatt":false,"status":"AVAILABLE","source":"ndw"}},{"type":"Feature","geometry":{"type":"Point","coordinates":[5.477913,51.45507]},"properties":{"type":"charge","layer":"passenger","locationId":"85d88978-dd6e-11e8-aec9-42010a840002","name":"NLD, Amundsenlaan 141 5623 PR Eindhoven","address":"Amundsenlaan 141","city":"Eindhoven","operatorName":"Allego","maxPowerKw":0,"isMegawatt":false,"status":"AVAILABLE","source":"ndw"}},{"type":"Feature","geometry":{"type":"Point","coordinates":[5.489051,51.420442]},"properties":{"type":"charge","layer":"passenger","locationId":"8d9323b0-9174-11ef-a4df-42010aa400b8","name":"NLD, Sint Gerardusplein 25, 5644 NG, Eindhoven","address":"Sint Gerardusplein 25","city":"Eindhoven","operatorName":"Allego","maxPowerKw":0,"isMegawatt":false,"status":"CHARGING","source":"ndw"}},{"type":"Feature","geometry":{"type":"Point","coordinates":[5.464362,51.436778]},"properties":{"type":"charge","layer":"passenger","locationId":"34a8a462-57f7-11e9-9d83-42010a840003","name":"NLD, Gemeente Eindhoven, Jan de Oudestraat 24 5616BS Eindhoven","address":"Jan de Oudestraat 24","city":"Eindhoven","operatorName":"Allego","maxPowerKw":0,"isMegawatt":false,"status":"AVAILABLE","source":"ndw"}},{"type":"Feature","geometry":{"type":"Point","coordinates":[5.509952,51.422628]},"properties":{"type":"charge","layer":"passenger","locationId":"7f905b30-cda8-11ec-8bfb-42010a840003","name":"NL, Meerbergsven 2, 5646HG, Eindhoven","address":"Meerbergsven 2","city":"Eindhoven","operatorName":"Allego","maxPowerKw":0,"isMegawatt":false,"status":"AVAILABLE","source":"ndw"}},{"type":"Feature","geometry":{"type":"Point","coordinates":[5.49461,51.483946]},"properties":{"type":"charge","layer":"passenger","locationId":"86074c74-4f3c-11e8-ae41-42010a840002","name":"NLD, Eindhoven, Busweg 46","address":"Busweg 46","city":"Eindhoven","operatorName":"Allego","maxPowerKw":0,"isMegawatt":false,"status":"AVAILABLE","source":"ndw"}},{"type":"Feature","geometry":{"type":"Point","coordinates":[5.436339,51.445571]},"properties":{"type":"charge","layer":"passenger","locationId":"9045a156-212a-11ea-af82-42010a840003","name":"NLD, Willem Schorerstraat 13 5652RR Eindhoven","address":"Willem Schorerstraat 13","city":"Eindhoven","operatorName":"Allego","maxPowerKw":0,"isMegawatt":false,"status":"AVAILABLE","source":"ndw"}},{"type":"Feature","geometry":{"type":"Point","coordinates":[5.50798,51.425436]},"properties":{"type":"charge","layer":"passenger","locationId":"b49fdfe8-8266-11e9-8119-42010a840003","name":"NLD Geert Grootestraat 72 5645RE Eindhoven","address":"Geert Grootestraat 72","city":"Eindhoven","operatorName":"Allego","maxPowerKw":0,"isMegawatt":false,"status":"AVAILABLE","source":"ndw"}},{"type":"Feature","geometry":{"type":"Point","coordinates":[5.492859,51.421405]},"properties":{"type":"charge","layer":"passenger","locationId":"e68e2714-e7a5-11e8-8f86-42010a840002","name":"NLD, Alpenroosstraat 19 5644EJ Eindhoven","address":"Alpenroosstraat 19","city":"Eindhoven","operatorName":"Allego","maxPowerKw":0,"isMegawatt":false,"status":"AVAILABLE","source":"ndw"}},{"type":"Feature","geometry":{"type":"Point","coordinates":[5.453381,51.427843]},"properties":{"type":"charge","layer":"passenger","locationId":"8c70bdf2-b07c-4afa-b9ab-d301148cb6b5","name":"Mendelssohnlaan","address":"Mendelssohnlaan 54","city":"Eindhoven","operatorName":"Vattenfall InCharge","maxPowerKw":11,"isMegawatt":false,"status":"AVAILABLE","source":"ndw"}},{"type":"Feature","geometry":{"type":"Point","coordinates":[5.484417,51.483512]},"properties":{"type":"charge","layer":"passenger","locationId":"620e43f07d23a54fe9b043de","name":"Eindhoven/Spalaan","address":"Spalaan 10","city":"Eindhoven","operatorName":"E-Flux by Road","maxPowerKw":14,"isMegawatt":false,"status":"AVAILABLE","source":"ndw"}},{"type":"Feature","geometry":{"type":"Point","coordinates":[5.447505,51.463961]},"properties":{"type":"charge","layer":"passenger","locationId":"670fb99373b2a0001cd1489a","name":"Grote Beek","address":"Dr. Poletlaan 25","city":"Eindhoven","operatorName":"E-Flux by Road","maxPowerKw":11,"isMegawatt":false,"status":"AVAILABLE","source":"ndw"}},{"type":"Feature","geometry":{"type":"Point","coordinates":[5.449298,51.491265]},"properties":{"type":"charge","layer":"passenger","locationId":"b1dd1307-4e54-4f15-ba6a-083433870c1f","name":"Sedanlaan","address":"Sedanlaan 13A","city":"Eindhoven","operatorName":"Vattenfall InCharge","maxPowerKw":11,"isMegawatt":false,"status":"AVAILABLE","source":"ndw"}},{"type":"Feature","geometry":{"type":"Point","coordinates":[5.450419,51.442421]},"properties":{"type":"charge","layer":"passenger","locationId":"65e98526827172001cc618d6","name":"Eindhoven/Rietputten-Hasselaarstraat 19","address":"Hasselaarstraat  19","city":"Eindhoven","operatorName":"E-Flux by Road","maxPowerKw":14,"isMegawatt":false,"status":"AVAILABLE","source":"ndw"}},{"type":"Feature","geometry":{"type":"Point","coordinates":[5.484454,51.469618]},"properties":{"type":"charge","layer":"passenger","locationId":"NLLOC003045","name":"NLD, Bekerakker 14, 5625 VZ Eindhoven","address":"Bekerakker 14","city":"Eindhoven","operatorName":"Allego","maxPowerKw":0,"isMegawatt":false,"status":"AVAILABLE","source":"ndw"}},{"type":"Feature","geometry":{"type":"Point","coordinates":[5.42682,51.47541]},"properties":{"type":"charge","layer":"passenger","locationId":"c1a90e3c-b8ef-11f0-8dda-42010aa400b8","name":"Eneco eMobility Haringvliet 23, Eindhoven","address":"Haringvliet 23","city":"Eindhoven","operatorName":"Eneco","maxPowerKw":22,"isMegawatt":false,"status":"AVAILABLE","source":"ndw"}},{"type":"Feature","geometry":{"type":"Point","coordinates":[5.499346,51.445995]},"properties":{"type":"charge","layer":"passenger","locationId":"f6b7dd2e-d082-11f0-bb28-42010aa400b8","name":"Eneco eMobility Transdev - Eindhoven - Professor Doctor Dorgelolaan 50","address":"Professor Doctor Dorgelolaan 50","city":"Eindhoven","operatorName":"Eneco","maxPowerKw":11,"isMegawatt":false,"status":"CHARGING","source":"ndw"}},{"type":"Feature","geometry":{"type":"Point","coordinates":[5.454294,51.447776]},"properties":{"type":"charge","layer":"passenger","locationId":"922725","name":"DAE-NL-2000411","address":"Torenallee 80","city":"Eindhoven","operatorName":"DAEN Mobility","maxPowerKw":11,"isMegawatt":false,"status":"AVAILABLE","source":"ndw"}},{"type":"Feature","geometry":{"type":"Point","coordinates":[5.474261,51.442801]},"properties":{"type":"charge","layer":"passenger","locationId":"18630b6a2a38429fb57b","name":"Parkeergarage 't Eindje - Eindhoven, Fellenoord","address":"Fellenoord 100-180","city":"Eindhoven","operatorName":"Opcharge","maxPowerKw":22,"isMegawatt":false,"status":"AVAILABLE","source":"ndw"}},{"type":"Feature","geometry":{"type":"Point","coordinates":[5.467573,51.466323]},"properties":{"type":"charge","layer":"passenger","locationId":"d3b3bf48-0482-47f4-8afc-03c2ae7feefd","name":"JOLT EIN00870","address":"1e Lieven de Keylaan 122","city":"Eindhoven","operatorName":"JOLT Energy","maxPowerKw":300,"isMegawatt":false,"status":"AVAILABLE","source":"ndw"}},{"type":"Feature","geometry":{"type":"Point","coordinates":[5.440963,51.426675]},"properties":{"type":"charge","layer":"passenger","locationId":"31018c030ef14771b5f6ed109e0db564","name":"Profinn - Meerenakkerplein 21-29, Eindhoven","address":"Meerenakkerplein 21-29","city":"Eindhoven","operatorName":"OPCHARGE","maxPowerKw":22,"isMegawatt":false,"status":"AVAILABLE","source":"ndw"}},{"type":"Feature","geometry":{"type":"Point","coordinates":[5.441142,51.427517]},"properties":{"type":"charge","layer":"passenger","locationId":"5390af28275248a29610","name":"Profinn - Meerenakkerplein 1-10 Eindhoven","address":"Meerenakkerplein 1-10","city":"Eindhoven","operatorName":"Opcharge","maxPowerKw":22,"isMegawatt":false,"status":"AVAILABLE","source":"ndw"}},{"type":"Feature","geometry":{"type":"Point","coordinates":[5.414095,51.437542]},"properties":{"type":"charge","layer":"passenger","locationId":"0c55a94a-d005-11ec-9d02-42010a840003","name":"NL, Grashoen 38, 5658EK, Eindhoven","address":"Grashoen 38","city":"Eindhoven","operatorName":"Allego","maxPowerKw":0,"isMegawatt":false,"status":"AVAILABLE","source":"ndw"}},{"type":"Feature","geometry":{"type":"Point","coordinates":[5.478816,51.491091]},"properties":{"type":"charge","layer":"passenger","locationId":"NLLOC022114","name":"NL, Otello 1, 5629 NE Eindhoven","address":"Otello 1","city":"Eindhoven","operatorName":"Allego","maxPowerKw":0,"isMegawatt":false,"status":"AVAILABLE","source":"ndw"}},{"type":"Feature","geometry":{"type":"Point","coordinates":[5.442206,51.432504]},"properties":{"type":"charge","layer":"passenger","locationId":"501b56723a434113a7e9","name":"NTS Hurksestraat Eindhoven","address":"Hurksestraat 7A","city":"Eindhoven","operatorName":"Opcharge","maxPowerKw":22,"isMegawatt":false,"status":"AVAILABLE","source":"ndw"}},{"type":"Feature","geometry":{"type":"Point","coordinates":[5.476789,51.436372]},"properties":{"type":"charge","layer":"passenger","locationId":"644f9e6852a446001195d56f","name":"EIndhoven/Bergrstraat 38","address":"Bergstraat 38","city":"Eindhoven","operatorName":"E-Flux by Road","maxPowerKw":14,"isMegawatt":false,"status":"AVAILABLE","source":"ndw"}},{"type":"Feature","geometry":{"type":"Point","coordinates":[5.46697,51.435361]},"properties":{"type":"charge","layer":"passenger","locationId":"17b7a36c-af31-11e9-8c26-42010a840003","name":"NLD Frederika van Pruisenweg 1 5616 AT Eindhoven","address":"Frederika van Pruisenweg 1","city":"Eindhoven","operatorName":"Allego","maxPowerKw":0,"isMegawatt":false,"status":"AVAILABLE","source":"ndw"}},{"type":"Feature","geometry":{"type":"Point","coordinates":[5.491745,51.445553]},"properties":{"type":"charge","layer":"passenger","locationId":"a97fed34bd0f4deda9fa","name":"DHVM - Dorgelo Building Eindhoven","address":"Professor Doctor Dorgelolaan 30","city":"Eindhoven","operatorName":"Opcharge","maxPowerKw":22,"isMegawatt":false,"status":"AVAILABLE","source":"ndw"}},{"type":"Feature","geometry":{"type":"Point","coordinates":[5.452523,51.430204]},"properties":{"type":"charge","layer":"passenger","locationId":"e2f795233eee4d18b803","name":"Profinn - Beemdstraat 1 Eindhoven (parkeerdek voor (eigen aansluiting))","address":"Beemdstraat 1","city":"Eindhoven","operatorName":"Opcharge","maxPowerKw":11,"isMegawatt":false,"status":"AVAILABLE","source":"ndw"}},{"type":"Feature","geometry":{"type":"Point","coordinates":[5.430614,51.432286]},"properties":{"type":"charge","layer":"passenger","locationId":"ef0fd10c2652493ea237","name":"Profinn - Looyenbeemd 20 Eindhoven","address":"Looyenbeemd 20","city":"Eindhoven","operatorName":"Opcharge","maxPowerKw":22,"isMegawatt":false,"status":"AVAILABLE","source":"ndw"}},{"type":"Feature","geometry":{"type":"Point","coordinates":[5.44243,51.43672]},"properties":{"type":"charge","layer":"passenger","locationId":"6d8b2805bcee4309a7e3746b1a344e99","name":"Eindhoven Caspar de Haan (achterkant)","address":"Speelheuvelweg 1A","city":"Eindhoven","operatorName":"Opcharge","maxPowerKw":22,"isMegawatt":false,"status":"AVAILABLE","source":"ndw"}},{"type":"Feature","geometry":{"type":"Point","coordinates":[5.513029,51.435419]},"properties":{"type":"charge","layer":"passenger","locationId":"c47f6bb8ef1f4caba6c6aef153cc7f8f","name":"Eindhoven - Log 10 B.V.","address":"Quinten Matsyslaan 85","city":"Eindhoven","operatorName":"Opcharge","maxPowerKw":22,"isMegawatt":false,"status":"AVAILABLE","source":"ndw"}},{"type":"Feature","geometry":{"type":"Point","coordinates":[5.450242,51.443245]},"properties":{"type":"charge","layer":"passenger","locationId":"8747c95c4538bad9815b6a7dfcccf71a","name":"Langenakkerweg 2","address":"Langenakkerweg 2","city":"Eindhoven","operatorName":"Vattenfall InCharge","maxPowerKw":11,"isMegawatt":false,"status":"AVAILABLE","source":"ndw"}},{"type":"Feature","geometry":{"type":"Point","coordinates":[5.435975,51.48267]},"properties":{"type":"charge","layer":"passenger","locationId":"6ae42109-b4c1-426a-bf9a-c8d78083e1b3","name":"Périgordlaan","address":"Périgordlaan 12","city":"Eindhoven","operatorName":"Vattenfall InCharge","maxPowerKw":11,"isMegawatt":false,"status":"AVAILABLE","source":"ndw"}},{"type":"Feature","geometry":{"type":"Point","coordinates":[5.452947,51.431434]},"properties":{"type":"charge","layer":"passenger","locationId":"520bae34c90c4542a81a1a1ff2eabbd8","name":"Croonwolter&dros Eindhoven","address":"Limburglaan 38","city":"Eindhoven","operatorName":"","maxPowerKw":22,"isMegawatt":false,"status":"AVAILABLE","source":"ndw"}},{"type":"Feature","geometry":{"type":"Point","coordinates":[5.437728,51.413671]},"properties":{"type":"charge","layer":"passenger","locationId":"61458e0a-40fb-11ec-bfe2-42010a840003","name":"NL, Uniastate 44, 5655HJ, Eindhoven","address":"Uniastate 44","city":"Eindhoven","operatorName":"Allego","maxPowerKw":0,"isMegawatt":false,"status":"AVAILABLE","source":"ndw"}},{"type":"Feature","geometry":{"type":"Point","coordinates":[5.437768,51.437656]},"properties":{"type":"charge","layer":"passenger","locationId":"67e4a420-7d48-11eb-aa0a-42010a840003","name":"NL, Zeelsterstraat 160, 5652EN, Eindhoven","address":"Zeelsterstraat 160","city":"Eindhoven","operatorName":"Allego","maxPowerKw":0,"isMegawatt":false,"status":"AVAILABLE","source":"ndw"}},{"type":"Feature","geometry":{"type":"Point","coordinates":[5.474497,51.437235]},"properties":{"type":"charge","layer":"passenger","locationId":"9319ed22-4f3c-11e8-889e-42010a840002","name":"NLD, Eindhoven, Spijndhof 20","address":"Spijndhof 20","city":"Eindhoven","operatorName":"Allego","maxPowerKw":0,"isMegawatt":false,"status":"AVAILABLE","source":"ndw"}},{"type":"Feature","geometry":{"type":"Point","coordinates":[5.465538,51.423229]},"properties":{"type":"charge","layer":"passenger","locationId":"f867a856-e6fb-11e9-a46a-42010a840003","name":"NL, Diabellistraat 2, 5654cs, Eindhoven","address":"Diabellistraat 2","city":"Eindhoven","operatorName":"Allego","maxPowerKw":0,"isMegawatt":false,"status":"AVAILABLE","source":"ndw"}},{"type":"Feature","geometry":{"type":"Point","coordinates":[5.439319,51.432053]},"properties":{"type":"charge","layer":"passenger","locationId":"2528f884c25a4697bec3","name":"NTS Bezoekersparkeerplaats Eindhoven","address":"Dillenburgstraat 9","city":"Eindhoven","operatorName":"Opcharge","maxPowerKw":22,"isMegawatt":false,"status":"AVAILABLE","source":"ndw"}},{"type":"Feature","geometry":{"type":"Point","coordinates":[5.501121,51.424879]},