{"type":"FeatureCollection","metadata":{"gemeente":"Geertruidenberg","slug":"geertruidenberg","code":"GM0779","generated_at":"2026-06-07T19:22:09.578Z","total_passenger":134,"total_freight":0,"bounds":[4.823609656639573,51.67183560044773,4.933168782836582,51.71999851101657],"operators":["DAEN Mobility","E-Flux by Road","Eneco","Laadnet","Mijninstallatiepartner","Vattenfall InCharge"]},"features":[{"type":"Feature","geometry":{"type":"Point","coordinates":[4.871891,51.706643]},"properties":{"type":"charge","layer":"passenger","locationId":"d1bea9f66cce60f3a3363ae57580b0f9","name":"Ziederijsingel 45","address":"Ziederijsingel 45","city":"Raamsdonksveer","operatorName":"Vattenfall InCharge","maxPowerKw":11,"isMegawatt":false,"status":"AVAILABLE","source":"ndw"}},{"type":"Feature","geometry":{"type":"Point","coordinates":[4.876184,51.702037]},"properties":{"type":"charge","layer":"passenger","locationId":"67ebc19627187c45fb74c531","name":"Locatie A","address":"A. Roland Holstlaan","city":"Raamsdonksveer","operatorName":"E-Flux by Road","maxPowerKw":11,"isMegawatt":false,"status":"CHARGING","source":"ndw","priceKwh":0.61}},{"type":"Feature","geometry":{"type":"Point","coordinates":[4.86173,51.692926]},"properties":{"type":"charge","layer":"passenger","locationId":"3c8c0483-bfd1-4ecf-9b00-45f6437de998","name":"Sandoel 36","address":"Sandoel 36","city":"Raamsdonksveer","operatorName":"Vattenfall InCharge","maxPowerKw":11,"isMegawatt":false,"status":"AVAILABLE","source":"ndw"}},{"type":"Feature","geometry":{"type":"Point","coordinates":[4.864414,51.695435]},"properties":{"type":"charge","layer":"passenger","locationId":"9294b7ce-f686-484e-a201-bdaaf284be02","name":"Theo van Delftstraat","address":"Theo van Delftstraat 1","city":"Raamsdonksveer","operatorName":"Vattenfall InCharge","maxPowerKw":11,"isMegawatt":false,"status":"CHARGING","source":"ndw"}},{"type":"Feature","geometry":{"type":"Point","coordinates":[4.868836,51.698058]},"properties":{"type":"charge","layer":"passenger","locationId":"cead0f8f-1720-443b-adb6-32b3a74738a4","name":"Scheepswerflaan","address":"Scheepswerflaan 51","city":"Raamsdonksveer","operatorName":"Vattenfall InCharge","maxPowerKw":11,"isMegawatt":false,"status":"CHARGING","source":"ndw"}},{"type":"Feature","geometry":{"type":"Point","coordinates":[4.850571,51.705483]},"properties":{"type":"charge","layer":"passenger","locationId":"c6eb5fb4-5fb0-4bf2-8f72-0a9ee63c2d11","name":"Nassaustraat","address":"Nassaustraat 2","city":"Geertruidenberg","operatorName":"Vattenfall InCharge","maxPowerKw":11,"isMegawatt":false,"status":"AVAILABLE","source":"ndw"}},{"type":"Feature","geometry":{"type":"Point","coordinates":[4.878269,51.70034]},"properties":{"type":"charge","layer":"passenger","locationId":"98121ca2-1740-4a45-a7bb-446fc1ab828e","name":"d' Onvermoeidelaan 9","address":"d' Onvermoeidelaan 9","city":"Raamsdonksveer","operatorName":"Vattenfall InCharge","maxPowerKw":11,"isMegawatt":false,"status":"AVAILABLE","source":"ndw"}},{"type":"Feature","geometry":{"type":"Point","coordinates":[4.860996,51.698169]},"properties":{"type":"charge","layer":"passenger","locationId":"41c0039e-72cb-4762-a157-a6b9c5c811d4","name":"Burchtplein 2","address":"Burchtplein 2","city":"Geertruidenberg","operatorName":"Vattenfall InCharge","maxPowerKw":11,"isMegawatt":false,"status":"AVAILABLE","source":"ndw"}},{"type":"Feature","geometry":{"type":"Point","coordinates":[4.855245,51.705136]},"properties":{"type":"charge","layer":"passenger","locationId":"24beb88f-78f8-4b53-b4b0-eee454f5badd","name":"Gouverneurslaan","address":"Gouverneurslaan 51","city":"Geertruidenberg","operatorName":"Vattenfall InCharge","maxPowerKw":11,"isMegawatt":false,"status":"CHARGING","source":"ndw"}},{"type":"Feature","geometry":{"type":"Point","coordinates":[4.857033,51.700983]},"properties":{"type":"charge","layer":"passenger","locationId":"2cefa733-1d5e-4d93-88b1-ca81da716fff","name":"Sint Gertrudisstraat","address":"Sint Gertrudisstraat 2","city":"Geertruidenberg","operatorName":"Vattenfall InCharge","maxPowerKw":11,"isMegawatt":false,"status":"CHARGING","source":"ndw"}},{"type":"Feature","geometry":{"type":"Point","coordinates":[4.87962,51.70414]},"properties":{"type":"charge","layer":"passenger","locationId":"45757F41-02C3-41AE-9092-255E415938BF","name":"Eneco eMobility Stichting Mijzo - Eikendonk - Waalwijk","address":"Eikendonk 2","city":"Waalwijk","operatorName":"Eneco","maxPowerKw":11,"isMegawatt":false,"status":"AVAILABLE","source":"ndw","priceKwh":0.55}},{"type":"Feature","geometry":{"type":"Point","coordinates":[4.88712,51.70683]},"properties":{"type":"charge","layer":"passenger","locationId":"d218310a-fc35-11ec-8067-42010aa40003","name":"Eneco eMobility Weegbree 15-17 Raamsdonksveer","address":"Weegbree 15-17","city":"Raamsdonksveer","operatorName":"Eneco","maxPowerKw":22,"isMegawatt":false,"status":"CHARGING","source":"ndw","priceKwh":0.32}},{"type":"Feature","geometry":{"type":"Point","coordinates":[4.86534,51.69972]},"properties":{"type":"charge","layer":"passenger","locationId":"34c93312f7c01b5f8d8c81a220671f56","name":"Glacisstraat 8","address":"Glacisstraat 8","city":"Geertruidenberg","operatorName":"Vattenfall InCharge","maxPowerKw":11,"isMegawatt":false,"status":"AVAILABLE","source":"ndw"}},{"type":"Feature","geometry":{"type":"Point","coordinates":[4.851308,51.70515]},"properties":{"type":"charge","layer":"passenger","locationId":"d4930b7e2ea380b4dddb134ac2b74006","name":"Gouverneurslaan 1","address":"Gouverneurslaan 1","city":"Geertruidenberg","operatorName":"Vattenfall InCharge","maxPowerKw":11,"isMegawatt":false,"status":"AVAILABLE","source":"ndw"}},{"type":"Feature","geometry":{"type":"Point","coordinates":[4.870774,51.698247]},"properties":{"type":"charge","layer":"passenger","locationId":"63e20e0a587a8f0012b6a470","name":"VD Charge","address":"Scheepswerflaan 9","city":"Raamsdonksveer","operatorName":"E-Flux by Road","maxPowerKw":11,"isMegawatt":false,"status":"CHARGING","source":"ndw","priceKwh":0.58}},{"type":"Feature","geometry":{"type":"Point","coordinates":[4.9077,51.686613]},"properties":{"type":"charge","layer":"passenger","locationId":"0988af85-853d-48ed-af7a-07b3acadd1de","name":"Cornelis Oomestraat","address":"Cornelis Oomestraat 18","city":"Raamsdonk","operatorName":"Vattenfall InCharge","maxPowerKw":11,"isMegawatt":false,"status":"AVAILABLE","source":"ndw"}},{"type":"Feature","geometry":{"type":"Point","coordinates":[4.869528,51.69508]},"properties":{"type":"charge","layer":"passenger","locationId":"736dc86f-b6b9-409d-a628-5ee566b8222c","name":"Rubensstraat","address":"Rubensstraat 4","city":"Raamsdonksveer","operatorName":"Vattenfall InCharge","maxPowerKw":11,"isMegawatt":false,"status":"AVAILABLE","source":"ndw"}},{"type":"Feature","geometry":{"type":"Point","coordinates":[4.884607,51.699378]},"properties":{"type":"charge","layer":"passenger","locationId":"1a8cf04e-a618-4d3a-aaa8-1bc403075374","name":"Hertogshoef","address":"Hertogshoef 110","city":"Raamsdonksveer","operatorName":"Vattenfall InCharge","maxPowerKw":11,"isMegawatt":false,"status":"AVAILABLE","source":"ndw"}},{"type":"Feature","geometry":{"type":"Point","coordinates":[4.90332,51.690698]},"properties":{"type":"charge","layer":"passenger","locationId":"d09bbe9f-f77d-4fa1-8d0b-f124dd68189b","name":"Notarisstraat 1","address":"Notarisstraat 1","city":"Raamsdonk","operatorName":"Vattenfall InCharge","maxPowerKw":11,"isMegawatt":false,"status":"AVAILABLE","source":"ndw"}},{"type":"Feature","geometry":{"type":"Point","coordinates":[4.859847,51.705248]},"properties":{"type":"charge","layer":"passenger","locationId":"afe8e754c060d8645d98e9a42946277c","name":"Schoutenlaan 102","address":"Schoutenlaan 102","city":"Geertruidenberg","operatorName":"Vattenfall InCharge","maxPowerKw":11,"isMegawatt":false,"status":"AVAILABLE","source":"ndw"}},{"type":"Feature","geometry":{"type":"Point","coordinates":[4.87962,51.70414]},"properties":{"type":"charge","layer":"passenger","locationId":"222ade7a-84df-11ef-92b9-42010aa400b8","name":"Eneco eMobility Stichting Mijzo - Eikendonk - Waalwijk","address":"Eikendonk 2","city":"Waalwijk","operatorName":"Eneco","maxPowerKw":11,"isMegawatt":false,"status":"AVAILABLE","source":"ndw","priceKwh":0.55}},{"type":"Feature","geometry":{"type":"Point","coordinates":[4.85583,51.7013]},"properties":{"type":"charge","layer":"passenger","locationId":"8EA31736-10FD-4E6C-B375-48FD266F870F","name":"Eneco eMobility Stichting Mijzo - De Riethorst - Geertruidenberg","address":"Sint Agnesstraat 1","city":"Geertruidenberg","operatorName":"Eneco","maxPowerKw":11,"isMegawatt":false,"status":"AVAILABLE","source":"ndw","priceKwh":0.55}},{"type":"Feature","geometry":{"type":"Point","coordinates":[4.84069,51.692688]},"properties":{"type":"charge","layer":"passenger","locationId":"3964534","name":"Laadnet Centraleweg","address":"Centraleweg 9","city":"Geertruidenberg","operatorName":"Laadnet","maxPowerKw":22,"isMegawatt":false,"status":"AVAILABLE","source":"ndw"}},{"type":"Feature","geometry":{"type":"Point","coordinates":[4.841932,51.707429]},"properties":{"type":"charge","layer":"passenger","locationId":"03d5e6801e3a44d9b2f6768ce4554165","name":"RWE Geertruidenberg","address":"Amerweg 1","city":"Geertruidenberg","operatorName":"Mijninstallatiepartner","maxPowerKw":22,"isMegawatt":false,"status":"AVAILABLE","source":"ndw","priceKwh":0.17}},{"type":"Feature","geometry":{"type":"Point","coordinates":[4.861271,51.688752]},"properties":{"type":"charge","layer":"passenger","locationId":"6D871B5A-C955-4248-A27D-B3C03B95B3E1","name":"Eneco eMobility Mijzo Zorgcomplex De Kloosterhoeve","address":"Kloosterweg 1","city":"Raamsdonksveer","operatorName":"Eneco","maxPowerKw":11,"isMegawatt":false,"status":"AVAILABLE","source":"ndw","priceKwh":0.55}},{"type":"Feature","geometry":{"type":"Point","coordinates":[4.87467,51.70008]},"properties":{"type":"charge","layer":"passenger","locationId":"83a54da495087bd7575dfcf79ea827b1","name":"Roemer Visscherstraat 48","address":"Roemer Visscherstraat 48","city":"Raamsdonksveer","operatorName":"Vattenfall InCharge","maxPowerKw":11,"isMegawatt":false,"status":"CHARGING","source":"ndw"}},{"type":"Feature","geometry":{"type":"Point","coordinates":[4.906718,51.685893]},"properties":{"type":"charge","layer":"passenger","locationId":"6f088941c223f1efc1fffc47cc9c1ba0","name":"Cornelis Oomestraat 39","address":"Cornelis Oomestraat 39","city":"Raamsdonk","operatorName":"Vattenfall InCharge","maxPowerKw":11,"isMegawatt":false,"status":"AVAILABLE","source":"ndw"}},{"type":"Feature","geometry":{"type":"Point","coordinates":[4.865327,51.698954]},"properties":{"type":"charge","layer":"passenger","locationId":"19ee20db2e431236e91888b6385bccf2","name":"Walgang","address":"Walgang 69","city":"Geertruidenberg","operatorName":"Vattenfall InCharge","maxPowerKw":11,"isMegawatt":false,"status":"AVAILABLE","source":"ndw"}},{"type":"Feature","geometry":{"type":"Point","coordinates":[4.874058,51.689813]},"properties":{"type":"charge","layer":"passenger","locationId":"7d254364ed1aefc24ba753e242658c89","name":"Wilhelminalaan 34","address":"Wilhelminalaan 34","city":"Raamsdonksveer","operatorName":"Vattenfall InCharge","maxPowerKw":11,"isMegawatt":false,"status":"AVAILABLE","source":"ndw"}},{"type":"Feature","geometry":{"type":"Point","coordinates":[4.85583,51.7013]},"properties":{"type":"charge","layer":"passenger","locationId":"91906444-caa2-11ee-a8f2-42010aa40fc0","name":"Eneco eMobility Stichting Mijzo - De Riethorst - Geertruidenberg","address":"Sint Agnesstraat 1","city":"Geertruidenberg","operatorName":"Eneco","maxPowerKw":11,"isMegawatt":false,"status":"AVAILABLE","source":"ndw","priceKwh":0.55}},{"type":"Feature","geometry":{"type":"Point","coordinates":[4.870369,51.690783]},"properties":{"type":"charge","layer":"passenger","locationId":"6422745057f1f9ffbffc38dc5ce82791","name":"Vijfhoevenlaan 8","address":"Vijfhoevenlaan 8","city":"Raamsdonksveer","operatorName":"Vattenfall InCharge","maxPowerKw":11,"isMegawatt":false,"status":"AVAILABLE","source":"ndw"}},{"type":"Feature","geometry":{"type":"Point","coordinates":[4.848866,51.703089]},"properties":{"type":"charge","layer":"passenger","locationId":"6542aac9-cd22-496d-8de3-93de4a529c69","name":"Dulderpark 21","address":"Dulderpark 21","city":"Geertruidenberg","operatorName":"Vattenfall InCharge","maxPowerKw":11,"isMegawatt":false,"status":"AVAILABLE","source":"ndw"}},{"type":"Feature","geometry":{"type":"Point","coordinates":[4.86555,51.69013]},"properties":{"type":"charge","layer":"passenger","locationId":"30bbc1908799725e30898c476f5ca1bc","name":"Landonk 24","address":"Landonk 24","city":"Raamsdonksveer","operatorName":"Vattenfall InCharge","maxPowerKw":11,"isMegawatt":false,"status":"AVAILABLE","source":"ndw"}},{"type":"Feature","geometry":{"type":"Point","coordinates":[4.860348,51.705023]},"properties":{"type":"charge","layer":"passenger","locationId":"85065e1fb47eb119466deeb1cb98242a","name":"Schoutenlaan 115","address":"Schoutenlaan 115","city":"Geertruidenberg","operatorName":"Vattenfall InCharge","maxPowerKw":11,"isMegawatt":false,"status":"AVAILABLE","source":"ndw"}},{"type":"Feature","geometry":{"type":"Point","coordinates":[4.883361,51.697626]},"properties":{"type":"charge","layer":"passenger","locationId":"9fa7924373eaa2ba47c458cd2ecad659","name":"Hertogshoef 1","address":"Hertogshoef 1","city":"Raamsdonksveer","operatorName":"Vattenfall InCharge","maxPowerKw":11,"isMegawatt":false,"status":"AVAILABLE","source":"ndw"}},{"type":"Feature","geometry":{"type":"Point","coordinates":[4.872781,51.692832]},"properties":{"type":"charge","layer":"passenger","locationId":"1822230","name":"Laadnet Stichting Prisma Brejaart","address":"Brejaartstraat 4","city":"Raamsdonksveer","operatorName":"Laadnet","maxPowerKw":22,"isMegawatt":false,"status":"AVAILABLE","source":"ndw"}},{"type":"Feature","geometry":{"type":"Point","coordinates":[4.869683,51.691078]},"properties":{"type":"charge","layer":"passenger","locationId":"f31ff7fa-c857-48a9-8a47-b6a6b6b17bcb","name":"Vijfhoevenlaan","address":"Vijfhoevenlaan 20","city":"Raamsdonksveer","operatorName":"Vattenfall InCharge","maxPowerKw":11,"isMegawatt":false,"status":"AVAILABLE","source":"ndw"}},{"type":"Feature","geometry":{"type":"Point","coordinates":[4.868504,51.689873]},"properties":{"type":"charge","layer":"passenger","locationId":"923110","name":"DAE_NL_2000956","address":"Parklaan 48","city":"Raamsdonkveer","operatorName":"DAEN Mobility","maxPowerKw":4,"isMegawatt":false,"status":"UNAVAILABLE","source":"ndw","priceKwh":0.4}},{"type":"Feature","geometry":{"type":"Point","coordinates":[4.862273,51.701732]},"properties":{"type":"charge","layer":"passenger","locationId":"9e8b5bd3-18ac-4424-bc25-28053ab76e56","name":"Haven","address":"Haven 18","city":"Geertruidenberg","operatorName":"Vattenfall InCharge","maxPowerKw":11,"isMegawatt":false,"status":"AVAILABLE","source":"ndw"}},{"type":"Feature","geometry":{"type":"Point","coordinates":[4.873077,51.692278]},"properties":{"type":"charge","layer":"passenger","locationId":"779efe4b-ae6a-4451-9ef2-6532ad22d495","name":"Koningstraat 56","address":"Koningstraat 56","city":"Geertruidenberg","operatorName":"Vattenfall InCharge","maxPowerKw":11,"isMegawatt":false,"status":"AVAILABLE","source":"ndw"}},{"type":"Feature","geometry":{"type":"Point","coordinates":[4.864901,51.69913]},"properties":{"type":"charge","layer":"passenger","locationId":"bcccc5ce4ec9892ba0c75bf46ba3e329","name":"Walgang","address":"Walgang 87","city":"Geertruidenberg","operatorName":"Vattenfall InCharge","maxPowerKw":11,"isMegawatt":false,"status":"AVAILABLE","source":"ndw"}},{"type":"Feature","geometry":{"type":"Point","coordinates":[4.880128,51.704322]},"properties":{"type":"charge","layer":"passenger","locationId":"1cf3fbcb-72ac-40b8-9451-486cba7390b6","name":"Hoge donk","address":"Hoge donk 1","city":"Raamsdonksveer","operatorName":"Vattenfall InCharge","maxPowerKw":11,"isMegawatt":false,"status":"CHARGING","source":"ndw"}},{"type":"Feature","geometry":{"type":"Point","coordinates":[4.88712,51.70683]},"properties":{"type":"charge","layer":"passenger","locationId":"E9ABF718-0C10-430F-BD2B-4022C3351F33","name":"Eneco eMobility Weegbree 15-17 Raamsdonksveer","address":"Weegbree 15-17","city":"Raamsdonksveer","operatorName":"Eneco","maxPowerKw":22,"isMegawatt":false,"status":"UNAVAILABLE","source":"ndw"}},{"type":"Feature","geometry":{"type":"Point","coordinates":[4.849772,51.703697]},"properties":{"type":"charge","layer":"passenger","locationId":"0a18b147-e5b4-4603-b924-d8d2d369bc93","name":"Dulderpark","address":"Dulderpark 26","city":"Geertruidenberg","operatorName":"Vattenfall InCharge","maxPowerKw":11,"isMegawatt":false,"status":"AVAILABLE","source":"ndw"}},{"type":"Feature","geometry":{"type":"Point","coordinates":[4.878066,51.7018]},"properties":{"type":"charge","layer":"passenger","locationId":"c6eddc8e-f65e-40ba-b2b6-1103ac28edb1","name":"Kleine Donk","address":"Kleine Donk 17","city":"Raamsdonksveer","operatorName":"Vattenfall InCharge","maxPowerKw":11,"isMegawatt":false,"status":"AVAILABLE","source":"ndw"}},{"type":"Feature","geometry":{"type":"Point","coordinates":[4.847517,51.700089]},"properties":{"type":"charge","layer":"passenger","locationId":"286a1591a9d1a402987a0d9bf7a21172","name":"Mauritsweg 41","address":"Mauritsweg 41","city":"Geertruidenberg","operatorName":"Vattenfall InCharge","maxPowerKw":11,"isMegawatt":false,"status":"AVAILABLE","source":"ndw"}},{"type":"Feature","geometry":{"type":"Point","coordinates":[4.878729,51.697594]},"properties":{"type":"charge","layer":"passenger","locationId":"c6ef4e39-b4b1-408c-a55e-04b3fe2644cf","name":"Jan van Beekhof 27","address":"Jan van Beekhof 27","city":"Raamsdonksveer","operatorName":"Vattenfall InCharge","maxPowerKw":11,"isMegawatt":false,"status":"AVAILABLE","source":"ndw"}},{"type":"Feature","geometry":{"type":"Point","coordinates":[4.878365,51.713988]},"properties":{"type":"charge","layer":"passenger","locationId":"923328","name":"DAE_NL_2000962","address":"Ramgatseweg 27","city":"Raamsdonksveer","operatorName":"DAEN Mobility","maxPowerKw":11,"isMegawatt":false,"status":"AVAILABLE","source":"ndw","priceKwh":0.4}},{"type":"Feature","geometry":{"type":"Point","coordinates":[4.878181,51.703639]},"properties":{"type":"charge","layer":"passenger","locationId":"8d65b8d61f98b01b1a90eea438bd53c1","name":"Hoge Donk 30A","address":"Hoge Donk 30A","city":"Raamsdonksveer","operatorName":"Vattenfall InCharge","maxPowerKw":11,"isMegawatt":false,"status":"AVAILABLE","source":"ndw"}},{"type":"Feature","geometry":{"type":"Point","coordinates":[4.857465,51.697712]},"properties":{"type":"charge","layer":"passenger","locationId":"852c39e6-9824-4c61-9299-0e2087d6b210","name":"Frederik Hendrikwal","address":"Frederik Hendrikwal 7","city":"Geertruidenberg","operatorName":"Vattenfall InCharge","maxPowerKw":11,"isMegawatt":false,"status":"AVAILABLE","source":"ndw"}},{"type":"Feature","geometry":{"type":"Point","coordinates":[4.872959,51.696785]},"properties":{"type":"charge","layer":"passenger","locationId":"672b4097ddf4afe2d9d2726d","name":"Verbrugge Groep","address":"Gangboord 11","city":"Raamsdonksveer","operatorName":"E-Flux by Road","maxPowerKw":22,"isMegawatt":false,"status":"AVAILABLE","source":"ndw","priceKwh":0.58}},{"type":"Feature","geometry":{"type":"Point","coordinates":[4.880019,51.692189]},"properties":{"type":"charge","layer":"passenger","locationId":"2c27d620-6465-4154-a550-45e4dedaaf69","name":"Burgemeester Prinssenlaan 27","address":"Burgemeester Prinssenlaan 27","city":"Raamsdonksveer","operatorName":"Vattenfall InCharge","maxPowerKw":11,"isMegawatt":false,"status":"AVAILABLE","source":"ndw"}},{"type":"Feature","geometry":{"type":"Point","coordinates":[4.861805,51.701925]},"properties":{"type":"charge","layer":"passenger","locationId":"5882b491-3454-4932-8fe6-5355bab8edce","name":"Haven","address":"Haven 43","city":"Geertruidenberg","operatorName":"Vattenfall InCharge","maxPowerKw":11,"isMegawatt":false,"status":"AVAILABLE","source":"ndw"}},{"type":"Feature","geometry":{"type":"Point","coordinates":[4.866294,51.69275]},"properties":{"type":"charge","layer":"passenger","locationId":"bd354a700193e07b7f1238c5766e501a","name":"Kasteellaan 19","address":"Kasteellaan 19","city":"Raamsdonksveer","operatorName":"Vattenfall InCharge","maxPowerKw":11,"isMegawatt":false,"status":"AVAILABLE","source":"ndw"}},{"type":"Feature","geometry":{"type":"Point","coordinates":[4.878365,51.713988]},"properties":{"type":"charge","layer":"passenger","locationId":"923326","name":"DAE_NL_2000960","address":"Ramgatseweg 27","city":"Raamsdonksveer","operatorName":"DAEN Mobility","maxPowerKw":11,"isMegawatt":false,"status":"AVAILABLE","source":"ndw","priceKwh":0.4}},{"type":"Feature","geometry":{"type":"Point","coordinates":[4.881403,51.696953]},"properties":{"type":"charge","layer":"passenger","locationId":"20a3396c-cd6e-4c11-a4b8-b09ae75414fb","name":"Prunusstraat","address":"Prunusstraat 34","city":"Raamsdonksveer","operatorName":"Vattenfall InCharge","maxPowerKw":11,"isMegawatt":false,"status":"AVAILABLE","source":"ndw"}},{"type":"Feature","geometry":{"type":"Point","coordinates":[4.878365,51.713988]},"properties":{"type":"charge","layer":"passenger","locationId":"923327","name":"DAE_NL_2000961","address":"Ramgatseweg 27","city":"Raamsdonksveer","operatorName":"DAEN Mobility","maxPowerKw":11,"isMegawatt":false,"status":"AVAILABLE","source":"ndw","priceKwh":0.4}},{"type":"Feature","geometry":{"type":"Point","coordinates":[4.869147,51.693278]},"properties":{"type":"charge","layer":"passenger","locationId":"bb47951028b92ce295aee71a919b5fd4","name":"Rijtselaan 4","address":"Rijtselaan 4","city":"Raamsdonksveer","operatorName":"Vattenfall InCharge","maxPowerKw":11,"isMegawatt":false,"status":"AVAILABLE","source":"ndw"}},{"type":"Feature","geometry":{"type":"Point","coordinates":[4.873892,51.702774]},"properties":{"type":"charge","layer":"passenger","locationId":"249a5b30-99f5-46d1-97ba-911f2085ef80","name":"Simon Vestdijkstraat","address":"Simon Vestdijkstraat 24","city":"Raamsdonksveer","operatorName":"Vattenfall InCharge","maxPowerKw":11,"isMegawatt":false,"status":"AVAILABLE","source":"ndw"}},{"type":"Feature","geometry":{"type":"Point","coordinates":[4.886373,51.70045]},"properties":{"type":"charge","layer":"passenger","locationId":"bc48317a-6c8c-4ed2-a8cf-7c99296c0682","name":"Benraatshoef","address":"Benraatshoef 229","city":"Raamsdonksveer","operatorName":"Vattenfall InCharge","maxPowerKw":11,"isMegawatt":false,"status":"AVAILABLE","source":"ndw"}},{"type":"Feature","geometry":{"type":"Point","coordinates":[4.846688,51.704566]},"properties":{"type":"charge","layer":"passenger","locationId":"34fbcf20-4137-43c7-8c19-f409fe242714","name":"Noordenbos","address":"Noordenbos 2","city":"Geertruidenberg","operatorName":"Vattenfall InCharge","maxPowerKw":11,"isMegawatt":false,"status":"AVAILABLE","source":"ndw"}},{"type":"Feature","geometry":{"type":"Point","coordinates":[4.885673,51.704203]},"properties":{"type":"charge","layer":"passenger","locationId":"b920e7ef-7e2e-4089-8faa-e7c95d44392c","name":"Rijvoortshoef","address":"Rijvoortshoef 265","city":"Raamsdonksveer","operatorName":"Vattenfall InCharge","maxPowerKw":11,"isMegawatt":false,"status":"AVAILABLE","source":"ndw"}},{"type":"Feature","geometry":{"type":"Point","coordinates":[4.869132,51.695939]},"properties":{"type":"charge","layer":"passenger","locationId":"10655f9f-311b-4cc9-9e79-aaccec540ac3","name":"Jeroen Boschstraat","address":"Jeroen Boschstraat 9","city":"Raamsdonksveer","operatorName":"Vattenfall InCharge","maxPowerKw":11,"isMegawatt":false,"status":"CHARGING","source":"ndw"}},{"type":"Feature","geometry":{"type":"Point","coordinates":[4.907757,51.689553]},"properties":{"type":"charge","layer":"passenger","locationId":"1b52bba059ee7bba3ff89cb766b0f3f5","name":"Raadhuisstraat 26","address":"Raadhuisstraat 26","city":"Raamsdonk","operatorName":"Vattenfall InCharge","maxPowerKw":11,"isMegawatt":false,"status":"AVAILABLE","source":"ndw"}},{"type":"Feature","geometry":{"type":"Point","coordinates":[4.870773,51.694951]},"properties":{"type":"charge","layer":"passenger","locationId":"91ff45a3-0b6f-4529-8874-1682d5ed8347","name":"Rembrandtlaan","address":"Rembrandtlaan 36","city":"Raamsdonksveer","operatorName":"Vattenfall InCharge","maxPowerKw":11,"isMegawatt":false,"status":"AVAILABLE","source":"ndw"}},{"type":"Feature","geometry":{"type":"Point","coordinates":[4.875252,51.703261]},"properties":{"type":"charge","layer":"passenger","locationId":"5102513d01d64bbbed0f638af0c4fbdd","name":"Gerrit Achterbergstraat 1","address":"Gerrit Achterbergstraat 1","city":"Raamsdonksveer","operatorName":"Vattenfall InCharge","maxPowerKw":11,"isMegawatt":false,"status":"AVAILABLE","source":"ndw"}},{"type":"Feature","geometry":{"type":"Point","coordinates":[4.879903,51.698754]},"properties":{"type":"charge","layer":"passenger","locationId":"e9cb2097a1edc32e7ef354dd2280624b","name":"Baksweer 1","address":"Baksweer 1","city":"Raamsdonksveer","operatorName":"Vattenfall InCharge","maxPowerKw":11,"isMegawatt":false,"status":"AVAILABLE","source":"ndw"}},{"type":"Feature","geometry":{"type":"Point","coordinates":[4.879977,51.696882]},"properties":{"type":"charge","layer":"passenger","locationId":"f5769b1edca8c65abfe0228cfc2abc64","name":"Breetweerlaan 19","address":"Breetweerlaan 19","city":"Raamsdonksveer","operatorName":"Vattenfall InCharge","maxPowerKw":11,"isMegawatt":false,"status":"AVAILABLE","source":"ndw"}},{"type":"Feature","geometry":{"type":"Point","coordinates":[4.90622,51.689563]},"properties":{"type":"charge","layer":"passenger","locationId":"78f7abc1-59b9-45b1-b5dc-5ec1f20592ca","name":"Dijkgraafstraat","address":"Dijkgraafstraat 11","city":"Raamsdonk","operatorName":"Vattenfall InCharge","maxPowerKw":11,"isMegawatt":false,"status":"AVAILABLE","source":"ndw"}},{"type":"Feature","geometry":{"type":"Point","coordinates":[4.872345,51.697891]},"properties":{"type":"charge","layer":"passenger","locationId":"ddf2a2bb-13f2-4c82-a38e-83ec6f4ec110","name":"Het Spant","address":"Het Spant 74","city":"Raamsdonksveer","operatorName":"Vattenfall InCharge","maxPowerKw":11,"isMegawatt":false,"status":"CHARGING","source":"ndw"}},{"type":"Feature","geometry":{"type":"Point","coordinates":[4.87151,51.69702]},"properties":{"type":"charge","layer":"passenger","locationId":"8f708d0a8b32e55bb42750807c6c5b60","name":"Het Spant 10","address":"Het Spant 10","city":"Raamsdonksveer","operatorName":"Vattenfall InCharge","maxPowerKw":11,"isMegawatt":false,"status":"AVAILABLE","source":"ndw"}},{"type":"Feature","geometry":{"type":"Point","coordinates":[4.87825,51.692956]},"properties":{"type":"charge","layer":"passenger","locationId":"6e191febeb5f5d873eefa02008a94760","name":"Ambachtsherenlaan 45","address":"Ambachtsherenlaan 45","city":"Raamsdonksveer","operatorName":"Vattenfall InCharge","maxPowerKw":11,"isMegawatt":false,"status":"AVAILABLE","source":"ndw"}},{"type":"Feature","geometry":{"type":"Point","coordinates":[4.843594,51.700756]},"properties":{"type":"charge","layer":"passenger","locationId":"3c1c7732-87bf-420e-b789-bfbfc1e55ffb","name":"Fort Nassau","address":"Fort Nassau 47","city":"Geertruidenberg","operatorName":"Vattenfall InCharge","maxPowerKw":11,"isMegawatt":false,"status":"AVAILABLE","source":"ndw"}},{"type":"Feature","geometry":{"type":"Point","coordinates":[4.855965,51.700716]},"properties":{"type":"charge","layer":"passenger","locationId":"fbe99133-0f21-4d9a-9577-91d20383c330","name":"Sint Agnesstraat","address":"Sint Agnesstraat 18","city":"Geertruidenberg","operatorName":"Vattenfall InCharge","maxPowerKw":11,"isMegawatt":false,"status":"CHARGING","source":"ndw"}},{"type":"Feature","geometry":{"type":"Point","coordinates":[4.875439,51.698155]},"properties":{"type":"charge","layer":"passenger","locationId":"951a6f73-6842-41a5-bf32-f070a1f65d22","name":"Kardeel","address":"Kardeel 119","city":"Raamsdonksveer","operatorName":"Vattenfall InCharge","maxPowerKw":11,"isMegawatt":false,"status":"CHARGING","source":"ndw"}},{"type":"Feature","geometry":{"type":"Point","coordinates":[4.882315,51.71233]},"properties":{"type":"charge","layer":"passenger","locationId":"529d1944-418e-443a-ba9a-b4464a23d4f6","name":"Steurweg","address":"Steurweg 1","city":"Raamsdonksveer","operatorName":"Vattenfall InCharge","maxPowerKw":11,"isMegawatt":false,"status":"AVAILABLE","source":"ndw"}},{"type":"Feature","geometry":{"type":"Point","coordinates":[4.873117,51.694842]},"properties":{"type":"charge","layer":"passenger","locationId":"37b59d2d-b2c1-4b24-a872-61af070013da","name":"Vrijheidstraat","address":"Vrijheidstraat 3","city":"Raamsdonksveer","operatorName":"Vattenfall InCharge","maxPowerKw":11,"isMegawatt":false,"status":"AVAILABLE","source":"ndw"}},{"type":"Feature","geometry":{"type":"Point","coordinates":[4.872107,51.696252]},"properties":{"type":"charge","layer":"passenger","locationId":"ddf5a9a7-66f8-4ff8-873b-f5fb08e4e3b6","name":"Haven","address":"Haven 38","city":"Raamsdonksveer","operatorName":"Vattenfall InCharge","maxPowerKw":11,"isMegawatt":false,"status":"AVAILABLE","source":"ndw"}},{"type":"Feature","geometry":{"type":"Point","coordinates":[4.882264,51.699577]},"properties":{"type":"charge","layer":"passenger","locationId":"f4bf72a8-24bf-4865-9b93-ffaedbf6586a","name":"Baksweer","address":"Baksweer 25","city":"Raamsdonksveer","operatorName":"Vattenfall InCharge","maxPowerKw":11,"isMegawatt":false,"status":"AVAILABLE","source":"ndw"}},{"type":"Feature","geometry":{"type":"Point","coordinates":[4.883453,51.698901]},"properties":{"type":"charge","layer":"passenger","locationId":"b3d4fbf8-50f6-4b63-8246-bab4f20a611e","name":"Hertogshoef","address":"Hertogshoef 34","city":"Raamsdonksveer","operatorName":"Vattenfall InCharge","maxPowerKw":11,"isMegawatt":false,"status":"AVAILABLE","source":"ndw"}},{"type":"Feature","geometry":{"type":"Point","coordinates":[4.843309,51.701536]},"properties":{"type":"charge","layer":"passenger","locationId":"ecdceb73-eba6-4f61-b870-9b3bb30e8112","name":"Ad van Onzenoorthof","address":"Ad van Onzenoorthof 1","city":"Geertruidenberg","operatorName":"Vattenfall InCharge","maxPowerKw":11,"isMegawatt":false,"status":"AVAILABLE","source":"ndw"}},{"type":"Feature","geometry":{"type":"Point","coordinates":[4.8575,51.699036]},"properties":{"type":"charge","layer":"passenger","locationId":"b7c15119-880d-4bec-9af0-af6be0ced41c","name":"Leerthouwerstraat","address":"Leerthouwerstraat 4","city":"Geertruidenberg","operatorName":"Vattenfall InCharge","maxPowerKw":11,"isMegawatt":false,"status":"AVAILABLE","source":"ndw"}},{"type":"Feature","geometry":{"type":"Point","coordinates":[4.873995,51.711302]},"properties":{"type":"charge","layer":"passenger","locationId":"67258bd6d7d8a59f337453729b48337f","name":"Ramgatseweg 17","address":"Ramgatseweg 17","city":"Raamsdonksveer","operatorName":"Vattenfall InCharge","maxPowerKw":11,"isMegawatt":false,"status":"AVAILABLE","source":"ndw"}},{"type":"Feature","geometry":{"type":"Point","coordinates":[4.904153,51.687294]},"properties":{"type":"charge","layer":"passenger","locationId":"3e6531c196ab2fbc1b03aaaacfa0edf9","name":"Wim Boonsstraat 47","address":"Wim Boonsstraat 47","city":"Raamsdonk","operatorName":"Vattenfall InCharge","maxPowerKw":11,"isMegawatt":false,"status":"AVAILABLE","source":"ndw"}},{"type":"Feature","geometry":{"type":"Point","coordinates":[4.87728,51.69455]},"properties":{"type":"charge","layer":"passenger","locationId":"684bd2f5-902a-44d7-b5c6-be0e8245829c","name":"Beatrixlaan","address":"Beatrixlaan 50","city":"Raamdonksveer","operatorName":"Vattenfall InCharge","maxPowerKw":11,"isMegawatt":false,"status":"CHARGING","source":"ndw"}},{"type":"Feature","geometry":{"type":"Point","coordinates":[4.844494,51.704254]},"properties":{"type":"charge","layer":"passenger","locationId":"b7ad397bd2046c954e4d8bc44d5f4b19","name":"Ravelijn 41","address":"Ravelijn 41","city":"Geertruidenberg","operatorName":"Vattenfall InCharge","maxPowerKw":11,"isMegawatt":false,"status":"CHARGING","source":"ndw"}},{"type":"Feature","geometry":{"type":"Point","coordinates":[4.871232,51.706773]},"properties":{"type":"charge","layer":"passenger","locationId":"8cef90d1-6729-4663-a992-9502391b81c5","name":"Maalderijplein","address":"Maalderijplein 9","city":"Raamsdonksveer","operatorName":"Vattenfall InCharge","maxPowerKw":11,"isMegawatt":false,"status":"AVAILABLE","source":"ndw"}},{"type":"Feature","geometry":{"type":"Point","coordinates":[4.855064,51.706589]},"properties":{"type":"charge","layer":"passenger","locationId":"1ceaec62-70f2-44c2-a5fb-98a7ff4c06fe","name":"Meester Simon Buijsstraat","address":"Meester Simon Buijsstraat 19","city":"Geertruidenberg","operatorName":"Vattenfall InCharge","maxPowerKw":11,"isMegawatt":false,"status":"AVAILABLE","source":"ndw"}},{"type":"Feature","geometry":{"type":"Point","coordinates":[4.875236,51.707613]},"properties":{"type":"charge","layer":"passenger","locationId":"afe58d020ae4d39cc20ea8fe12020a28","name":"Academielaan 53","address":"Academielaan 53","city":"Raamsdonksveer","operatorName":"Vattenfall InCharge","maxPowerKw":11,"isMegawatt":false,"status":"AVAILABLE","source":"ndw"}},{"type":"Feature","geometry":{"type":"Point","coordinates":[4.864375,51.693723]},"properties":{"type":"charge","layer":"passenger","locationId":"889c494cbedf051f5bdd0f296dfabb9d","name":"Willem Marislaan 1","address":"Willem Marislaan 1","city":"Raamsdonksveer","operatorName":"Vattenfall InCharge","maxPowerKw":11,"isMegawatt":false,"status":"CHARGING","source":"ndw"}},{"type":"Feature","geometry":{"type":"Point","coordinates":[4.860112,51.69917]},"properties":{"type":"charge","layer":"passenger","locationId":"2caa89ef-8ee6-4117-ba9a-460829c1ac66","name":"Stationsweg","address":"Stationsweg 47","city":"Geertruidenberg","operatorName":"Vattenfall InCharge","maxPowerKw":11,"isMegawatt":false,"status":"CHARGING","source":"ndw"}},{"type":"Feature","geometry":{"type":"Point","coordinates":[4.867718,51.693255]},"properties":{"type":"charge","layer":"passenger","locationId":"1a716dbf2bb4dcd9a2c6e42a0c6dafcf","name":"Zwanesteeg 4","address":"Zwanesteeg 4","city":"Raamsdonksveer","operatorName":"Vattenfall InCharge","maxPowerKw":11,"isMegawatt":false,"status":"AVAILABLE","source":"ndw"}},{"type":"Feature","geometry":{"type":"Point","coordinates":[4.854291,51.698184]},"properties":{"type":"charge","layer":"passenger","locationId":"ea3aeb99-cf89-4788-94bd-f016ab4a43d8","name":"Emmaweg","address":"Emmaweg 31","city":"Geertruidenberg","operatorName":"Vattenfall InCharge","maxPowerKw":11,"isMegawatt":false,"status":"AVAILABLE","source":"ndw"}},{"type":"Feature","geometry":{"type":"Point","coordinates":[4.85772,51.70666]},"properties":{"type":"charge","layer":"passenger","locationId":"8adcd632-3aba-4d60-9436-1d9f40f8c974","name":"Schoutenlaan","address":"Schoutenlaan 38","city":"Geertruidenberg","operatorName":"Vattenfall InCharge","maxPowerKw":11,"isMegawatt":false,"status":"AVAILABLE","source":"ndw"}},{"type":"Feature","geometry":{"type":"Point","coordinates":[4.87547,51.695667]},"properties":{"type":"charge","layer":"passenger","locationId":"75b49acc-2e3b-4ec4-804a-474bdb28b355","name":"Smidshof 7","address":"Smidshof 7","city":"Raamsdonksveer","operatorName":"Vattenfall InCharge","maxPowerKw":11,"isMegawatt":false,"status":"AVAILABLE","source":"ndw"}},{"type":"Feature","geometry":{"type":"Point","coordinates":[4.872529,51.701112]},"properties":{"type":"charge","layer":"passenger","locationId":"f6556157-ba45-472a-8f44-350c0aad29eb","name":"Vondellaan","address":"Vondellaan 20","city":"Raamsdonksveer","operatorName":"Vattenfall InCharge","maxPowerKw":11,"isMegawatt":false,"status":"AVAILABLE","source":"ndw"}},{"type":"Feature","geometry":{"type":"Point","coordinates":[4.857979,51.701342]},"properties":{"type":"charge","layer":"passenger","locationId":"6deb8a95-288f-47e5-8674-40940dbffc40","name":"Venestraat 18","address":"Venestraat 18","city":"Geertruidenberg","operatorName":"Vattenfall InCharge","maxPowerKw":11,"isMegawatt":false,"status":"CHARGING","source":"ndw"}},{"type":"Feature","geometry":{"type":"Point","coordinates":[4.885974,51.712868]},"properties":{"type":"charge","layer":"passenger","locationId":"67d990d5192e52138100a10d","name":"Ad Dekker Rekreatie 1","address":"Sterrekroos 25","city":"Raamsdonksveer","operatorName":"E-Flux by Road","maxPowerKw":11,"isMegawatt":false,"status":"AVAILABLE","source":"ndw","priceKwh":0.45}},{"type":"Feature","geometry":{"type":"Point","coordinates":[4.855018,51.699881]},"properties":{"type":"charge","layer":"passenger","locationId":"a17446470b531e8fc6e5fd3ceff9fbf3","name":"Commandeurstraat","address":"Commandeurstraat 16","city":"Geertruidenberg","operatorName":"Vattenfall InCharge","maxPowerKw":11,"isMegawatt":false,"status":"AVAILABLE","source":"ndw"}},{"type":"Feature","geometry":{"type":"Point","coordinates":[4.911255,51.687361]},"properties":{"type":"charge","layer":"passenger","locationId":"606f96f2-2980-444d-9268-19e840cda81a","name":"Stationstraat","address":"Stationstraat 7","city":"Raamsdonk","operatorName":"Vattenfall InCharge","maxPowerKw":11,"isMegawatt":false,"status":"AVAILABLE","source":"ndw"}},{"type":"Feature","geometry":{"type":"Point","coordinates":[4.879779,51.705732]},"properties":{"type":"charge","layer":"passenger","locationId":"39ca739b270f8c102221d292aec9a83b","name":"Schapendonk 26","address":"Schapendonk 26","city":"Raamsdonksveer","operatorName":"Vattenfall InCharge","maxPowerKw":11,"isMegawatt":false,"status":"AVAILABLE","source":"ndw"}},{"type":"Feature","geometry":{"type":"Point","coordinates":[4.880183,51.702759]},"properties":{"type":"charge","layer":"passenger","locationId":"fbf58e03-c98f-4886-a7e8-143bf0bd9e05","name":"Lutteldonk","address":"Lutteldonk 23","city":"Raamsdonksveer","operatorName":"Vattenfall InCharge","maxPowerKw":11,"isMegawatt":false,"status":"AVAILABLE","source":"ndw"}},{"type":"Feature","geometry":{"type":"Point","coordinates":[4.910852,51.687931]},"properties":{"type":"charge","layer":"passenger","locationId":"039d57c32314f09b6dfd070889737bc9","name":"Heemraadsingel 3","address":"Heemraadsingel 3","city":"Raamsdonk","operatorName":"Vattenfall InCharge","maxPowerKw":11,"isMegawatt":false,"status":"AVAILABLE","source":"ndw"}},{"type":"Feature","geometry":{"type":"Point","coordinates":[4.878091,51.706503]},"properties":{"type":"charge","layer":"passenger","locationId":"aae19197-e917-43e4-a548-11ce87f58b35","name":"Wolvendonk","address":"Wolvendonk 9","city":"Raamsdonksveer","operatorName":"Vattenfall InCharge","maxPowerKw":11,"isMegawatt":false,"status":"AVAILABLE","source":"ndw"}},{"type":"Feature","geometry":{"type":"Point","coordinates":[4.88337,51.693756]},"properties":{"type":"charge","layer":"passenger","locationId":"cd4c5302-1b29-4db6-a866-ef8b4d762c88","name":"Julianalaan","address":"Julianalaan 103","city":"Raamsdonksveer","operatorName":"Vattenfall InCharge","maxPowerKw":11,"isMegawatt":false,"status":"CHARGING","source":"ndw"}},{"type":"Feature","geometry":{"type":"Point","coordinates":[4.881321,51.692336]},"properties":{"type":"charge","layer":"passenger","locationId":"c86f66b55d0b8f7f729ac3b87598a4ff","name":"Bachplein 4","address":"Bachplein 4","city":"Raamsdonksveer","operatorName":"Vattenfall InCharge","maxPowerKw":11,"isMegawatt":false,"status":"AVAILABLE","source":"ndw"}},{"type":"Feature","geometry":{"type":"Point","coordinates":[4.878487,51.695875]},"properties":{"type":"charge","layer":"passenger","locationId":"08ad339b-2ada-4de3-ba0d-d22e0dcb56d0","name":"Beatrixlaan","address":"Beatrixlaan 14","city":"Raamsdonksveer","operatorName":"Vattenfall InCharge","maxPowerKw":11,"isMegawatt":false,"status":"AVAILABLE","source":"ndw"}},{"type":"Feature","geometry":{"type":"Point","coordinates":[4.87239,51.705767]},"properties":{"type":"charge","layer":"passenger","locationId":"c1f9eb3c-3f10-42dd-8bfd-692ce76795e7","name":"G. van Balenstraat","address":"G. van Balenstraat 20","city":"Raamsdonksveer","operatorName":"Vattenfall InCharge","maxPowerKw":11,"isMegawatt":false,"status":"AVAILABLE","source":"ndw"}},{"type":"Feature","geometry":{"type":"Point","coordinates":[4.869208,51.693548]},"properties":{"type":"charge","layer":"passenger","locationId":"5cf291ed5cec390619b69e269479a5f4","name":"Grote Kerkstraat 52","address":"Grote Kerkstraat 52","city":"Raamsdonksveer","operatorName":"Vattenfall InCharge","maxPowerKw":11,"isMegawatt":false,"status":"AVAILABLE","source":"ndw"}},{"type":"Feature","geometry":{"type":"Point","coordinates":[4.880821,51.702117]},"properties":{"type":"charge","layer":"passenger","locationId":"53d5a0bf-2ef0-4304-8291-7e6b2c0c8440","name":"Hoge Donk","address":"Hoge Donk 83","city":"Raamsdonksveer","operatorName":"Vattenfall InCharge","maxPowerKw":11,"isMegawatt":false,"status":"CHARGING","source":"ndw"}},{"type":"Feature","geometry":{"type":"Point","coordinates":[4.884373,51.703024]},"properties":{"type":"charge","layer":"passenger","locationId":"054b2e22-5eea-4c16-be2e-76f0a9d59774","name":"Rijvoortshoef","address":"Rijvoortshoef 13","city":"Raamsdonksveer","operatorName":"Vattenfall InCharge","maxPowerKw":11,"isMegawatt":false,"status":"AVAILABLE","source":"ndw"}},{"type":"Feature","geometry":{"type":"Point","coordinates":[4.86521,51.69465]},"properties":{"type":"charge","layer":"passenger","locationId":"8a8acda1cb61c215ff03c2eb73c5617d","name":"Willem Marislaan 17","address":"Willem Marislaan 17","city":"Raamsdonksveer","operatorName":"Vattenfall InCharge","maxPowerKw":11,"isMegawatt":false,"status":"AVAILABLE","source":"ndw"}},{"type":"Feature","geometry":{"type":"Point","coordinates":[4.858331,51.698548]},"properties":{"type":"charge","layer":"passenger","locationId":"2f9c443b-eec2-4b94-b147-5dad9dc5803a","name":"Frederik Hendrik wal","address":"Frederik Hendrik wal 101","city":"Geertruidenberg","operatorName":"Vattenfall InCharge","maxPowerKw":11,"isMegawatt":false,"status":"AVAILABLE","source":"ndw"}},{"type":"Feature","geometry":{"type":"Point","coordinates":[4.843563,51.702786]},"properties":{"type":"charge","layer":"passenger","locationId":"8d6adb9e-9441-4e23-9aeb-e46ecd1e9d70","name":"Burgemeester Bianchiweg","address":"Burgemeester Bianchiweg 28","city":"Geertruidenberg","operatorName":"Vattenfall InCharge","maxPowerKw":11,"isMegawatt":false,"status":"AVAILABLE","source":"ndw"}},{"type":"Feature","geometry":{"type":"Point","coordinates":[4.846093,51.701869]},"properties":{"type":"charge","layer":"passenger","locationId":"44ad6219-1f2b-48fa-baa0-7acbe88c8fc4","name":"Schonckplein","address":"Schonckplein 2 a","city":"Geertruidenberg","operatorName":"Vattenfall InCharge","maxPowerKw":11,"isMegawatt":false,"status":"CHARGING","source":"ndw"}},{"type":"Feature","geometry":{"type":"Point","coordinates":[4.86101,51.69873]},"properties":{"type":"charge","layer":"passenger","locationId":"cfe27913-7e5e-45d9-aad3-d969a9e85370","name":"Burchtplein","address":"Burchtplein 2G","city":"Geertruidenberg","operatorName":"Vattenfall InCharge","maxPowerKw":11,"isMegawatt":false,"status":"AVAILABLE","source":"ndw"}},{"type":"Feature","geometry":{"type":"Point","coordinates":[4.881374,51.700904]},"properties":{"type":"charge","layer":"passenger","locationId":"cb36e0ae-8af9-4cbe-9170-0429015a987f","name":"Burgemeester Krijgsmangeerde","address":"Burgemeester Krijgsmangeerde 20","city":"Raamsdonksveer","operatorName":"Vattenfall InCharge","maxPowerKw":11,"isMegawatt":false,"status":"CHARGING","source":"ndw"}},{"type":"Feature","geometry":{"type":"Point","coordinates":[4.867842,51.690582]},"properties":{"type":"charge","layer":"passenger","locationId":"922848","name":"DAE-NL-2000520","address":"Anemoonlaan 14","city":"Raamsdonksveer","operatorName":"DAEN Mobility","maxPowerKw":4,"isMegawatt":false,"status":"UNAVAILABLE","source":"ndw"}},{"type":"Feature","geometry":{"type":"Point","coordinates":[4.868634,51.693388]},"properties":{"type":"charge","layer":"passenger","locationId":"83c42861-aab3-4631-8a54-ce56d96d60dc","name":"Zwanesteeg","address":"Zwanesteeg 4a","city":"Raamsdonksveer","operatorName":"Vattenfall InCharge","maxPowerKw":11,"isMegawatt":false,"status":"AVAILABLE","source":"ndw"}},{"type":"Feature","geometry":{"type":"Point","coordinates":[4.906588,51.689492]},"properties":{"type":"charge","layer":"passenger","locationId":"0468a344-7165-4249-825a-ff3946951c9b","name":"Schepenenstraat","address":"Schepenenstraat 22","city":"Raamsdonk","operatorName":"Vattenfall InCharge","maxPowerKw":11,"isMegawatt":false,"status":"AVAILABLE","source":"ndw"}},{"type":"Feature","geometry":{"type":"Point","coordinates":[4.882218,51.694025]},"properties":{"type":"charge","layer":"passenger","locationId":"f778f1d8-ba78-47b8-b590-16f09ac88271","name":"Julianalaan","address":"Julianalaan 114","city":"Raamsdonksveer","operatorName":"Vattenfall InCharge","maxPowerKw":11,"isMegawatt":false,"status":"AVAILABLE","source":"ndw"}},{"type":"Feature","geometry":{"type":"Point","coordinates":[4.875433,51.688936]},"properties":{"type":"charge","layer":"passenger","locationId":"4d753fc8-8526-4a02-9f8f-43c78f474ff4","name":"Oosterhoutseweg","address":"Oosterhoutseweg 1","city":"Raamsdonksveer","operatorName":"Vattenfall InCharge","maxPowerKw":11,"isMegawatt":false,"status":"AVAILABLE","source":"ndw"}},{"type":"Feature","geometry":{"type":"Point","coordinates":[4.86399,51.70274]},"properties":{"type":"charge","layer":"passenger","locationId":"91bc9be8-5adf-4cbc-8ff6-398e7433ade9","name":"Statenlaan 21","address":"Statenlaan 21","city":"Geertruidenberg","operatorName":"Vattenfall InCharge","maxPowerKw":11,"isMegawatt":false,"status":"AVAILABLE","source":"ndw"}},{"type":"Feature","geometry":{"type":"Point","coordinates":[4.90506,51.68694]},"properties":{"type":"charge","layer":"passenger","locationId":"d4da926f-25fc-4ab0-b3e8-9810ff52b161","name":"Kerkplein","address":"Kerkplein 7B","city":"Raamsdonk","operatorName":"Vattenfall InCharge","maxPowerKw":11,"isMegawatt":false,"status":"AVAILABLE","source":"ndw"}},{"type":"Feature","geometry":{"type":"Point","coordinates":[4.863375,51.699014]},"properties":{"type":"charge","layer":"passenger","locationId":"05930cdd-377e-4edc-bfa3-e3e39f641a17","name":"Walgang 7","address":"Walgang 7","city":"Geertruidenberg","operatorName":"Vattenfall InCharge","maxPowerKw":11,"isMegawatt":false,"status":"AVAILABLE","source":"ndw"}},{"type":"Feature","geometry":{"type":"Point","coordinates":[4.858375,51.70676]},"properties":{"type":"charge","layer":"passenger","locationId":"ec1ec9a8a1c79a639ac5a7de86905920","name":"Ambrosius Rozendaelstraat 29","address":"Ambrosius Rozendaelstraat 29","city":"Geertruidenberg","operatorName":"Vattenfall InCharge","maxPowerKw":11,"isMegawatt":false,"status":"AVAILABLE","source":"ndw"}},{"type":"Feature","geometry":{"type":"Point","coordinates":[4.883485,51.701579]},"properties":{"type":"charge","layer":"passenger","locationId":"0aa5165d-0031-4b08-bcba-87a19d175d91","name":"Breetweerlaan","address":"Breetweerlaan 47","city":"Raamsdonksveer","operatorName":"Vattenfall InCharge","maxPowerKw":11,"isMegawatt":false,"status":"AVAILABLE","source":"ndw"}},{"type":"Feature","geometry":{"type":"Point","coordinates":[4.866321,51.701187]},"properties":{"type":"charge","layer":"passenger","locationId":"34f29473-3ec0-4323-83bb-02144b69cf18","name":"Lunetkade","address":"Lunetkade 1","city":"Geertruidenberg","operatorName":"Vattenfall InCharge","maxPowerKw":11,"isMegawatt":false,"status":"AVAILABLE","source":"ndw"}},{"type":"Feature","geometry":{"type":"Point","coordinates":[4.871348,51.704081]},"properties":{"type":"charge","layer":"passenger","locationId":"910f7f20-4ffb-478c-8d7e-14fa308717e8","name":"Collegeweg 1","address":"Collegeweg 1","city":"Raamsdonksveer","operatorName":"Vattenfall InCharge","maxPowerKw":11,"isMegawatt":false,"status":"AVAILABLE","source":"ndw"}},{"type":"Feature","geometry":{"type":"Point","coordinates":[4.8724,51.70224]},"properties":{"type":"charge","layer":"passenger","locationId":"73fad549faaa802152f1332cc9e52ec3","name":"Slauerhofflaan 18","address":"Slauerhofflaan 18","city":"Raamsdonksveer","operatorName":"Vattenfall InCharge","maxPowerKw":11,"isMegawatt":false,"status":"AVAILABLE","source":"ndw"}},{"type":"Feature","geometry":{"type":"Point","coordinates":[4.864642,51.691637]},"properties":{"type":"charge","layer":"passenger","locationId":"f524cddd-8d50-421e-aaf7-d76a7ea28998","name":"Anemoonlaan","address":"Anemoonlaan 38","city":"Raamsdonksveer","operatorName":"Vattenfall InCharge","maxPowerKw":11,"isMegawatt":false,"status":"AVAILABLE","source":"ndw"}},{"type":"Feature","geometry":{"type":"Point","coordinates":[4.848907,51.701384]},"properties":{"type":"charge","layer":"passenger","locationId":"73ec2448-2470-46d9-b921-8f8ddc3f6394","name":"Stadsweg","address":"Stadsweg 16","city":"Geertruidenberg","operatorName":"Vattenfall InCharge","maxPowerKw":11,"isMegawatt":false,"status":"AVAILABLE","source":"ndw"}},{"type":"Feature","geometry":{"type":"Point","coordinates":[4.885684,51.702096]},"properties":{"type":"charge","layer":"passenger","locationId":"cc00e9c5-8660-46a4-a5ad-0589823e6aba","name":"Benraatshoef","address":"Benraatshoef 120","city":"Raamsdonksveer","operatorName":"Vattenfall InCharge","maxPowerKw":11,"isMegawatt":false,"status":"CHARGING","source":"ndw"}},{"type":"Feature","geometry":{"type":"Point","coordinates":[4.859469,51.702204]},"properties":{"type":"charge","layer":"passenger","locationId":"c5fe9cfe-2981-4182-a290-43d437f28676","name":"Haven 113","address":"Haven 113","city":"Geertruidenberg","operatorName":"Vattenfall InCharge","maxPowerKw":11,"isMegawatt":false,"status":"AVAILABLE","source":"ndw"}},{"type":"Feature","geometry":{"type":"MultiPolygon","coordinates":[[[[4.890030497339957,51.719768708132726],[4.901549501100106,51.718672560116374],[4.917990296203698,51.71995951335617],[4.921006238345533,51.711409340458665],[4.92695716127893,51.694262799109495],[4.929108372926355,51.68813514514615],[4.9303617353731815,51.684280953503226],[4.930759208296497,51.68351023513656],[4.933168782836582,51.67675001600895],[4.925073271856682,51.67498036394818],[4.925031707417006,51.673009360857364],[4.917520297990275,51.675258523802825],[4.913780213546871,51.67504901266427],[4.912826330605445,51.67659011404266],[4.9065508660590975,51.67595320558014],[4.9069312374500695,51.674943632075546],[4.898720409262981,51.674183460073834],[4.896834865062164,51.6747745865588],[4.880499767668583,51.67420803901124],[4.880228084301039,51.67183560044773],[4.879712630043012,51.67204330150733],[4.87654956041888,51.67333159505991],[4.8757864236347395,51.67473345546033],[4.872019596442334,51.675174868830815],[4.871247596383407,51.675820324461995],[4.866202802966713,51.67610606159841],[4.862651449344208,51.67706693869303],[4.860679954891706,51.678708765565645],[4.856579793732643,51.68024283170132],[4.856621077781601,51.68166802173623],[4.851059571198247,51.68396482349413],[4.846210511825779,51.68449170874265],[4.843390565383062,51.68601755518264],[4.84226489576757,51.68285575909604],[4.842684897507464,51.679733657450335],[4.842367260529157,51.67965420147341],[4.839623663038048,51.68402089672539],[4.831941333932094,51.69179117918403],[4.829656540782902,51.69563507547623],[4.826668439378287,51.70435851074217],[4.82413279766431,51.709541171471415],[4.823609656639573,51.71128839184905],[4.829766146484399,51.71158605540934],[4.8369039261300415,51.712612106532404],[4.841591608548225,51.7134497221261],[4.873054035108818,51.71999851101657],[4.890016286304574,51.71976999526884],[4.890030497339957,51.719768708132726]]]]},"properties":{"type":"boundary","gemeente":"Geertruidenberg","code":"GM0779"}}]}