{"type":"FeatureCollection","metadata":{"gemeente":"Gooise Meren","slug":"gooise-meren","code":"GM1942","generated_at":"2026-06-07T19:22:09.578Z","total_passenger":482,"total_freight":2,"bounds":[5.012792826488169,52.25579625382124,5.230352148355132,52.36553177235944],"operators":["DAEN Mobility","E-Flux by Road","Eneco","Fastned","Greenchoice B.V.","Laadnet","NRG Mobility","Opcharge","Pluq","PowerGo","Shell Recharge","TotalEnergies","Ubitricity","Vattenfall InCharge","bp pulse","e-VOLTT"]},"features":[{"type":"Feature","geometry":{"type":"Point","coordinates":[5.15921,52.271057]},"properties":{"type":"charge","layer":"passenger","locationId":"2c460924-07dc-4733-9eab-11f5dab36b29","name":"TNLP034026","address":"Nieuwe Hilversumseweg 15","city":"Bussum","operatorName":"TotalEnergies","maxPowerKw":14,"isMegawatt":false,"status":"AVAILABLE","source":"ndw"}},{"type":"Feature","geometry":{"type":"Point","coordinates":[5.190626,52.270031]},"properties":{"type":"charge","layer":"passenger","locationId":"1c2b20de-b44a-11f0-8516-42010aa400b8","name":"TNLP006719","address":"Wielewaallaan 39","city":"Bussum","operatorName":"TotalEnergies","maxPowerKw":17,"isMegawatt":false,"status":"AVAILABLE","source":"ndw","priceKwh":0.4}},{"type":"Feature","geometry":{"type":"Point","coordinates":[5.15746,52.27192]},"properties":{"type":"charge","layer":"passenger","locationId":"321da41a-6cf9-11e9-aafb-42010a840fdb","name":"Shell Recharge NL Beerensteinerhof 7 Bussum","address":"Beerensteinerhof 7","city":"Bussum","operatorName":"Ubitricity","maxPowerKw":11,"isMegawatt":false,"status":"AVAILABLE","source":"ndw","priceKwh":0.39}},{"type":"Feature","geometry":{"type":"Point","coordinates":[5.15682,52.28551]},"properties":{"type":"charge","layer":"passenger","locationId":"5c0d058e-7737-11e9-9db5-42010a840fd3","name":"Shell Recharge NL Graaf Janlaan 38 Naarden","address":"Graaf Janlaan 38","city":"Naarden","operatorName":"Ubitricity","maxPowerKw":11,"isMegawatt":false,"status":"AVAILABLE","source":"ndw","priceKwh":0.39}},{"type":"Feature","geometry":{"type":"Point","coordinates":[5.072542,52.326002]},"properties":{"type":"charge","layer":"passenger","locationId":"77159154-2de3-4838-a786-1e109f165cbd","name":"TNLP034228","address":"De Lange Gangh 36","city":"Muiden","operatorName":"TotalEnergies","maxPowerKw":14,"isMegawatt":false,"status":"AVAILABLE","source":"ndw"}},{"type":"Feature","geometry":{"type":"Point","coordinates":[5.17358,52.275089]},"properties":{"type":"charge","layer":"passenger","locationId":"6AC93A66-08D1-4C91-9656-E45B3FDBDD11","name":"TNLP009977","address":"Huizerweg 80","city":"Bussum","operatorName":"TotalEnergies","maxPowerKw":17,"isMegawatt":false,"status":"AVAILABLE","source":"ndw"}},{"type":"Feature","geometry":{"type":"Point","coordinates":[5.15921,52.271057]},"properties":{"type":"charge","layer":"passenger","locationId":"3ea3e1ee-b064-11f0-b71d-42010aa400b8","name":"TNLP034026","address":"Nieuwe Hilversumseweg 15","city":"Bussum","operatorName":"TotalEnergies","maxPowerKw":14,"isMegawatt":false,"status":"AVAILABLE","source":"ndw","priceKwh":0.3}},{"type":"Feature","geometry":{"type":"Point","coordinates":[5.171031,52.262394]},"properties":{"type":"charge","layer":"passenger","locationId":"f4717852-7150-11ed-9ad2-42010aa40029","name":"TNLP007857","address":"Imkerweg 33","city":"Bussum","operatorName":"TotalEnergies","maxPowerKw":17,"isMegawatt":false,"status":"AVAILABLE","source":"ndw","priceKwh":0.4}},{"type":"Feature","geometry":{"type":"Point","coordinates":[5.141043,52.320114]},"properties":{"type":"charge","layer":"passenger","locationId":"3f4c580e-1f59-11ee-98de-42010aa40fc0","name":"Waterfront Naarderbos AC (PowerGo)","address":"IJsselmeerweg 100","city":"Naarden","operatorName":"PowerGo","maxPowerKw":0,"isMegawatt":false,"status":"AVAILABLE","source":"ndw"}},{"type":"Feature","geometry":{"type":"Point","coordinates":[5.148364,52.287702]},"properties":{"type":"charge","layer":"passenger","locationId":"73b05dae-b8cf-4016-98da-c1bb3353da53","name":"TNLP005893","address":"Schout 149","city":"Naarden","operatorName":"TotalEnergies","maxPowerKw":17,"isMegawatt":false,"status":"CHARGING","source":"ndw"}},{"type":"Feature","geometry":{"type":"Point","coordinates":[5.067725,52.334284]},"properties":{"type":"charge","layer":"passenger","locationId":"07b6b074-b814-11ef-bfce-42010aa400b8","name":"Shell Recharge NL Constantijn Huygenslaan 50 Muiden","address":"Constantijn Huygenslaan 50","city":"Muiden","operatorName":"Ubitricity","maxPowerKw":22,"isMegawatt":false,"status":"AVAILABLE","source":"ndw","priceKwh":0.29}},{"type":"Feature","geometry":{"type":"Point","coordinates":[5.171928,52.265867]},"properties":{"type":"charge","layer":"passenger","locationId":"6ef2468d0180168f4c322b2cd6b3a0ff","name":"Elise Dammershof 34","address":"Elise Dammershof 34","city":"Bussum","operatorName":"Vattenfall InCharge","maxPowerKw":11,"isMegawatt":false,"status":"AVAILABLE","source":"ndw"}},{"type":"Feature","geometry":{"type":"Point","coordinates":[5.15052,52.29695]},"properties":{"type":"charge","layer":"passenger","locationId":"51fdbc0c-41f1-11ea-ae23-42010a840009","name":"Shell Recharge NL Gen. Kraijenhoffstraat 56 Naarden","address":"Gen. Kraijenhoffstraat 56","city":"Naarden","operatorName":"Ubitricity","maxPowerKw":11,"isMegawatt":false,"status":"AVAILABLE","source":"ndw","priceKwh":0.39}},{"type":"Feature","geometry":{"type":"Point","coordinates":[5.16166,52.28548]},"properties":{"type":"charge","layer":"passenger","locationId":"81198062-d546-11ec-968f-42010a840003","name":"Shell Recharge NL Lambertus Hortensiuslaan 16 Naarden","address":"Lambertus Hortensiuslaan 16","city":"Naarden","operatorName":"Ubitricity","maxPowerKw":11,"isMegawatt":false,"status":"AVAILABLE","source":"ndw","priceKwh":0.39}},{"type":"Feature","geometry":{"type":"Point","coordinates":[5.071331,52.332939]},"properties":{"type":"charge","layer":"passenger","locationId":"8668DC9F-A76A-44D8-9F56-C559FCF704EC","name":"TNLP009971","address":"Herengracht 3","city":"Muiden","operatorName":"TotalEnergies","maxPowerKw":17,"isMegawatt":false,"status":"AVAILABLE","source":"ndw"}},{"type":"Feature","geometry":{"type":"Point","coordinates":[5.187116,52.271461]},"properties":{"type":"charge","layer":"passenger","locationId":"715a57d3-0348-44ab-b55a-b80c3006fa03","name":"Zwaluwlaan","address":"Zwaluwlaan 1","city":"Bussum","operatorName":"Vattenfall InCharge","maxPowerKw":11,"isMegawatt":false,"status":"AVAILABLE","source":"ndw"}},{"type":"Feature","geometry":{"type":"Point","coordinates":[5.121771,52.325403]},"properties":{"type":"charge","layer":"passenger","locationId":"82b70038-0a96-11f0-a941-42010aa400b8","name":"Shell Recharge NL De Lent 2 Muiderberg","address":"De Lent 2","city":"Muiderberg","operatorName":"Ubitricity","maxPowerKw":22,"isMegawatt":false,"status":"AVAILABLE","source":"ndw","priceKwh":0.29}},{"type":"Feature","geometry":{"type":"Point","coordinates":[5.117657,52.322702]},"properties":{"type":"charge","layer":"passenger","locationId":"b9dad516-b064-11f0-95d7-42010aa400b8","name":"Shell Recharge NL Pieter de Hooghlaan 9, Muiderberg","address":"Pieter de Hooghlaan 9","city":"Muiderberg","operatorName":"Ubitricity","maxPowerKw":22,"isMegawatt":false,"status":"AVAILABLE","source":"ndw","priceKwh":0.29}},{"type":"Feature","geometry":{"type":"Point","coordinates":[5.163722,52.27372]},"properties":{"type":"charge","layer":"passenger","locationId":"59be1ef4-3dc9-43be-9241-37f3b43823b3","name":"TNLP009967","address":"Kerkstraat 1","city":"Bussum","operatorName":"TotalEnergies","maxPowerKw":17,"isMegawatt":false,"status":"AVAILABLE","source":"ndw"}},{"type":"Feature","geometry":{"type":"Point","coordinates":[5.15612,52.28173]},"properties":{"type":"charge","layer":"passenger","locationId":"d3fe376e-fc33-11ec-bd64-42010aa40034","name":"Eneco eMobility NS Parallelweg 1 Bussum","address":"Parallelweg 1","city":"Bussum","operatorName":"Eneco","maxPowerKw":22,"isMegawatt":false,"status":"AVAILABLE","source":"ndw","priceKwh":0.48}},{"type":"Feature","geometry":{"type":"Point","coordinates":[5.15047,52.28203]},"properties":{"type":"charge","layer":"passenger","locationId":"0847f618-6a28-11ea-b6f6-42010a840fd0","name":"PP005079","address":"Verlengde Fortlaan 15","city":"Naarden","operatorName":"TotalEnergies","maxPowerKw":0,"isMegawatt":false,"status":"AVAILABLE","source":"ndw","priceKwh":0.4}},{"type":"Feature","geometry":{"type":"Point","coordinates":[5.168201,52.265829]},"properties":{"type":"charge","layer":"passenger","locationId":"464a9ef0-d687-11ee-875b-42010aa40fc0","name":"TNLP008610","address":"Lange Heul 57","city":"Bussum","operatorName":"TotalEnergies","maxPowerKw":14,"isMegawatt":false,"status":"AVAILABLE","source":"ndw","priceKwh":0.4}},{"type":"Feature","geometry":{"type":"Point","coordinates":[5.062409,52.327817]},"properties":{"type":"charge","layer":"passenger","locationId":"bf538994-add5-11ef-ab00-42010aa400b8","name":"TNLP015048","address":"Weesperweg 2a","city":"Muiden","operatorName":"TotalEnergies","maxPowerKw":17,"isMegawatt":false,"status":"AVAILABLE","source":"ndw","priceKwh":0.4}},{"type":"Feature","geometry":{"type":"Point","coordinates":[5.170756,52.289019]},"properties":{"type":"charge","layer":"passenger","locationId":"d28d676c-d9f0-11f0-a0f1-42010aa400b8","name":"Eneco eMobility Albert Heijn - Amersfoortsestraatweg 3 A","address":"Amersfoortsestraatweg 3 A","city":"Naarden","operatorName":"Eneco","maxPowerKw":150,"isMegawatt":false,"status":"AVAILABLE","source":"ndw","priceKwh":0.62}},{"type":"Feature","geometry":{"type":"Point","coordinates":[5.167635,52.278016]},"properties":{"type":"charge","layer":"passenger","locationId":"40a9a006-757e-4679-951f-ad66cc03f867","name":"TNLP005901","address":"Tesselschadelaan 8","city":"Bussum","operatorName":"TotalEnergies","maxPowerKw":17,"isMegawatt":false,"status":"AVAILABLE","source":"ndw"}},{"type":"Feature","geometry":{"type":"Point","coordinates":[5.175825,52.269005]},"properties":{"type":"charge","layer":"passenger","locationId":"10d97c4a-a3d2-11f0-865a-42010aa400b8","name":"Shell Recharge NL Doctor Abraham Kuyperlaan 62, Bussum","address":"Doctor Abraham Kuyperlaan 62","city":"Bussum","operatorName":"Ubitricity","maxPowerKw":22,"isMegawatt":false,"status":"AVAILABLE","source":"ndw","priceKwh":0.29}},{"type":"Feature","geometry":{"type":"Point","coordinates":[5.120634,52.311193]},"properties":{"type":"charge","layer":"passenger","locationId":"61f2bcddf260490db965d43a","name":"De boer dier en ruiter","address":"Naardervaart 1A","city":"Muiderberg","operatorName":"E-Flux by Road","maxPowerKw":22,"isMegawatt":false,"status":"AVAILABLE","source":"ndw","priceKwh":0.58}},{"type":"Feature","geometry":{"type":"Point","coordinates":[5.176058,52.267568]},"properties":{"type":"charge","layer":"passenger","locationId":"973b5fca-8f63-11f0-8fb3-42010aa400b8","name":"Shell Recharge NL Cornelis van den Bergstraat 31, Bussum","address":"Cornelis van den Bergstraat 31","city":"Bussum","operatorName":"Ubitricity","maxPowerKw":22,"isMegawatt":false,"status":"AVAILABLE","source":"ndw","priceKwh":0.29}},{"type":"Feature","geometry":{"type":"Point","coordinates":[5.18513,52.273118]},"properties":{"type":"charge","layer":"passenger","locationId":"1d2ba48a-1f50-408a-976d-56077c7d87a7","name":"PP005526","address":"Goudenregenstraat 9","city":"Bussum","operatorName":"TotalEnergies","maxPowerKw":0,"isMegawatt":false,"status":"AVAILABLE","source":"ndw"}},{"type":"Feature","geometry":{"type":"Point","coordinates":[5.152887,52.291566]},"properties":{"type":"charge","layer":"passenger","locationId":"FD2DEF83-C67F-4B13-9C31-B9279D9B645E","name":"TNLP009107","address":"Prinses Margriethof 102","city":"Naarden","operatorName":"TotalEnergies","maxPowerKw":17,"isMegawatt":false,"status":"CHARGING","source":"ndw"}},{"type":"Feature","geometry":{"type":"Point","coordinates":[5.188268,52.27061]},"properties":{"type":"charge","layer":"passenger","locationId":"b47f981e516892d5491d4aceab14cd1a","name":"Zwaluwlaan 54","address":"Zwaluwlaan 54","city":"Bussum","operatorName":"Vattenfall InCharge","maxPowerKw":11,"isMegawatt":false,"status":"AVAILABLE","source":"ndw"}},{"type":"Feature","geometry":{"type":"Point","coordinates":[5.05915,52.332267]},"properties":{"type":"charge","layer":"passenger","locationId":"66ea91cad5108e001cfcf075","name":"Vloto laadpaal Vuursteen 5","address":"Vuursteen 5","city":"Muiden","operatorName":"E-Flux by Road","maxPowerKw":14,"isMegawatt":false,"status":"AVAILABLE","source":"ndw","priceKwh":0.34}},{"type":"Feature","geometry":{"type":"Point","coordinates":[5.065149,52.334266]},"properties":{"type":"charge","layer":"passenger","locationId":"68b1605e0abda648591c9d83","name":"Vloto laadpaal PC Hooftlaan 37","address":"PC Hooftlaan  37","city":"Muiden","operatorName":"E-Flux by Road","maxPowerKw":14,"isMegawatt":false,"status":"CHARGING","source":"ndw","priceKwh":0.34}},{"type":"Feature","geometry":{"type":"Point","coordinates":[5.15745,52.28395]},"properties":{"type":"charge","layer":"passenger","locationId":"1604","name":"Shell Recharge NL Pater Wijnterlaan 41","address":"Pater Wijnterlaan 41","city":"Gooise Meren","operatorName":"Ubitricity","maxPowerKw":11,"isMegawatt":false,"status":"AVAILABLE","source":"ndw","priceKwh":0.388}},{"type":"Feature","geometry":{"type":"Point","coordinates":[5.184562,52.26921]},"properties":{"type":"charge","layer":"passenger","locationId":"8cd99c7c-b2bd-11f0-bac4-42010aa400b8","name":"TNLP008608","address":"Lijsterlaan 8","city":"Bussum","operatorName":"TotalEnergies","maxPowerKw":14,"isMegawatt":false,"status":"UNAVAILABLE","source":"ndw","priceKwh":0.39}},{"type":"Feature","geometry":{"type":"Point","coordinates":[5.140606,52.303169]},"properties":{"type":"charge","layer":"passenger","locationId":"b211ba88-ce88-11eb-bfb0-42010a84002e","name":"TNLP006349","address":"Jac. P. Thijssepark 243","city":"Naarden","operatorName":"TotalEnergies","maxPowerKw":17,"isMegawatt":false,"status":"AVAILABLE","source":"ndw","priceKwh":0.39}},{"type":"Feature","geometry":{"type":"Point","coordinates":[5.172463,52.273332]},"properties":{"type":"charge","layer":"passenger","locationId":"ea6d0bb8-0eba-406d-a4f4-c4aa4662ef90","name":"TNLP006640","address":"Batterijlaan 18","city":"Bussum","operatorName":"TotalEnergies","maxPowerKw":17,"isMegawatt":false,"status":"CHARGING","source":"ndw"}},{"type":"Feature","geometry":{"type":"Point","coordinates":[5.06515,52.334242]},"properties":{"type":"charge","layer":"passenger","locationId":"F6BBEC95-5AD9-4510-A96F-76B8947D55FC","name":"TNLP007599","address":"Muiderkring 8","city":"Muiden","operatorName":"TotalEnergies","maxPowerKw":17,"isMegawatt":false,"status":"CHARGING","source":"ndw"}},{"type":"Feature","geometry":{"type":"Point","coordinates":[5.123456,52.323199]},"properties":{"type":"charge","layer":"passenger","locationId":"09663cae-b1be-11ed-b288-42010aa40065","name":"TNLP008039","address":"Watersnip 6","city":"Muiderberg","operatorName":"TotalEnergies","maxPowerKw":17,"isMegawatt":false,"status":"CHARGING","source":"ndw","priceKwh":0.4}},{"type":"Feature","geometry":{"type":"Point","coordinates":[5.179837,52.27404]},"properties":{"type":"charge","layer":"passenger","locationId":"566617c4-bd36-11ea-a256-42010a84000a","name":"PP005418","address":"Keizer Ottostraat 77","city":"Bussum","operatorName":"TotalEnergies","maxPowerKw":0,"isMegawatt":false,"status":"CHARGING","source":"ndw","priceKwh":0.4}},{"type":"Feature","geometry":{"type":"Point","coordinates":[5.177907,52.263842]},"properties":{"type":"charge","layer":"passenger","locationId":"87f1fdbe-d217-11ed-a9e1-42010aa40fc4","name":"TNLP007733","address":"Randweg 173","city":"Bussum","operatorName":"TotalEnergies","maxPowerKw":17,"isMegawatt":false,"status":"AVAILABLE","source":"ndw","priceKwh":0.4}},{"type":"Feature","geometry":{"type":"Point","coordinates":[5.064533,52.333866]},"properties":{"type":"charge","layer":"passenger","locationId":"66d83313895da4001c9ebde0","name":"Vloto laadpaal Waterlinie 13","address":"Waterlinie 13","city":"Muiden","operatorName":"E-Flux by Road","maxPowerKw":14,"isMegawatt":false,"status":"UNAVAILABLE","source":"ndw","priceKwh":0.34}},{"type":"Feature","geometry":{"type":"Point","coordinates":[5.083473,52.321486]},"properties":{"type":"charge","layer":"passenger","locationId":"b47a5216-962f-11ec-a355-42010a840029","name":"Shell Recharge A1 E231 NZ","address":"A1 E231 NZ","city":"Muiden","operatorName":"Shell Recharge","maxPowerKw":175,"isMegawatt":false,"status":"CHARGING","source":"ndw"}},{"type":"Feature","geometry":{"type":"Point","coordinates":[5.145852,52.280725]},"properties":{"type":"charge","layer":"passenger","locationId":"923361","name":"DAE_NL_2001197","address":"Laegieskampweg 7","city":"Naarden","operatorName":"DAEN Mobility","maxPowerKw":11,"isMegawatt":false,"status":"AVAILABLE","source":"ndw","priceKwh":0.28}},{"type":"Feature","geometry":{"type":"Point","coordinates":[5.1512,52.28633]},"properties":{"type":"charge","layer":"passenger","locationId":"bf268f30-d546-11ec-9cc8-42010a840003","name":"Shell Recharge NL Thorbeckelaan 74 Naarden","address":"Thorbeckelaan 74","city":"Naarden","operatorName":"Ubitricity","maxPowerKw":11,"isMegawatt":false,"status":"AVAILABLE","source":"ndw","priceKwh":0.39}},{"type":"Feature","geometry":{"type":"Point","coordinates":[5.16478,52.29503]},"properties":{"type":"charge","layer":"passenger","locationId":"002b85cc-f6ef-11ea-b751-42010a840033","name":"PP001840","address":"Ruijsdaelplein 2","city":"Naarden","operatorName":"TotalEnergies","maxPowerKw":17,"isMegawatt":false,"status":"AVAILABLE","source":"ndw","priceKwh":0.4}},{"type":"Feature","geometry":{"type":"Point","coordinates":[5.165135,52.279753]},"properties":{"type":"charge","layer":"passenger","locationId":"0b113bde-8403-11f0-a7a8-42010aa400b8","name":"TNLP008105","address":"Vossiuslaan 16","city":"Bussum","operatorName":"TotalEnergies","maxPowerKw":17,"isMegawatt":false,"status":"CHARGING","source":"ndw","priceKwh":0.4}},{"type":"Feature","geometry":{"type":"Point","coordinates":[5.112411,52.325677]},"properties":{"type":"charge","layer":"passenger","locationId":"40c0a17c-39a9-11ed-87f8-42010aa4001b","name":"TNLP007507","address":"Googweg 1","city":"Muiderberg","operatorName":"TotalEnergies","maxPowerKw":17,"isMegawatt":false,"status":"AVAILABLE","source":"ndw","priceKwh":0.4}},{"type":"Feature","geometry":{"type":"Point","coordinates":[5.143186,52.260004]},"properties":{"type":"charge","layer":"passenger","locationId":"d5022940-cfa8-11ef-96b7-42010aa400b8","name":"Shell Recharge Franse Kampweg 12","address":"Franse Kampweg 12","city":"Bussum","operatorName":"Shell Recharge","maxPowerKw":150,"isMegawatt":false,"status":"AVAILABLE","source":"ndw"}},{"type":"Feature","geometry":{"type":"Point","coordinates":[5.16725,52.279292]},"properties":{"type":"charge","layer":"passenger","locationId":"2d48af0a-2d50-440c-9e95-73ddbb22e7f3","name":"TNLP034008","address":"Vondellaan 21","city":"Bussum","operatorName":"TotalEnergies","maxPowerKw":14,"isMegawatt":false,"status":"CHARGING","source":"ndw"}},{"type":"Feature","geometry":{"type":"Point","coordinates":[5.177721,52.283421]},"properties":{"type":"charge","layer":"passenger","locationId":"bba140ec-9512-11ea-859a-42010a840038","name":"Eneco eMobility Hotel NH Jan Tabak","address":"Amersfoortsestraatweg 27","city":"Bussum","operatorName":"Eneco","maxPowerKw":22,"isMegawatt":false,"status":"AVAILABLE","source":"ndw","priceKwh":0.45}},{"type":"Feature","geometry":{"type":"Point","coordinates":[5.160354,52.271387]},"properties":{"type":"charge","layer":"passenger","locationId":"8815E4EE-47F3-4E90-8A1C-AC37F4D20484","name":"TNLP009538","address":"Bensdorpplein 8","city":"Bussum","operatorName":"TotalEnergies","maxPowerKw":17,"isMegawatt":false,"status":"AVAILABLE","source":"ndw"}},{"type":"Feature","geometry":{"type":"Point","coordinates":[5.145811,52.286832]},"properties":{"type":"charge","layer":"passenger","locationId":"b4b5fffdd4f3365d00c6a0f4bd98c343","name":"Drossaard 1","address":"Drossaard 1","city":"Naarden","operatorName":"Vattenfall InCharge","maxPowerKw":11,"isMegawatt":false,"status":"AVAILABLE","source":"ndw"}},{"type":"Feature","geometry":{"type":"Point","coordinates":[5.16742,52.28361]},"properties":{"type":"charge","layer":"passenger","locationId":"36f01c3a-d546-11ec-96b5-42010a840003","name":"Shell Recharge NL Paulus Potterlaan 7 Naarden","address":"Paulus Potterlaan 7","city":"Naarden","operatorName":"Ubitricity","maxPowerKw":11,"isMegawatt":false,"status":"CHARGING","source":"ndw","priceKwh":0.39}},{"type":"Feature","geometry":{"type":"Point","coordinates":[5.1726,52.26182]},"properties":{"type":"charge","layer":"passenger","locationId":"84e9d3c2-d546-11ec-8dc4-42010a840003","name":"Shell Recharge NL Lange Heul 774 Bussum","address":"Lange Heul 774","city":"Bussum","operatorName":"Ubitricity","maxPowerKw":11,"isMegawatt":false,"status":"AVAILABLE","source":"ndw","priceKwh":0.39}},{"type":"Feature","geometry":{"type":"Point","coordinates":[5.18326,52.27036]},"properties":{"type":"charge","layer":"passenger","locationId":"a4bbfc7a-d546-11ec-a024-42010a840003","name":"Shell Recharge NL Ceintuurbaan 213 Bussum","address":"Ceintuurbaan 213","city":"Bussum","operatorName":"Ubitricity","maxPowerKw":11,"isMegawatt":false,"status":"AVAILABLE","source":"ndw","priceKwh":0.39}},{"type":"Feature","geometry":{"type":"Point","coordinates":[5.171031,52.262394]},"properties":{"type":"charge","layer":"passenger","locationId":"990646E0-943A-4D09-A458-B6C7362DC02E","name":"TNLP007857","address":"Imkerweg 33","city":"Bussum","operatorName":"TotalEnergies","maxPowerKw":17,"isMegawatt":false,"status":"CHARGING","source":"ndw"}},{"type":"Feature","geometry":{"type":"Point","coordinates":[5.123539,52.32508]},"properties":{"type":"charge","layer":"passenger","locationId":"4447d504-db3d-11ee-8dd9-42010aa40fc0","name":"TNLP008431","address":"De Grote Haar 25","city":"Muiderberg","operatorName":"TotalEnergies","maxPowerKw":14,"isMegawatt":false,"status":"AVAILABLE","source":"ndw","priceKwh":0.4}},{"type":"Feature","geometry":{"type":"Point","coordinates":[5.18853,52.27134]},"properties":{"type":"charge","layer":"passenger","locationId":"e8aebee2-6b37-11f0-adec-42010aa400b8","name":"PP005088","address":"Lijsterlaan 62","city":"Bussum","operatorName":"TotalEnergies","maxPowerKw":0,"isMegawatt":false,"status":"AVAILABLE","source":"ndw","priceKwh":0.4}},{"type":"Feature","geometry":{"type":"Point","coordinates":[5.16408,52.2949]},"properties":{"type":"charge","layer":"passenger","locationId":"b6e91ee6-1f08-11eb-891e-42010a840003","name":"Shell Recharge NL Adriaan Dortsmanplein 2 Gooise Meren","address":"Adriaan Dortsmanplein 2","city":"Gooise Meren","operatorName":"Ubitricity","maxPowerKw":11,"isMegawatt":false,"status":"CHARGING","source":"ndw","priceKwh":0.39}},{"type":"Feature","geometry":{"type":"Point","coordinates":[5.063909,52.334801]},"properties":{"type":"charge","layer":"passenger","locationId":"a5b80adc-8219-495e-8037-9bb3051f8aeb","name":"TNLP006250","address":"Rietpolderlaan 8","city":"Muiden","operatorName":"TotalEnergies","maxPowerKw":17,"isMegawatt":false,"status":"CHARGING","source":"ndw"}},{"type":"Feature","geometry":{"type":"Point","coordinates":[5.14631,52.27135]},"properties":{"type":"charge","layer":"passenger","locationId":"617","name":"Shell Recharge NL J.F. Evertslaan 20","address":"J.F. Evertslaan 20","city":"Bussum","operatorName":"Ubitricity","maxPowerKw":11,"isMegawatt":false,"status":"AVAILABLE","source":"ndw","priceKwh":0.388}},{"type":"Feature","geometry":{"type":"Point","coordinates":[5.077946,52.320128]},"properties":{"type":"charge","layer":"passenger","locationId":"b9e68758-a300-11e9-887d-42010a840021","name":"Fastned Honswijck","address":"Honswijck A1","city":"Muiden","operatorName":"Fastned","maxPowerKw":300,"isMegawatt":false,"status":"AVAILABLE","source":"ndw"}},{"type":"Feature","geometry":{"type":"Point","coordinates":[5.061378,52.330399]},"properties":{"type":"charge","layer":"passenger","locationId":"ecdbcfee-a270-11eb-8600-42010a840008","name":"TNLP005895","address":"De Kogge 18","city":"Muiden","operatorName":"TotalEnergies","maxPowerKw":17,"isMegawatt":false,"status":"CHARGING","source":"ndw","priceKwh":0.4}},{"type":"Feature","geometry":{"type":"Point","coordinates":[5.16475,52.29783]},"properties":{"type":"charge","layer":"passenger","locationId":"ab5a7a62-92a4-11e9-bdf0-42010a840fca","name":"Shell Recharge NL Zusterenstraat 25 Naarden","address":"Zusterenstraat 25","city":"Naarden","operatorName":"Ubitricity","maxPowerKw":11,"isMegawatt":false,"status":"AVAILABLE","source":"ndw","priceKwh":0.39}},{"type":"Feature","geometry":{"type":"Point","coordinates":[5.177907,52.263842]},"properties":{"type":"charge","layer":"passenger","locationId":"78734752-3559-4020-BC4F-B59975915537","name":"TNLP007733","address":"Randweg 173","city":"Bussum","operatorName":"TotalEnergies","maxPowerKw":17,"isMegawatt":false,"status":"AVAILABLE","source":"ndw"}},{"type":"Feature","geometry":{"type":"Point","coordinates":[5.161529,52.279758]},"properties":{"type":"charge","layer":"passenger","locationId":"4a081e4c-30a8-11eb-b354-42010a84001b","name":"PP005553","address":"Generaal de la Reijlaan 8","city":"Bussum","operatorName":"TotalEnergies","maxPowerKw":0,"isMegawatt":false,"status":"AVAILABLE","source":"ndw","priceKwh":0.4}},{"type":"Feature","geometry":{"type":"Point","coordinates":[5.18513,52.273118]},"properties":{"type":"charge","layer":"passenger","locationId":"58c5f3fc-0932-11eb-83b2-42010a840011","name":"PP005526","address":"Goudenregenstraat 9","city":"Bussum","operatorName":"TotalEnergies","maxPowerKw":0,"isMegawatt":false,"status":"AVAILABLE","source":"ndw","priceKwh":0.4}},{"type":"Feature","geometry":{"type":"Point","coordinates":[5.159639,52.276393]},"properties":{"type":"charge","layer":"passenger","locationId":"b95c3ade-b128-11f0-b51a-42010aa400b8","name":"TNLP008888","address":"Olmenlaan 159","city":"Bussum","operatorName":"TotalEnergies","maxPowerKw":14,"isMegawatt":false,"status":"CHARGING","source":"ndw","priceKwh":0.4}},{"type":"Feature","geometry":{"type":"Point","coordinates":[5.171052,52.271288]},"properties":{"type":"charge","layer":"passenger","locationId":"40c5609e-8bc4-48bb-93cc-cd37af8ec6c4","name":"TNLP006370","address":"Sint Janslaan 73","city":"Bussum","operatorName":"TotalEnergies","maxPowerKw":17,"isMegawatt":false,"status":"CHARGING","source":"ndw"}},{"type":"Feature","geometry":{"type":"Point","coordinates":[5.14973,52.29896]},"properties":{"type":"charge","layer":"passenger","locationId":"278d301e-4f3c-11e8-947e-42010a840002","name":"Shell Recharge NL Jan Houtmanstraat 2 Naarden","address":"Jan Houtmanstraat 2","city":"Naarden","operatorName":"Ubitricity","maxPowerKw":11,"isMegawatt":false,"status":"AVAILABLE","source":"ndw","priceKwh":0.39}},{"type":"Feature","geometry":{"type":"Point","coordinates":[5.163563,52.267668]},"properties":{"type":"charge","layer":"passenger","locationId":"54055e78-df5e-11ef-aef7-42010aa400b8","name":"Shell Recharge NL De Sparren 12, Bussum","address":"De Sparren 12","city":"Bussum","operatorName":"Ubitricity","maxPowerKw":22,"isMegawatt":false,"status":"AVAILABLE","source":"ndw","priceKwh":0.29}},{"type":"Feature","geometry":{"type":"Point","coordinates":[5.06545,52.32895]},"properties":{"type":"charge","layer":"passenger","locationId":"7d1db2fc-d547-11ec-b1e7-42010a840003","name":"Shell Recharge NL Singelstraat 32 Gooise Meren","address":"Singelstraat 32","city":"Gooise Meren","operatorName":"Ubitricity","maxPowerKw":11,"isMegawatt":false,"status":"AVAILABLE","source":"ndw","priceKwh":0.39}},{"type":"Feature","geometry":{"type":"Point","coordinates":[5.142428,52.306957]},"properties":{"type":"charge","layer":"passenger","locationId":"660c095250b1d2001ca5e44d","name":"Gooimeer 1","address":"Gooimeer 1","city":"Naarden","operatorName":"Greenchoice B.V.","maxPowerKw":22,"isMegawatt":false,"status":"AVAILABLE","source":"ndw","priceKwh":0.61}},{"type":"Feature","geometry":{"type":"Point","coordinates":[5.160079,52.296719]},"properties":{"type":"charge","layer":"passenger","locationId":"3449d443-e8b1-4b5a-8abd-4efef6efffa9","name":"Kooltjesbuurt","address":"Kooltjesbuurt 1","city":"Naarden","operatorName":"Vattenfall InCharge","maxPowerKw":11,"isMegawatt":false,"status":"UNAVAILABLE","source":"ndw"}},{"type":"Feature","geometry":{"type":"Point","coordinates":[5.1425,52.30843]},"properties":{"type":"charge","layer":"passenger","locationId":"ae2df464-4bf2-11ea-8347-42010a840fec","name":"Eneco eMobility Hotel NH Naarden","address":"IJsselmeerweg 3","city":"Naarden","operatorName":"Eneco","maxPowerKw":22,"isMegawatt":false,"status":"AVAILABLE","source":"ndw","priceKwh":0.45}},{"type":"Feature","geometry":{"type":"Point","coordinates":[5.17384,52.28453]},"properties":{"type":"charge","layer":"passenger","locationId":"93a8835c-b1f4-11f0-95e3-42010aa400b8","name":"PP001696","address":"Van Ostadelaan 24","city":"Naarden","operatorName":"TotalEnergies","maxPowerKw":0,"isMegawatt":false,"status":"CHARGING","source":"ndw","priceKwh":0.4}},{"type":"Feature","geometry":{"type":"Point","coordinates":[5.119646,52.323791]},"properties":{"type":"charge","layer":"passenger","locationId":"c70a1d1e-9d18-11eb-affd-42010a84003f","name":"TNLP006150","address":"van der Helstpark 13","city":"Muiderberg","operatorName":"TotalEnergies","maxPowerKw":17,"isMegawatt":false,"status":"CHARGING","source":"ndw","priceKwh":0.4}},{"type":"Feature","geometry":{"type":"Point","coordinates":[5.15556,52.28305]},"properties":{"type":"charge","layer":"passenger","locationId":"d6692834-b1f6-11f0-8410-42010aa400b8","name":"TNLP007837","address":"Binnenhof 37","city":"Naarden","operatorName":"TotalEnergies","maxPowerKw":17,"isMegawatt":false,"status":"CHARGING","source":"ndw","priceKwh":0.4}},{"type":"Feature","geometry":{"type":"Point","coordinates":[5.141043,52.320114]},"properties":{"type":"charge","layer":"passenger","locationId":"3f4c580e-1f59-11ee-98de-42010aa40fc0","name":"Waterfront Naarderbos AC (PowerGo)","address":"IJsselmeerweg 100","city":"Naarden","operatorName":"PowerGo","maxPowerKw":0,"isMegawatt":false,"status":"AVAILABLE","source":"ndw"}},{"type":"Feature","geometry":{"type":"Point","coordinates":[5.1635631,52.2676681]},"properties":{"type":"charge","layer":"passenger","locationId":"1215","name":"Shell Recharge NL De Sparren 12","address":"De Sparren 12","city":"Bussum","operatorName":"Ubitricity","maxPowerKw":22,"isMegawatt":false,"status":"AVAILABLE","source":"ndw","priceKwh":0.266}},{"type":"Feature","geometry":{"type":"Point","coordinates":[5.15698,52.27467]},"properties":{"type":"charge","layer":"passenger","locationId":"07ada384-d546-11ec-b829-42010a840003","name":"Shell Recharge NL Graaf Wichmanlaan 20 Bussum","address":"Graaf Wichmanlaan 20","city":"Bussum","operatorName":"Ubitricity","maxPowerKw":11,"isMegawatt":false,"status":"AVAILABLE","source":"ndw","priceKwh":0.39}},{"type":"Feature","geometry":{"type":"Point","coordinates":[5.156125,52.290153]},"properties":{"type":"charge","layer":"passenger","locationId":"2700128","name":"Laadnet Thuis","address":"Stadhouder Willem II Laan 32","city":"Naarden","operatorName":"Laadnet","maxPowerKw":11,"isMegawatt":false,"status":"UNAVAILABLE","source":"ndw"}},{"type":"Feature","geometry":{"type":"Point","coordinates":[5.1739,52.27284]},"properties":{"type":"charge","layer":"passenger","locationId":"39436bcc-d546-11ec-ade1-42010a840003","name":"Shell Recharge NL Voormeulenweg 39 Bussum","address":"Voormeulenweg 39","city":"Bussum","operatorName":"Ubitricity","maxPowerKw":11,"isMegawatt":false,"status":"AVAILABLE","source":"ndw","priceKwh":0.39}},{"type":"Feature","geometry":{"type":"Point","coordinates":[5.16926,52.26189]},"properties":{"type":"charge","layer":"passenger","locationId":"a64d7cc4-4f3c-11e8-88b6-42010a840002","name":"Shell Recharge NL Lange Heul 181 Gooise Meren","address":"Lange Heul 181","city":"Gooise Meren","operatorName":"Ubitricity","maxPowerKw":11,"isMegawatt":false,"status":"AVAILABLE","source":"ndw","priceKwh":0.39}},{"type":"Feature","geometry":{"type":"Point","coordinates":[5.171819,52.270714]},"properties":{"type":"charge","layer":"passenger","locationId":"db428422-d394-11ef-a231-42010aa400b8","name":"Shell Recharge NL Eendrachtpark 1, Bussum","address":"Eendrachtpark 1","city":"Bussum","operatorName":"Ubitricity","maxPowerKw":22,"isMegawatt":false,"status":"AVAILABLE","source":"ndw","priceKwh":0.29}},{"type":"Feature","geometry":{"type":"Point","coordinates":[5.1238,52.32677]},"properties":{"type":"charge","layer":"passenger","locationId":"ff9b62da-3ad7-11eb-929e-42010a840003","name":"Shell Recharge NL Nienhuis Ruyskade 29 Muiderberg","address":"Nienhuis Ruyskade 29","city":"Muiderberg","operatorName":"Ubitricity","maxPowerKw":11,"isMegawatt":false,"status":"AVAILABLE","source":"ndw","priceKwh":0.39}},{"type":"Feature","geometry":{"type":"Point","coordinates":[5.119646,52.323791]},"properties":{"type":"charge","layer":"passenger","locationId":"ea34e97f-bf9e-4b9a-a9e6-ad0476140c7c","name":"TNLP006150","address":"van der Helstpark 13","city":"Muiderberg","operatorName":"TotalEnergies","maxPowerKw":17,"isMegawatt":false,"status":"AVAILABLE","source":"ndw"}},{"type":"Feature","geometry":{"type":"Point","coordinates":[5.16338,52.276347]},"properties":{"type":"charge","layer":"passenger","locationId":"4cf95592-a30a-11f0-96f5-42010aa400b8","name":"TNLP007592","address":"Wilhelminaplantsoen 101","city":"Bussum","operatorName":"TotalEnergies","maxPowerKw":17,"isMegawatt":false,"status":"CHARGING","source":"ndw","priceKwh":0.4}},{"type":"Feature","geometry":{"type":"Point","coordinates":[5.163712,52.294554]},"properties":{"type":"charge","layer":"passenger","locationId":"bad60194-7639-11f0-8ac5-42010aa400b8","name":"PP005521","address":"Adriaan Dortsmanplein 11","city":"Naarden","operatorName":"TotalEnergies","maxPowerKw":17,"isMegawatt":false,"status":"UNAVAILABLE","source":"ndw","priceKwh":0.4}},{"type":"Feature","geometry":{"type":"Point","coordinates":[5.161384,52.282676]},"properties":{"type":"charge","layer":"passenger","locationId":"99286101-fe34-45ad-a625-8438c85154a6","name":"PP005616","address":"Rostocklaan 25","city":"Bussum","operatorName":"TotalEnergies","maxPowerKw":0,"isMegawatt":false,"status":"AVAILABLE","source":"ndw"}},{"type":"Feature","geometry":{"type":"Point","coordinates":[5.1217712,52.3254031]},"properties":{"type":"charge","layer":"passenger","locationId":"1214","name":"Shell Recharge NL De Lent 2","address":"De Lent 2","city":"Muiderberg","operatorName":"Ubitricity","maxPowerKw":22,"isMegawatt":false,"status":"AVAILABLE","source":"ndw","priceKwh":0.266}},{"type":"Feature","geometry":{"type":"Point","coordinates":[5.1410432,52.3201141]},"properties":{"type":"charge","layer":"passenger","locationId":"43856","name":"Waterfront Naarderbos AC (PowerGo)","address":"IJsselmeerweg 100","city":"Naarden","operatorName":"PowerGo","maxPowerKw":0,"isMegawatt":false,"status":"AVAILABLE","source":"ndw"}},{"type":"Feature","geometry":{"type":"Point","coordinates":[5.176436,52.266257]},"properties":{"type":"charge","layer":"passenger","locationId":"B3D23FB2-73DB-47C0-8AF7-FAF3AEBA81BA","name":"TNLP007858","address":"Jan Bottemastraat 3G","city":"Bussum","operatorName":"TotalEnergies","maxPowerKw":17,"isMegawatt":false,"status":"AVAILABLE","source":"ndw"}},{"type":"Feature","geometry":{"type":"Point","coordinates":[5.16583,52.27937]},"properties":{"type":"charge","layer":"passenger","locationId":"6592fb16-d546-11ec-8181-42010a840003","name":"Shell Recharge NL Vossiuslaan 7 Bussum","address":"Vossiuslaan 7","city":"Bussum","operatorName":"Ubitricity","maxPowerKw":11,"isMegawatt":false,"status":"AVAILABLE","source":"ndw","priceKwh":0.39}},{"type":"Feature","geometry":{"type":"Point","coordinates":[5.1692,52.27524]},"properties":{"type":"charge","layer":"passenger","locationId":"32112adc-6cf9-11e9-a23f-42010a840005","name":"Shell Recharge NL Noorderweg 16 Bussum","address":"Noorderweg 16","city":"Bussum","operatorName":"Ubitricity","maxPowerKw":11,"isMegawatt":false,"status":"AVAILABLE","source":"ndw","priceKwh":0.39}},{"type":"Feature","geometry":{"type":"Point","coordinates":[5.158828,52.29474]},"properties":{"type":"charge","layer":"passenger","locationId":"e37026c6-4005-11f0-bb78-42010aa400b8","name":"Shell Recharge NL Westwalstraat 29, Naarden","address":"Westwalstraat 29","city":"Naarden","operatorName":"Ubitricity","maxPowerKw":22,"isMegawatt":false,"status":"CHARGING","source":"ndw","priceKwh":0.29}},{"type":"Feature","geometry":{"type":"Point","coordinates":[5.083473,52.321486]},"properties":{"type":"charge","layer":"passenger","locationId":"68","name":"Shell Recharge NL2027 - Shell De Hackelaar","address":"A1 E231 NZ","city":"Muiden","operatorName":"Shell Recharge","maxPowerKw":175,"isMegawatt":false,"status":"AVAILABLE","source":"ndw","priceKwh":0.7025}},{"type":"Feature","geometry":{"type":"Point","coordinates":[5.16742,52.28361]},"properties":{"type":"charge","layer":"passenger","locationId":"491","name":"Shell Recharge NL Paulus Potterlaan 7","address":"Paulus Potterlaan 7","city":"Naarden","operatorName":"Ubitricity","maxPowerKw":11,"isMegawatt":false,"status":"AVAILABLE","source":"ndw","priceKwh":0.388}},{"type":"Feature","geometry":{"type":"Point","coordinates":[5.16583,52.27937]},"properties":{"type":"charge","layer":"passenger","locationId":"565","name":"Shell Recharge NL Vossiuslaan 7","address":"Vossiuslaan 7","city":"Bussum","operatorName":"Ubitricity","maxPowerKw":11,"isMegawatt":false,"status":"AVAILABLE","source":"ndw","priceKwh":0.388}},{"type":"Feature","geometry":{"type":"Point","coordinates":[5.07112,52.3308]},"properties":{"type":"charge","layer":"passenger","locationId":"1534","name":"Shell Recharge NL Kazernestraat 14","address":"Kazernestraat 14","city":"Gooise Meren","operatorName":"Ubitricity","maxPowerKw":11,"isMegawatt":false,"status":"CHARGING","source":"ndw","priceKwh":0.388}},{"type":"Feature","geometry":{"type":"Point","coordinates":[5.1739,52.27284]},"properties":{"type":"charge","layer":"passenger","locationId":"497","name":"Shell Recharge NL Voormeulenweg 39","address":"Voormeulenweg 39","city":"Bussum","operatorName":"Ubitricity","maxPowerKw":11,"isMegawatt":false,"status":"CHARGING","source":"ndw","priceKwh":0.388}},{"type":"Feature","geometry":{"type":"Point","coordinates":[5.14099,52.30156]},"properties":{"type":"charge","layer":"passenger","locationId":"564","name":"Shell Recharge NL Jac. P. Thijssepark 85","address":"Jac. P. Thijssepark 85","city":"Naarden","operatorName":"Ubitricity","maxPowerKw":11,"isMegawatt":false,"status":"AVAILABLE","source":"ndw","priceKwh":0.388}},{"type":"Feature","geometry":{"type":"Point","coordinates":[5.16338,52.276347]},"properties":{"type":"charge","layer":"passenger","locationId":"14b583ce-e115-11f0-84fe-42010aa400b8","name":"TNLP007592","address":"Wilhelminaplantsoen 101","city":"Bussum","operatorName":"TotalEnergies","maxPowerKw":17,"isMegawatt":false,"status":"AVAILABLE","source":"ndw","priceKwh":0.39}},{"type":"Feature","geometry":{"type":"Point","coordinates":[5.15556,52.28305]},"properties":{"type":"charge","layer":"passenger","locationId":"fe60dc80-b5e1-11f0-bfc6-42010aa400b8","name":"TNLP007837","address":"Binnenhof 37","city":"Naarden","operatorName":"TotalEnergies","maxPowerKw":17,"isMegawatt":false,"status":"AVAILABLE","source":"ndw","priceKwh":0.39}},{"type":"Feature","geometry":{"type":"Point","coordinates":[5.159639,52.276393]},"properties":{"type":"charge","layer":"passenger","locationId":"79F9A5F5-302B-4C77-B627-13659B0089B5","name":"TNLP008888","address":"Olmenlaan 159","city":"Bussum","operatorName":"TotalEnergies","maxPowerKw":14,"isMegawatt":false,"status":"AVAILABLE","source":"ndw"}},{"type":"Feature","geometry":{"type":"Point","coordinates":[5.1760579,52.2675683]},"properties":{"type":"charge","layer":"passenger","locationId":"1208","name":"Shell Recharge NL Cornelis van den Bergstraat 31","address":"Cornelis van den Bergstraat 31","city":"Bussum","operatorName":"Ubitricity","maxPowerKw":22,"isMegawatt":false,"status":"AVAILABLE","source":"ndw","priceKwh":0.266}},{"type":"Feature","geometry":{"type":"Point","coordinates":[5.171642,52.272891]},"properties":{"type":"charge","layer":"passenger","locationId":"e86b5e64-633b-4677-bf2f-590e5047ee86","name":"TNLP005736","address":"Korte Singel 31","city":"Bussum","operatorName":"TotalEnergies","maxPowerKw":0,"isMegawatt":false,"status":"AVAILABLE","source":"ndw"}},{"type":"Feature","geometry":{"type":"Point","coordinates":[5.147235,52.286028]},"properties":{"type":"charge","layer":"passenger","locationId":"e0f3d198-cbdf-11f0-bef3-42010aa400b8","name":"TNLP006449","address":"Baljuw 63","city":"Naarden","operatorName":"TotalEnergies","maxPowerKw":17,"isMegawatt":false,"status":"AVAILABLE","source":"ndw","priceKwh":0.39}},{"type":"Feature","geometry":{"type":"Point","coordinates":[5.163722,52.27372]},"properties":{"type":"charge","layer":"passenger","locationId":"f3dc693c-c8ba-11f0-89d3-42010aa400b8","name":"TNLP009967","address":"Kerkstraat 1","city":"Bussum","operatorName":"TotalEnergies","maxPowerKw":17,"isMegawatt":false,"status":"AVAILABLE","source":"ndw","priceKwh":0.39}},{"type":"Feature","geometry":{"type":"Point","coordinates":[5.065444,52.330304]},"properties":{"type":"charge","layer":"passenger","locationId":"0fd53590-8f31-11e8-b850-42010a840002","name":"TNLP006328","address":"Weesperweg 2","city":"Muiden","operatorName":"TotalEnergies","maxPowerKw":17,"isMegawatt":false,"status":"AVAILABLE","source":"ndw","priceKwh":0.39}},{"type":"Feature","geometry":{"type":"Point","coordinates":[5.229852,52.304194]},"properties":{"type":"charge","layer":"passenger","locationId":"401204a4-5454-11ec-80c2-42010a84000c","name":"TNLP006854","address":"Grenspad 50","city":"Huizen","operatorName":"TotalEnergies","maxPowerKw":17,"isMegawatt":false,"status":"AVAILABLE","source":"ndw","priceKwh":0.39}},{"type":"Feature","geometry":{"type":"Point","coordinates":[5.173781,52.267884]},"properties":{"type":"charge","layer":"passenger","locationId":"7052c130-cf3e-11eb-8d6b-42010a84003c","name":"TNLP006364","address":"Ceintuurbaan 91","city":"Bussum","operatorName":"TotalEnergies","maxPowerKw":17,"isMegawatt":false,"status":"AVAILABLE","source":"ndw","priceKwh":0.39}},{"type":"Feature","geometry":{"type":"Point","coordinates":[5.147222,52.290774]},"properties":{"type":"charge","layer":"passenger","locationId":"8f6dab64-b2bc-11f0-bdc5-42010aa400b8","name":"TNLP009789","address":"Graaf Willem de Oudelaan 108","city":"Naarden","operatorName":"TotalEnergies","maxPowerKw":17,"isMegawatt":false,"status":"AVAILABLE","source":"ndw","priceKwh":0.39}},{"type":"Feature","geometry":{"type":"Point","coordinates":[5.170751,52.276771]},"properties":{"type":"charge","layer":"passenger","locationId":"9013af92-1e7d-11eb-85f3-42010a840004","name":"PP005607","address":"Marconiweg 41","city":"Bussum","operatorName":"TotalEnergies","maxPowerKw":0,"isMegawatt":false,"status":"AVAILABLE","source":"ndw","priceKwh":0.39}},{"type":"Feature","geometry":{"type":"Point","coordinates":[5.179916,52.264394]},"properties":{"type":"charge","layer":"passenger","locationId":"a1c76ad2-cd76-11f0-b7b3-42010aa400b8","name":"TNLP007574","address":"Karel Doormanlaan 87","city":"Bussum","operatorName":"TotalEnergies","maxPowerKw":17,"isMegawatt":false,"status":"AVAILABLE","source":"ndw","priceKwh":0.39}},{"type":"Feature","geometry":{"type":"Point","coordinates":[5.157325,52.27347]},"properties":{"type":"charge","layer":"passenger","locationId":"cc6ad2d6-d93a-11f0-af7d-42010aa400b8","name":"TNLP006386","address":"Meentweg 11","city":"Bussum","operatorName":"TotalEnergies","maxPowerKw":17,"isMegawatt":false,"status":"AVAILABLE","source":"ndw","priceKwh":0.39}},{"type":"Feature","geometry":{"type":"Point","coordinates":[5.171031,52.262394]},"properties":{"type":"charge","layer":"passenger","locationId":"e8ea8ccc-bf53-11f0-8f59-42010aa400b8","name":"TNLP007857","address":"Imkerweg 33","city":"Bussum","operatorName":"TotalEnergies","maxPowerKw":17,"isMegawatt":false,"status":"AVAILABLE","source":"ndw","priceKwh":0.39}},{"type":"Feature","geometry":{"type":"Point","coordinates":[5.15072,52.288469]},"properties":{"type":"charge","layer":"passenger","locationId":"2b91a6ee-d095-11f0-8f56-42010aa400b8","name":"TNLP015320","address":"Juliana van Stolberglaan 114","city":"Naarden","operatorName":"TotalEnergies","maxPowerKw":17,"isMegawatt":false,"status":"AVAILABLE","source":"ndw","priceKwh":0.39}},{"type":"Feature","geometry":{"type":"Point","coordinates":[5.182235,52.270931]},"properties":{"type":"charge","layer":"passenger","locationId":"4563b036-c8bf-11f0-b338-42010aa400b8","name":"TNLP034092","address":"Papaverstraat 15","city":"Bussum","operatorName":"TotalEnergies","maxPowerKw":14,"isMegawatt":false,"status":"AVAILABLE","source":"ndw","priceKwh":0.3}},{"type":"Feature","geometry":{"type":"Point","coordinates":[5.063909,52.334801]},"properties":{"type":"charge","layer":"passenger","locationId":"ab266bd0-dfc0-11eb-a0c4-42010a840043","name":"TNLP006250","address":"Rietpolderlaan 8","city":"Muiden","operatorName":"TotalEnergies","maxPowerKw":17,"isMegawatt":false,"status":"AVAILABLE","source":"ndw","priceKwh":0.39}},{"type":"Feature","geometry":{"type":"Point","coordinates":[5.024983,52.333913]},"properties":{"type":"charge","layer":"passenger","locationId":"e15616ae-d9f0-11f0-890e-42010aa400b8","name":"Eneco eMobility Albert Heijn - Pampusweg 26","address":"Pampusweg 26","city":"Muiden","operatorName":"Eneco","maxPowerKw":150,"isMegawatt":false,"status":"AVAILABLE","source":"ndw","priceKwh":0.62}},{"type":"Feature","geometry":{"type":"Point","coordinates":[5.16166,52.28548]},"properties":{"type":"charge","layer":"passenger","locationId":"607","name":"Shell Recharge NL Lambertus Hortensiuslaan 16","address":"Lambertus Hortensiuslaan 16","city":"Naarden","operatorName":"Ubitricity","maxPowerKw":11,"isMegawatt":false,"status":"AVAILABLE","source":"ndw","priceKwh":0.388}},{"type":"Feature","geometry":{"type":"Point","coordinates":[5.169877,52.265644]},"properties":{"type":"charge","layer":"passenger","locationId":"aae1e78db4bb7ff66fd53ab264b14056","name":"Laarderweg 145","address":"Laarderweg 145","city":"Bussum","operatorName":"Vattenfall InCharge","maxPowerKw":11,"isMegawatt":false,"status":"CHARGING","source":"ndw"}},{"type":"Feature","geometry":{"type":"Point","coordinates":[5.14631,52.27135]},"properties":{"type":"charge","layer":"passenger","locationId":"88fc820c-d546-11ec-a59d-42010a840003","name":"Shell Recharge NL J.F. Evertslaan 20 Bussum","address":"J.F. Evertslaan 20","city":"Bussum","operatorName":"Ubitricity","maxPowerKw":11,"isMegawatt":false,"status":"AVAILABLE","source":"ndw","priceKwh":0.39}},{"type":"Feature","geometry":{"type":"Point","coordinates":[5.18012,52.27269]},"properties":{"type":"charge","layer":"passenger","locationId":"b8c02fb0-3e91-11e9-8179-42010a840fe9","name":"Shell Recharge NL J.H. van 't Hoffweg 26 Bussum","address":"J.H. van 't Hoffweg 26","city":"Bussum","operatorName":"Ubitricity","maxPowerKw":11,"isMegawatt":false,"status":"AVAILABLE","source":"ndw","priceKwh":0.39}},{"type":"Feature","geometry":{"type":"Point","coordinates":[5.17879,52.26525]},"properties":{"type":"charge","layer":"passenger","locationId":"db4871aa-2497-11e9-ab11-42010a840fde","name":"Shell Recharge NL Karel Doormanlaan 65 Bussum","address":"Karel Doormanlaan 65","city":"Bussum","operatorName":"Ubitricity","maxPowerKw":11,"isMegawatt":false,"status":"AVAILABLE","source":"ndw","priceKwh":0.39}},{"type":"Feature","geometry":{"type":"Point","coordinates":[5.180765,52.264835]},"properties":{"type":"charge","layer":"passenger","locationId":"ddd561df-bfb9-4c21-880e-e07930b2a940","name":"TNLP034317","address":"Randweg 201","city":"Bussum","operatorName":"TotalEnergies","maxPowerKw":14,"isMegawatt":false,"status":"AVAILABLE","source":"ndw"}},{"type":"Feature","geometry":{"type":"Point","coordinates":[5.193861,52.269393]},"properties":{"type":"charge","layer":"passenger","locationId":"089b4b5ec56b4623b610282006f4d3bd","name":"Bouwlocatie NicodeBont - Bussum","address":"Jo Muurlingplaats 1","city":"Bussum","operatorName":"NRG Mobility","maxPowerKw":11,"isMegawatt":false,"status":"AVAILABLE","source":"ndw","priceKwh":0.6}},{"type":"Feature","geometry":{"type":"Point","coordinates":[5.183497,52.292028]},"properties":{"type":"charge","layer":"passenger","locationId":"291bd1fc557442bf93b8933c0bb88e3d","name":"Naarden - Greenfield Management","address":"Huizerstraatweg 111","city":"Naarden","operatorName":"Opcharge","maxPowerKw":22,"isMegawatt":false,"status":"AVAILABLE","source":"ndw","priceKwh":0.49}},{"type":"Feature","geometry":{"type":"Point","coordinates":[5.161529,52.279758]},"properties":{"type":"charge","layer":"passenger","locationId":"5e22f55e-b9d4-11f0-9734-42010aa400b8","name":"PP005553","address":"Generaal de la Reijlaan 8","city":"Bussum","operatorName":"TotalEnergies","maxPowerKw":0,"isMegawatt":false,"status":"AVAILABLE","source":"ndw","priceKwh":0.39}},{"type":"Feature","geometry":{"type":"Point","coordinates":[5.168201,52.265829]},"properties":{"type":"charge","layer":"passenger","locationId":"ca1b80fa-bdc1-11f0-ab31-42010aa400b8","name":"TNLP008610","address":"Lange Heul 57","city":"Bussum","operatorName":"TotalEnergies","maxPowerKw":14,"isMegawatt":false,"status":"AVAILABLE","source":"ndw","priceKwh":0.39}},{"type":"Feature","geometry":{"type":"Point","coordinates":[5.176671,52.275642]},"properties":{"type":"charge","layer":"passenger","locationId":"fd73ceb2-d54f-11f0-83f5-42010aa400b8","name":"TNLP008476","address":"Bisonstraat 4a","city":"Bussum","operatorName":"TotalEnergies","maxPowerKw":14,"isMegawatt":false,"status":"AVAILABLE","source":"ndw","priceKwh":0.39}},{"type":"Feature","geometry":{"type":"Point","coordinates":[5.161991,52.269841]},"properties":{"type":"charge","layer":"passenger","locationId":"4208925","name":"Laadnet Veiligheidsregio Laadpalen Bussum","address":"Brinklaan 140","city":"Bussum","operatorName":"Laadnet","maxPowerKw":22,"isMegawatt":false,"status":"AVAILABLE","source":"ndw"}},{"type":"Feature","geometry":{"type":"Point","coordinates":[5.064927,52.333231]},"properties":{"type":"charge","layer":"passenger","locationId":"4B7EAF60-6246-47E0-9D18-BE73E378177E","name":"TNLP009548","address":"De Stelling 2a","city":"Muiden","operatorName":"TotalEnergies","maxPowerKw":17,"isMegawatt":false,"status":"AVAILABLE","source":"ndw"}},{"type":"Feature","geometry":{"type":"Point","coordinates":[5.14885,52.28321]},"properties":{"type":"charge","layer":"passenger","locationId":"03365652-99b1-11ea-885a-42010a840fe5","name":"PP005227","address":"Van Tienhovenlaan 1","city":"Naarden","operatorName":"TotalEnergies","maxPowerKw":0,"isMegawatt":false,"status":"CHARGING","source":"ndw","priceKwh":0.4}},{"type":"Feature","geometry":{"type":"Point","coordinates":[5.172463,52.273332]},"properties":{"type":"charge","layer":"passenger","locationId":"edca7fda-b12b-11f0-9161-42010aa400b8","name":"TNLP006640","address":"Batterijlaan 18","city":"Bussum","operatorName":"TotalEnergies","maxPowerKw":17,"isMegawatt":false,"status":"AVAILABLE","source":"ndw","priceKwh":0.4}},{"type":"Feature","geometry":{"type":"Point","coordinates":[5.16237,52.27134]},"properties":{"type":"charge","layer":"passenger","locationId":"657","name":"Shell Recharge NL Brinklaan 134","address":"Brinklaan 134","city":"Bussum","operatorName":"Ubitricity","maxPowerKw":11,"isMegawatt":false,"status":"CHARGING","source":"ndw","priceKwh":0.388}},{"type":"Feature","geometry":{"type":"Point","coordinates":[5.170756,52.289019]},"properties":{"type":"charge","layer":"passenger","locationId":"73C36410-FBD5-4357-97BA-6BF437579609","name":"Eneco eMobility Albert Heijn - Amersfoortsestraatweg 3 A","address":"Amersfoortsestraatweg 3 A","city":"Naarden","operatorName":"Eneco","maxPowerKw":150,"isMegawatt":false,"status":"AVAILABLE","source":"ndw","priceKwh":0.62}},{"type":"Feature","geometry":{"type":"Point","coordinates":[5.14819,52.28155]},"properties":{"type":"charge","layer":"passenger","locationId":"943dd104-a6cb-11e9-9eb3-42010a840fd1","name":"Shell Recharge NL Kuyperlaan 46 Naarden","address":"Kuyperlaan 46","city":"Naarden","operatorName":"Ubitricity","maxPowerKw":11,"isMegawatt":false,"status":"AVAILABLE","source":"ndw","priceKwh":0.39}},{"type":"Feature","geometry":{"type":"Point","coordinates":[5.16337,52.28151]},"properties":{"type":"charge","layer":"passenger","locationId":"b58ab908-d06f-11e9-862a-42010a840fdc","name":"Shell Recharge NL Vaartweg 36 Bussum","address":"Vaartweg 36","city":"Bussum","operatorName":"Ubitricity","maxPowerKw":11,"isMegawatt":false,"status":"AVAILABLE","source":"ndw","priceKwh":0.39}},{"type":"Feature","geometry":{"type":"Point","coordinates":[5.063446,52.330143]},"properties":{"type":"charge","layer":"passenger","locationId":"d7a35ac0-ca26-11ef-852c-42010aa400b8","name":"Shell Recharge NL de Fluit 8, Muiden","address":"de Fluit 8","city":"Muiden","operatorName":"Ubitricity","maxPowerKw":22,"isMegawatt":false,"status":"AVAILABLE","source":"ndw","priceKwh":0.29}},{"type":"Feature","geometry":{"type":"Point","coordinates":[5.081945,52.322792]},"properties":{"type":"charge","layer":"passenger","locationId":"4fdf1e5c-b0ce-11ee-afd8-42010aa40fc0","name":"bp pulse De Bolder","address":"Rijksweg A1 5","city":"Holten","operatorName":"bp pulse","maxPowerKw":150,"isMegawatt":false,"status":"AVAILABLE","source":"ndw","priceKwh":0.7}},{"type":"Feature","geometry":{"type":"Point","coordinates":[5.163467,52.277263]},"properties":{"type":"charge","layer":"passenger","locationId":"06f3eaa8-b381-11f0-b931-42010aa400b8","name":"TNLP006738","address":"Nieuwe Raadhuisstraat 8","city":"Bussum","operatorName":"TotalEnergies","maxPowerKw":17,"isMegawatt":false,"status":"AVAILABLE","source":"ndw","priceKwh":0.4}},{"type":"Feature","geometry":{"type":"Point","coordinates":[5.175976,52.263049]},"properties":{"type":"charge","layer":"passenger","locationId":"4ca67386-e0bf-11ee-8363-42010aa400b8","name":"TNLP008909","address":"Randweg 147","city":"Bussum","operatorName":"TotalEnergies","maxPowerKw":14,"isMegawatt":false,"status":"CHARGING","source":"ndw","priceKwh":0.4}},{"type":"Feature","geometry":{"type":"Point","coordinates":[5.16338,52.276347]},"properties":{"type":"charge","layer":"passenger","locationId":"BFFE57BA-8955-4064-A193-D3B6B23D74CC","name":"TNLP007592","address":"Wilhelminaplantsoen 101","city":"Bussum","operatorName":"TotalEnergies","maxPowerKw":17,"isMegawatt":false,"status":"AVAILABLE","source":"ndw"}},{"type":"Feature","geometry":{"type":"Point","coordinates":[5.123456,52.323199]},"properties":{"type":"charge","layer":"passenger","locationId":"A4FCCCF5-DFFB-4F62-B54A-78408094CCF7","name":"TNLP008039","address":"Watersnip 6","city":"Muiderberg","operatorName":"TotalEnergies","maxPowerKw":17,"isMegawatt":false,"status":"AVAILABLE","source":"ndw"}},{"type":"Feature","geometry":{"type":"Point","coordinates":[5.15682,52.28551]},"properties":{"type":"charge","layer":"passenger","locationId":"382","name":"Shell Recharge NL Graaf Janlaan 38","address":"Graaf Janlaan 38","city":"Naarden","operatorName":"Ubitricity","maxPowerKw":11,"isMegawatt":false,"status":"CHARGING","source":"ndw","priceKwh":0.388}},{"type":"Feature","geometry":{"type":"Point","coordinates":[5.142412,52.29198]},"properties":{"type":"charge","layer":"passenger","locationId":"6933ee4f25a7abb33c19c4b8","name":"Gooi en Vechtstreek 64101 - Parkeerplaats Stadzigt nr 1","address":"Meerkade 2","city":"Naarden","operatorName":"E-Flux by Road","maxPowerKw":11,"isMegawatt":false,"status":"AVAILABLE","source":"ndw","priceKwh":0.43}},{"type":"Feature","geometry":{"type":"Point","coordinates":[5.162315,52.271333]},"properties":{"type":"charge","layer":"passenger","locationId":"3543053","name":"Laadnet Sectie 5 Vastgoed","address":"Brinklaan 134","city":"Bussum","operatorName":"Laadnet","maxPowerKw":22,"isMegawatt":false,"status":"AVAILABLE","source":"ndw"}},{"type":"Feature","geometry":{"type":"Point","coordinates":[5.14099,52.30156]},"properties":{"type":"charge","layer":"passenger","locationId":"646e17de-d546-11ec-90e5-42010a840003","name":"Shell Recharge NL Jac. P. Thijssepark 85 Naarden","address":"Jac. P. Thijssepark 85","city":"Naarden","operatorName":"Ubitricity","maxPowerKw":11,"isMegawatt":false,"status":"AVAILABLE","source":"ndw","priceKwh":0.39}},{"type":"Feature","geometry":{"type":"Point","coordinates":[5.17664,52.276]},"properties":{"type":"charge","layer":"passenger","locationId":"28a346f5-191f-47f0-addc-793b274725d8","name":"PP004342","address":"Bisonstraat 1","city":"Bussum","operatorName":"TotalEnergies","maxPowerKw":0,"isMegawatt":false,"status":"CHARGING","source":"ndw"}},{"type":"Feature","geometry":{"type":"Point","coordinates":[5.15037,52.2908]},"properties":{"type":"charge","layer":"passenger","locationId":"6e1fe1be-a6cc-11e9-828d-42010a840fd1","name":"Shell Recharge NL Prinses Irenehof 2 Naarden","address":"Prinses Irenehof 2","city":"Naarden","operatorName":"Ubitricity","maxPowerKw":11,"isMegawatt":false,"status":"AVAILABLE","source":"ndw","priceKwh":0.39}},{"type":"Feature","geometry":{"type":"Point","coordinates":[5.17308,52.269514]},"properties":{"type":"charge","layer":"passenger","locationId":"8638ff10-642b-11f0-8171-42010aa400b8","name":"Shell Recharge NL Sint Janslaan 131 Bussum","address":"Sint Janslaan 131","city":"Bussum","operatorName":"Ubitricity","maxPowerKw":22,"isMegawatt":false,"status":"AVAILABLE","source":"ndw","priceKwh":0.29}},{"type":"Feature","geometry":{"type":"Point","coordinates":[5.16354,52.27224]},"properties":{"type":"charge","layer":"passenger","locationId":"b25a0996ba8346c3998c4980b2bf1e5e","name":"Bussem Aim4 ","address":"Brinklaan 121","city":"Bussum","operatorName":"Opcharge","maxPowerKw":22,"isMegawatt":false,"status":"AVAILABLE","source":"ndw","priceKwh":0.49}},{"type":"Feature","geometry":{"type":"Point","coordinates":[5.161767,52.270408]},"properties":{"type":"charge","layer":"passenger","locationId":"7361c860-fc35-11ec-8d17-42010aa4000d","name":"Eneco eMobility Burgemeester de Bordesstraat 80 Bussum","address":"Burgemeester de Bordesstraat 80","city":"Bussum","operatorName":"Eneco","maxPowerKw":0,"isMegawatt":false,"status":"AVAILABLE","source":"ndw","priceKwh":0.32}},{"type":"Feature","geometry":{"type":"Point","coordinates":[5.148364,52.287702]},"properties":{"type":"charge","layer":"passenger","locationId":"476e677a-a43b-11eb-afd6-42010a840009","name":"TNLP005893","address":"Schout 149","city":"Naarden","operatorName":"TotalEnergies","maxPowerKw":17,"isMegawatt":false,"status":"AVAILABLE","source":"ndw","priceKwh":0.4}},{"type":"Feature","geometry":{"type":"Point","coordinates":[5.1562,52.26614]},"properties":{"type":"charge","layer":"passenger","locationId":"5959441c-d547-11ec-82ad-42010a840003","name":"Shell Recharge NL Struikheiweg 14 Gooise Meren","address":"Struikheiweg 14","city":"Gooise Meren","operatorName":"Ubitricity","maxPowerKw":11,"isMegawatt":false,"status":"CHARGING","source":"ndw","priceKwh":0.39}},{"type":"Feature","geometry":{"type":"Point","coordinates":[5.187988,52.273559]},"properties":{"type":"charge","layer":"passenger","locationId":"8f3c5684-05df-11f0-b5e4-42010aa400b8","name":"Shell Recharge NL Lothariuslaan 82, Bussum","address":"Lothariuslaan 82","city":"Bussum","operatorName":"Ubitricity","maxPowerKw":22,"isMegawatt":false,"status":"AVAILABLE","source":"ndw","priceKwh":0.29}},{"type":"Feature","geometry":{"type":"Point","coordinates":[5.16237,52.27134]},"properties":{"type":"charge","layer":"passenger","locationId":"9d790df4-d546-11ec-884d-42010a840003","name":"Shell Recharge NL Brinklaan 134 Bussum","address":"Brinklaan 134","city":"Bussum","operatorName":"Ubitricity","maxPowerKw":11,"isMegawatt":false,"status":"CHARGING","source":"ndw","priceKwh":0.39}},{"type":"Feature","geometry":{"type":"Point","coordinates":[5.15745,52.28395]},"properties":{"type":"charge","layer":"passenger","locationId":"a2983772-4f3c-11e8-9ce7-42010a840002","name":"Shell Recharge NL Pater Wijnterlaan 41 Gooise Meren","address":"Pater Wijnterlaan 41","city":"Gooise Meren","operatorName":"Ubitricity","maxPowerKw":11,"isMegawatt":false,"status":"AVAILABLE","source":"ndw","priceKwh":0.39}},{"type":"Feature","geometry":{"type":"Point","coordinates":[5.07112,52.3308]},"properties":{"type":"charge","layer":"passenger","locationId":"a3f41e7e-4f3c-11e8-abe8-42010a840002","name":"Shell Recharge NL Kazernestraat 14 Gooise Meren","address":"Kazernestraat 14","city":"Gooise Meren","operatorName":"Ubitricity","maxPowerKw":11,"isMegawatt":false,"status":"AVAILABLE","source":"ndw","priceKwh":0.39}},{"type":"Feature","geometry":{"type":"Point","coordinates":[5.169533,52.274484]},"properties":{"type":"charge","layer":"passenger","locationId":"50ecf33c-5804-11ee-b3f4-42010aa40fc0","name":"TNLP008890","address":"Noorderweg 1","city":"Bussum","operatorName":"TotalEnergies","maxPowerKw":14,"isMegawatt":false,"status":"AVAILABLE","source":"ndw","priceKwh":0.39}},{"type":"Feature","geometry":{"type":"Point","coordinates":[5.182275,52.274264]},"properties":{"type":"charge","layer":"passenger","locationId":"61920de8-66c2-11eb-9432-42010a84006c","name":"TNLP005787","address":"Godelindedwarsstraat 34","city":"Bussum","operatorName":"TotalEnergies","maxPowerKw":0,"isMegawatt":false,"status":"AVAILABLE","source":"ndw","priceKwh":0.39}},{"type":"Feature","geometry":{"type":"Point","coordinates":[5.162711,52.278809]},"properties":{"type":"charge","layer":"passenger","locationId":"87ef85a4-b74a-11ec-a2e5-42010a840011","name":"TNLP007027","address":"Nieuwe Englaan 2","city":"Bussum","operatorName":"TotalEnergies","maxPowerKw":17,"isMegawatt":false,"status":"CHARGING","source":"ndw","priceKwh":0.39}},{"type":"Feature","geometry":{"type":"Point","coordinates":[5.14741,52.297677]},"properties":{"type":"charge","layer":"passenger","locationId":"acd10872-8f81-11ea-ba71-42010a840020","name":"PP005150","address":"E. de Bruynstraat 5","city":"Naarden","operatorName":"TotalEnergies","maxPowerKw":0,"isMegawatt":false,"status":"AVAILABLE","source":"ndw","priceKwh":0.39}},{"type":"Feature","geometry":{"type":"Point","coordinates":[5.15505,52.285761]},"properties":{"type":"charge","layer":"passenger","locationId":"fd116344-2dc0-11eb-8a26-42010a84002a","name":"PP005566","address":"Juliana van Stolberglaan 48","city":"Naarden","operatorName":"TotalEnergies","maxPowerKw":0,"isMegawatt":false,"status":"AVAILABLE","source":"ndw","priceKwh":0.39}},{"type":"Feature","geometry":{"type":"Point","coordinates":[5.156074,52.281015]},"properties":{"type":"charge","layer":"passenger","locationId":"44bbad30-67bb-11ee-82f0-42010aa40fc0","name":"TNLP008818","address":"Parallelweg 3","city":"Bussum","operatorName":"TotalEnergies","maxPowerKw":14,"isMegawatt":false,"status":"AVAILABLE","source":"ndw","priceKwh":0.39}},{"type":"Feature","geometry":{"type":"Point","coordinates":[5.174047,52.28021]},"properties":{"type":"charge","layer":"passenger","locationId":"d07e7bf8-760e-11ed-8074-42010aa40022","name":"TNLP007702","address":"Burgemeester s'Jacoblaan 15","city":"Bussum","operatorName":"TotalEnergies","maxPowerKw":17,"isMegawatt":false,"status":"AVAILABLE","source":"ndw","priceKwh":0.39}},{"type":"Feature","geometry":{"type":"Point","coordinates":[5.111286,52.326311]},"properties":{"type":"charge","layer":"passenger","locationId":"4208926","name":"Laadnet Veiligheidsregio Laadpalen Muiderberg","address":"Echolaan 1","city":"Muiderberg","operatorName":"Laadnet","maxPowerKw":11,"isMegawatt":false,"status":"AVAILABLE","source":"ndw"}},{"type":"Feature","geometry":{"type":"Point","coordinates":[5.150681,52.285693]},"properties":{"type":"charge","layer":"passenger","locationId":"97bf00e3-e9ea-49a0-8ec0-25c117a58177","name":"TNLP006452","address":"Heemskerklaan 56","city":"Naarden","operatorName":"TotalEnergies","maxPowerKw":17,"isMegawatt":false,"status":"AVAILABLE","source":"ndw"}},{"type":"Feature","geometry":{"type":"Point","coordinates":[5.1238,52.32677]},"properties":{"type":"charge","layer":"passenger","locationId":"529","name":"Shell Recharge NL Nienhuis Ruyskade 29","address":"Nienhuis Ruyskade 29","city":"Muiderberg","operatorName":"Ubitricity","maxPowerKw":11,"isMegawatt":false,"status":"CHARGING","source":"ndw","priceKwh":0.388}},{"type":"Feature","geometry":{"type":"Point","coordinates":[5.15098,52.290022]},"properties":{"type":"charge","layer":"passenger","locationId":"OST22P0016_0045_0","name":"OST22P0016_0045_0","address":"Koningin Wilhelminalaan 31","city":"Naarden","operatorName":"e-VOLTT","maxPowerKw":0,"isMegawatt":false,"status":"AVAILABLE","source":"ndw","priceKwh":0.537}},{"type":"Feature","geometry":{"type":"Point","coordinates":[5.071331,52.332939]},"properties":{"type":"charge","layer":"passenger","locationId":"41bc6630-ccac-11f0-807a-42010aa400b8","name":"TNLP009971","address":"Herengracht 3","city":"Muiden","operatorName":"TotalEnergies","maxPowerKw":17,"isMegawatt":false,"status":"AVAILABLE","source":"ndw","priceKwh":0.39}},{"type":"Feature","geometry":{"type":"Point","coordinates":[5.123539,52.32508]},"properties":{"type":"charge","layer":"passenger","locationId":"60e9aad8-b5e4-11f0-866a-42010aa400b8","name":"TNLP008431","address":"De Grote Haar 25","city":"Muiderberg","operatorName":"TotalEnergies","maxPowerKw":14,"isMegawatt":false,"status":"AVAILABLE","source":"ndw","priceKwh":0.39}},{"type":"Feature","geometry":{"type":"Point","coordinates":[5.171961,52.288251]},"properties":{"type":"charge","layer":"passenger","locationId":"9fd479f9-7992-4339-803b-0f4432433246","name":"TNLP006519","address":"Amersfoortsestraatweg 3 A","city":"Naarden","operatorName":"TotalEnergies","maxPowerKw":17,"isMegawatt":false,"status":"AVAILABLE","source":"ndw"}},{"type":"Feature","geometry":{"type":"Point","coordinates":[5.181079,52.276041]},"properties":{"type":"charge","layer":"passenger","locationId":"a4ccd2da-3a87-4a64-97de-70d49552eead","name":"TNLP034020","address":"K.P.C. de Bazelstraat 50","city":"Bussum","operatorName":"TotalEnergies","maxPowerKw":14,"isMegawatt":false,"status":"AVAILABLE","source":"ndw"}},{"type":"Feature","geometry":{"type":"Point","coordinates":[5.1692,52.27524]},"properties":{"type":"charge","layer":"passenger","locationId":"496","name":"Shell Recharge NL Noorderweg 16","address":"Noorderweg 16","city":"Bussum","operatorName":"Ubitricity","maxPowerKw":11,"isMegawatt":false,"status":"AVAILABLE","source":"ndw","priceKwh":0.388}},{"type":"Feature","geometry":{"type":"Point","coordinates":[5.1758254,52.2690054]},"properties":{"type":"charge","layer":"passenger","locationId":"1219","name":"Shell Recharge NL Doctor Abraham Kuyperlaan 62","address":"Doctor Abraham Kuyperlaan 62","city":"Bussum","operatorName":"Ubitricity","maxPowerKw":22,"isMegawatt":false,"status":"CHARGING","source":"ndw","priceKwh":0.266}},{"type":"Feature","geometry":{"type":"Point","coordinates":[5.14455,52.302166]},"properties":{"type":"charge","layer":"passenger","locationId":"1d7a31c4-b2be-11f0-969c-42010aa400b8","name":"TNLP007305","address":"Nesciohof 80","city":"Naarden","operatorName":"TotalEnergies","maxPowerKw":17,"isMegawatt":false,"status":"AVAILABLE","source":"ndw","priceKwh":0.39}},{"type":"Feature","geometry":{"type":"Point","coordinates":[5.149378,52.279393]},"properties":{"type":"charge","layer":"passenger","locationId":"9fe5ae34-c6f0-11ed-875f-42010aa4003c","name":"TNLP007703","address":"Prins Mauritslaan 16","city":"Bussum","operatorName":"TotalEnergies","maxPowerKw":17,"isMegawatt":false,"status":"AVAILABLE","source":"ndw","priceKwh":0.39}},{"type":"Feature","geometry":{"type":"Point","coordinates":[5.157007,52.27289]},"properties":{"type":"charge","layer":"passenger","locationId":"a4887cb4-c53c-11ee-b4f8-42010aa40fc0","name":"TNLP009947","address":"Herenstraat 93","city":"Bussum","operatorName":"TotalEnergies","maxPowerKw":17,"isMegawatt":false,"status":"AVAILABLE","source":"ndw","priceKwh":0.39}},{"type":"Feature","geometry":{"type":"Point","coordinates":[5.18853,52.27134]},"properties":{"type":"charge","layer":"passenger","locationId":"afb74de4-c7f2-11f0-b091-42010aa400b8","name":"PP005088","address":"Lijsterlaan 62","city":"Bussum","operatorName":"TotalEnergies","maxPowerKw":0,"isMegawatt":false,"status":"AVAILABLE","source":"ndw","priceKwh":0.39}},{"type":"Feature","geometry":{"type":"Point","coordinates":[5.176529,52.27455]},"properties":{"type":"charge","layer":"passenger","locationId":"cb89c99a-8461-11f0-bc56-42010aa400b8","name":"TNLP008165","address":"Wisentstraat 40","city":"Bussum","operatorName":"TotalEnergies","maxPowerKw":17,"isMegawatt":false,"status":"AVAILABLE","source":"ndw","priceKwh":0.39}},{"type":"Feature","geometry":{"type":"Point","coordinates":[5.172463,52.273332]},"properties":{"type":"charge","layer":"passenger","locationId":"feabeec2-c33e-11f0-8fd0-42010aa400b8","name":"TNLP006640","address":"Batterijlaan 18","city":"Bussum","operatorName":"TotalEnergies","maxPowerKw":17,"isMegawatt":false,"status":"AVAILABLE","source":"ndw","priceKwh":0.39}},{"type":"Feature","geometry":{"type":"Point","coordinates":[5.16475,52.29783]},"properties":{"type":"charge","layer":"passenger","locationId":"593","name":"Shell Recharge NL Zusterenstraat 25","address":"Zusterenstraat 25","city":"Naarden","operatorName":"Ubitricity","maxPowerKw":11,"isMegawatt":false,"status":"CHARGING","source":"ndw","priceKwh":0.388}},{"type":"Feature","geometry":{"type":"Point","coordinates":[5.058571,52.332921]},"properties":{"type":"charge","layer":"passenger","locationId":"66e7ddc29dd3a4001c043db7","name":"Vloto laadpaal kruitmolen 47","address":"Kruitmolen 47","city":"Muiden","operatorName":"E-Flux by Road","maxPowerKw":14,"isMegawatt":false,"status":"AVAILABLE","source":"ndw","priceKwh":0.34}},{"type":"Feature","geometry":{"type":"Point","coordinates":[5.152234,52.301943]},"properties":{"type":"charge","layer":"passenger","locationId":"7AFB3561-560E-4CF8-BDA7-F93B7EB232BE","name":"TNLP007754","address":"Kobaltstraat 2","city":"Naarden","operatorName":"TotalEnergies","maxPowerKw":17,"isMegawatt":false,"status":"AVAILABLE","source":"ndw"}},{"type":"Feature","geometry":{"type":"Point","coordinates":[5.151801,52.297211]},"properties":{"type":"charge","layer":"passenger","locationId":"92ec4bd6-78aa-481e-b8ad-ff167b1a1e97","name":"PP005551","address":"Meerstraat 36","city":"Naarden","operatorName":"TotalEnergies","maxPowerKw":0,"isMegawatt":false,"status":"AVAILABLE","source":"ndw"}},{"type":"Feature","geometry":{"type":"Point","coordinates":[5.17288,52.27528]},"properties":{"type":"charge","layer":"passenger","locationId":"05a3e1aa-d548-11ec-8817-42010a840003","name":"PP004277","address":"Doctor Frederik Van Eedenweg 1","city":"Bussum","operatorName":"TotalEnergies","maxPowerKw":0,"isMegawatt":false,"status":"AVAILABLE","source":"ndw","priceKwh":0.39}},{"type":"Feature","geometry":{"type":"Point","coordinates":[5.172023,52.263341]},"properties":{"type":"charge","layer":"passenger","locationId":"1793f5fe-d485-11f0-9510-42010aa400b8","name":"PP005020","address":"Laarderweg 211","city":"Bussum","operatorName":"TotalEnergies","maxPowerKw":0,"isMegawatt":false,"status":"AVAILABLE","source":"ndw","priceKwh":0.39}},{"type":"Feature","geometry":{"type":"Point","coordinates":[5.176454,52.286994]},"properties":{"type":"charge","layer":"passenger","locationId":"4ac59da8-379d-11ec-9213-42010a840003","name":"TNLP006715","address":"Chopinlaan 1","city":"Naarden","operatorName":"TotalEnergies","maxPowerKw":17,"isMegawatt":false,"status":"AVAILABLE","source":"ndw","priceKwh":0.39}},{"type":"Feature","geometry":{"type":"Point","coordinates":[5.177175,52.273163]},"properties":{"type":"charge","layer":"passenger","locationId":"67eebbcc-ce38-11f0-bf2f-42010aa400b8","name":"PP005474","address":"F.C. Dondersstraat 2","city":"Bussum","operatorName":"TotalEnergies","maxPowerKw":0,"isMegawatt":false,"status":"AVAILABLE","source":"ndw","priceKwh":0.39}},{"type":"Feature","geometry":{"type":"Point","coordinates":[5.0677248,52.3342837]},"properties":{"type":"charge","layer":"passenger","locationId":"1207","name":"Shell Recharge NL Constantijn Huygenslaan 50","address":"Constantijn Huygenslaan 50","city":"Muiden","operatorName":"Ubitricity","maxPowerKw":22,"isMegawatt":false,"status":"AVAILABLE","source":"ndw","priceKwh":0.266}},{"type":"Feature","geometry":{"type":"Point","coordinates":[5.151633,52.290141]},"properties":{"type":"charge","layer":"passenger","locationId":"OST23P0069_0038_0","name":"OST23P0069_0038_0","address":"Koningin Wilhelminalaan 31","city":"Naarden","operatorName":"e-VOLTT","maxPowerKw":0,"isMegawatt":false,"status":"AVAILABLE","source":"ndw","priceKwh":0.5289}},{"type":"Feature","geometry":{"type":"Point","coordinates":[5.14516,52.2855]},"properties":{"type":"charge","layer":"passenger","locationId":"dcc58a2c-1d11-11ea-b6bb-42010a840010","name":"PP004276","address":"Heemraad 17","city":"Naarden","operatorName":"TotalEnergies","maxPowerKw":0,"isMegawatt":false,"status":"AVAILABLE","source":"ndw","priceKwh":0.39}},{"type":"Feature","geometry":{"type":"Point","coordinates":[5.15037,52.2908]},"properties":{"type":"charge","layer":"passenger","locationId":"613","name":"Shell Recharge NL Prinses Irenehof 2","address":"Prinses Irenehof 2","city":"Naarden","operatorName":"Ubitricity","maxPowerKw":11,"isMegawatt":false,"status":"AVAILABLE","source":"ndw","priceKwh":0.388}},{"type":"Feature","geometry":{"type":"Point","coordinates":[5.189817,52.267066]},"properties":{"type":"charge","layer":"passenger","locationId":"5569ffcc-8b50-11ec-881b-42010a840051","name":"TNLP007023","address":"Aagje Dekenlaan 98","city":"Bussum","operatorName":"TotalEnergies","maxPowerKw":17,"isMegawatt":false,"status":"CHARGING","source":"ndw","priceKwh":0.39}},{"type":"Feature","geometry":{"type":"Point","coordinates":[5.167777,52.275185]},"properties":{"type":"charge","layer":"passenger","locationId":"659c0f28-d617-11f0-ad19-42010aa400b8","name":"TNLP009760","address":"Driestweg 11","city":"Bussum","operatorName":"TotalEnergies","maxPowerKw":17,"isMegawatt":false,"status":"AVAILABLE","source":"ndw","priceKwh":0.39}},{"type":"Feature","geometry":{"type":"Point","coordinates":[5.072542,52.326002]},"properties":{"type":"charge","layer":"passenger","locationId":"b92547ec-fe2e-11f0-b4dc-42010aa400b8","name":"TNLP034228","address":"De Lange Gangh 36","city":"Muiden","operatorName":"TotalEnergies","maxPowerKw":14,"isMegawatt":false,"status":"AVAILABLE","source":"ndw","priceKwh":0.3}},{"type":"Feature","geometry":{"type":"Point","coordinates":[5.138224,52.306946]},"properties":{"type":"charge","layer":"passenger","locationId":"4227438","name":"Laadnet Pink Elephant BV","address":"Gooimeer 18","city":"Naarden","operatorName":"Laadnet","maxPowerKw":22,"isMegawatt":false,"status":"AVAILABLE","source":"ndw"}},{"type":"Feature","geometry":{"type":"Point","coordinates":[5.0634457,52.3301426]},"properties":{"type":"charge","layer":"passenger","locationId":"1212","name":"Shell Recharge NL de Fluit 8","address":"de Fluit 8","city":"Muiden","operatorName":"Ubitricity","maxPowerKw":22,"isMegawatt":false,"status":"AVAILABLE","source":"ndw","priceKwh":0.266}},{"type":"Feature","geometry":{"type":"Point","coordinates":[5.16408,52.2949]},"properties":{"type":"charge","layer":"passenger","locationId":"1451","name":"Shell Recharge NL Adriaan Dortsmanplein 2","address":"Adriaan Dortsmanplein 2","city":"Gooise Meren","operatorName":"Ubitricity","maxPowerKw":11,"isMegawatt":false,"status":"CHARGING","source":"ndw","priceKwh":0.388}},{"type":"Feature","geometry":{"type":"Point","coordinates":[5.169824,52.264041]},"properties":{"type":"charge","layer":"passenger","locationId":"d46737de-cd70-11f0-b567-42010aa400b8","name":"TNLP008933","address":"Beeklaan 46","city":"Bussum","operatorName":"TotalEnergies","maxPowerKw":14,"isMegawatt":false,"status":"AVAILABLE","source":"ndw","priceKwh":0.39}},{"type":"Feature","geometry":{"type":"Point","coordinates":[5.176563,52.26628]},"properties":{"type":"charge","layer":"passenger","locationId":"c1d7a248-5cbe-11eb-bda9-42010a84005d","name":"TNLP005852","address":"Jan Bottemastraat 42","city":"Bussum","operatorName":"TotalEnergies","maxPowerKw":17,"isMegawatt":false,"status":"AVAILABLE","source":"ndw","priceKwh":0.39}},{"type":"Feature","geometry":{"type":"Point","coordinates":[5.123456,52.323199]},"properties":{"type":"charge","layer":"passenger","locationId":"2a54bfae-b6b0-11f0-a703-42010aa400b8","name":"TNLP008039","address":"Watersnip 6","city":"Muiderberg","operatorName":"TotalEnergies","maxPowerKw":17,"isMegawatt":false,"status":"AVAILABLE","source":"ndw","priceKwh":0.39}},{"type":"Feature","geometry":{"type":"Point","coordinates":[5.150681,52.285693]},"properties":{"type":"charge","layer":"passenger","locationId":"46013b5c-002e-11ec-8b0f-42010a84001f","name":"TNLP006452","address":"Heemskerklaan 56","city":"Naarden","operatorName":"TotalEnergies","maxPowerKw":17,"isMegawatt":false,"status":"AVAILABLE","source":"ndw","priceKwh":0.39}},{"type":"Feature","geometry":{"type":"Point","coordinates":[5.172928,52.266843]},"properties":{"type":"charge","layer":"passenger","locationId":"a3689c30-dff7-11ee-8640-42010aa400b8","name":"TNLP008910","address":"Ruysstraat 67","city":"Bussum","operatorName":"TotalEnergies","maxPowerKw":14,"isMegawatt":false,"status":"AVAILABLE","source":"ndw","priceKwh":0.39}},{"type":"Feature","geometry":{"type":"Point","coordinates":[5.169107,52.273116]},"properties":{"type":"charge","layer":"passenger","locationId":"d522cd4c-407f-11eb-9e78-42010a840025","name":"TNLP005815","address":"Veldheimerlaan 39","city":"Bussum","operatorName":"TotalEnergies","maxPowerKw":0,"isMegawatt":false,"status":"CHARGING","source":"ndw","priceKwh":0.39}},{"type":"Feature","geometry":{"type":"Point","coordinates":[5.176633,52.265301]},"properties":{"type":"charge","layer":"passenger","locationId":"2d076c66-ce42-11f0-b0ed-42010aa400b8","name":"TNLP007071","address":"Prinses Margrietplantsoen 90","city":"Bussum","operatorName":"TotalEnergies","maxPowerKw":17,"isMegawatt":false,"status":"AVAILABLE","source":"ndw","priceKwh":0.39}},{"type":"Feature","geometry":{"type":"Point","coordinates":[5.178775,52.267308]},"properties":{"type":"charge","layer":"passenger","locationId":"41183a9a-39a9-11ed-8759-42010aa40042","name":"TNLP007602","address":"Van Speijklaan 18","city":"Bussum","operatorName":"TotalEnergies","maxPowerKw":17,"isMegawatt":false,"status":"AVAILABLE","source":"ndw","priceKwh":0.39}},{"type":"Feature","geometry":{"type":"Point","coordinates":[5.17792,52.274402]},"properties":{"type":"charge","layer":"passenger","locationId":"b8e6e4fe-e93c-11eb-ba76-42010a84003a","name":"TNLP006381","address":"Voormeulenweg 87","city":"Bussum","operatorName":"TotalEnergies","maxPowerKw":17,"isMegawatt":false,"status":"AVAILABLE","source":"ndw","priceKwh":0.39}},{"type":"Feature","geometry":{"type":"Point","coordinates":[5.167824,52.271629]},"properties":{"type":"charge","layer":"passenger","locationId":"d694c338-8f5d-11f0-9404-42010aa400b8","name":"TNLP006869","address":"Oosterpad 34","city":"Bussum","operatorName":"TotalEnergies","maxPowerKw":17,"isMegawatt":false,"status":"AVAILABLE","source":"ndw","priceKwh":0.39}},{"type":"Feature","geometry":{"type":"Point","coordinates":[5.16057,52.28796]},"properties":{"type":"charge","layer":"passenger","locationId":"dd2742bc-d547-11ec-a422-42010a840003","name":"PP004172","address":"Thierensweg 30","city":"Naarden","operatorName":"TotalEnergies","maxPowerKw":0,"isMegawatt":false,"status":"AVAILABLE","source":"ndw","priceKwh":0.39}},{"type":"Feature","geometry":{"type":"Point","coordinates":[5.184758,52.266658]},"properties":{"type":"charge","layer":"passenger","locationId":"e3ed5d60-fdae-11ea-a911-42010a840fc6","name":"PP005473","address":"Top Naefflaan 57","city":"Bussum","operatorName":"TotalEnergies","maxPowerKw":0,"isMegawatt":false,"status":"AVAILABLE","source":"ndw","priceKwh":0.39}},{"type":"Feature","geometry":{"type":"Point","coordinates":[5.165135,52.279753]},"properties":{"type":"charge","layer":"passenger","locationId":"5e5f4952-bdbf-11f0-a526-42010aa400b8","name":"TNLP008105","address":"Vossiuslaan 16","city":"Bussum","operatorName":"TotalEnergies","maxPowerKw":17,"isMegawatt":false,"status":"AVAILABLE","source":"ndw","priceKwh":0.39}},{"type":"Feature","geometry":{"type":"Point","coordinates":[5.159378,52.272949]},"properties":{"type":"charge","layer":"passenger","locationId":"c72ace56-9999-11f0-a9dd-42010aa400b8","name":"TNLP006209","address":"Nieuwe Spiegelstraat 6","city":"Bussum","operatorName":"TotalEnergies","maxPowerKw":17,"isMegawatt":false,"status":"AVAILABLE","source":"ndw","priceKwh":0.39}},{"type":"Feature","geometry":{"type":"Point","coordinates":[5.18513,52.273118]},"properties":{"type":"charge","layer":"passenger","locationId":"19e932e0-bdbc-11f0-ac96-42010aa400b8","name":"PP005526","address":"Goudenregenstraat 9","city":"Bussum","operatorName":"TotalEnergies","maxPowerKw":0,"isMegawatt":false,"status":"AVAILABLE","source":"ndw","priceKwh":0.39}},{"type":"Feature","geometry":{"type":"Point","coordinates":[5.17044,52.27226]},"properties":{"type":"charge","layer":"passenger","locationId":"e9a1a0a8-c72b-11f0-b663-42010aa400b8","name":"PP004248","address":"Sint Janslaan 53","city":"Bussum","operatorName":"TotalEnergies","maxPowerKw":0,"isMegawatt":false,"status":"AVAILABLE","source":"ndw","priceKwh":0.39}},{"type":"Feature","geometry":{"type":"Point","coordinates":[5.171642,52.272891]},"properties":{"type":"charge","layer":"passenger","locationId":"4769c1e4-ad3b-11f0-a8df-42010aa400b8","name":"TNLP005736","address":"Korte Singel 31","city":"Bussum","operatorName":"TotalEnergies","maxPowerKw":0,"isMegawatt":false,"status":"AVAILABLE","source":"ndw","priceKwh":0.39}},{"type":"Feature","geometry":{"type":"Point","coordinates":[5.170751,52.276771]},"properties":{"type":"charge","layer":"passenger","locationId":"a6c6dc83-4e2f-4140-b387-3ea9f6dd7c13","name":"PP005607","address":"Marconiweg 41","city":"Bussum","operatorName":"TotalEnergies","maxPowerKw":0,"isMegawatt":false,"status":"AVAILABLE","source":"ndw"}},{"type":"Feature","geometry":{"type":"Point","coordinates":[5.14973,52.29896]},"properties":{"type":"charge","layer":"passenger","locationId":"138","name":"Shell Recharge NL Jan Houtmanstraat 2","address":"Jan Houtmanstraat 2","city":"Naarden","operatorName":"Ubitricity","maxPowerKw":11,"isMegawatt":false,"status":"AVAILABLE","source":"ndw","priceKwh":0.388}},{"type":"Feature","geometry":{"type":"Point","coordinates":[5.185361,52.275452]},"properties":{"type":"charge","layer":"passenger","locationId":"f60c38ce-c8bd-11f0-b666-42010aa400b8","name":"TNLP008893","address":"Lothariuslaan 65","city":"Bussum","operatorName":"TotalEnergies","maxPowerKw":14,"isMegawatt":false,"status":"AVAILABLE","source":"ndw","priceKwh":0.39}},{"type":"Feature","geometry":{"type":"Point","coordinates":[5.173022,52.272657]},"properties":{"type":"charge","layer":"passenger","locationId":"5f02d65c-f692-11ea-bfd1-42010a840003","name":"PP005447","address":"Voormeulenweg 39B","city":"Bussum","operatorName":"TotalEnergies","maxPowerKw":0,"isMegawatt":false,"status":"AVAILABLE","source":"ndw","priceKwh":0.39}},{"type":"Feature","geometry":{"type":"Point","coordinates":[5.064927,52.333231]},"properties":{"type":"charge","layer":"passenger","locationId":"63dd3dac-cf9f-11f0-8d12-42010aa400b8","name":"TNLP009548","address":"De Stelling 2a","city":"Muiden","operatorName":"TotalEnergies","maxPowerKw":17,"isMegawatt":false,"status":"AVAILABLE","source":"ndw","priceKwh":0.39}},{"type":"Feature","geometry":{"type":"Point","coordinates":[5.119646,52.323791]},"properties":{"type":"charge","layer":"passenger","locationId":"89be91d6-c727-11f0-8e09-42010aa400b8","name":"TNLP006150","address":"van der Helstpark 13","city":"Muiderberg","operatorName":"TotalEnergies","maxPowerKw":17,"isMegawatt":false,"status":"AVAILABLE","source":"ndw","priceKwh":0.39}},{"type":"Feature","geometry":{"type":"Point","coordinates":[5.146713,52.262737]},"properties":{"type":"charge","layer":"passenger","locationId":"b041b764-7cf3-11ee-9c26-42010aa40fc0","name":"TNLP008384","address":"Kleine Johanneslaan 2","city":"Bussum","operatorName":"TotalEnergies","maxPowerKw":14,"isMegawatt":false,"status":"UNAVAILABLE","source":"ndw","priceKwh":0.39}},{"type":"Feature","geometry":{"type":"Point","coordinates":[5.064914,52.333428]},"properties":{"type":"charge","layer":"passenger","locationId":"cefc7538-0f38-11ed-846d-42010aa40fd1","name":"TNLP007445","address":"De Stelling 2","city":"Muiden","operatorName":"TotalEnergies","maxPowerKw":17,"isMegawatt":false,"status":"AVAILABLE","source":"ndw","priceKwh":0.39}},{"type":"Feature","geometry":{"type":"Point","coordinates":[5.1657,52.26409]},"properties":{"type":"charge","layer":"passenger","locationId":"42c95d3a-d548-11ec-8612-42010a840003","name":"PP005092","address":"Bloemhof 169","city":"Bussum","operatorName":"TotalEnergies","maxPowerKw":0,"isMegawatt":false,"status":"AVAILABLE","source":"ndw","priceKwh":0.39}},{"type":"Feature","geometry":{"type":"Point","coordinates":[5.19024,52.27059]},"properties":{"type":"charge","layer":"passenger","locationId":"56385252-d54a-11ec-9d22-42010a840003","name":"TNLP006417","address":"Wielewaallaan 2","city":"Bussum","operatorName":"TotalEnergies","maxPowerKw":17,"isMegawatt":false,"status":"AVAILABLE","source":"ndw","priceKwh":0.39}},{"type":"Feature","geometry":{"type":"Point","coordinates":[5.192828,52.268327]},"properties":{"type":"charge","layer":"passenger","locationId":"6f1918c8-d164-11f0-a755-42010aa400b8","name":"TNLP007373","address":"Anne Franklaan 102","city":"Bussum","operatorName":"TotalEnergies","maxPowerKw":17,"isMegawatt":false,"status":"AVAILABLE","source":"ndw","priceKwh":0.39}},{"type":"Feature","geometry":{"type":"Point","coordinates":[5.179038,52.271057]},"properties":{"type":"charge","layer":"passenger","locationId":"7d5453b8-34d4-11ef-a030-42010aa400b8","name":"TNLP015056","address":"H. Kamerlingh Onnesweg 1","city":"Bussum","operatorName":"TotalEnergies","maxPowerKw":17,"isMegawatt":false,"status":"AVAILABLE","source":"ndw","priceKwh":0.39}},{"type":"Feature","geometry":{"type":"Point","coordinates":[5.175976,52.263049]},"properties":{"type":"charge","layer":"passenger","locationId":"bae7758a-b772-11f0-8734-42010aa400b8","name":"TNLP008909","address":"Randweg 147","city":"Bussum","operatorName":"TotalEnergies","maxPowerKw":14,"isMegawatt":false,"status":"AVAILABLE","source":"ndw","priceKwh":0.39}},{"type":"Feature","geometry":{"type":"Point","coordinates":[5.15218,52.29875]},"properties":{"type":"charge","layer":"passenger","locationId":"fcc071da-cbe4-11e9-9b96-42010a840034","name":"PP004266","address":"Generaal Kraijenhoffstraat 29","city":"Naarden","operatorName":"TotalEnergies","maxPowerKw":0,"isMegawatt":false,"status":"CHARGING","source":"ndw","priceKwh":0.39}},{"type":"Feature","geometry":{"type":"Point","coordinates":[5.14885,52.28321]},"properties":{"type":"charge","layer":"passenger","locationId":"50d9e784-b6a7-11f0-a429-42010aa400b8","name":"PP005227","address":"Van Tienhovenlaan 1","city":"Naarden","operatorName":"TotalEnergies","maxPowerKw":0,"isMegawatt":false,"status":"AVAILABLE","source":"ndw","priceKwh":0.39}},{"type":"Feature","geometry":{"type":"Point","coordinates":[5.161384,52.282676]},"properties":{"type":"charge","layer":"passenger","locationId":"8cf244fe-1e7d-11eb-ba84-42010a840004","name":"PP005616","address":"Rostocklaan 25","city":"Bussum","operatorName":"TotalEnergies","maxPowerKw":0,"isMegawatt":false,"status":"AVAILABLE","source":"ndw","priceKwh":0.39}},{"type":"Feature","geometry":{"type":"Point","coordinates":[5.16485,52.2785]},"properties":{"type":"charge","layer":"passenger","locationId":"45a8e04a-1bee-11ea-90ee-42010a840019","name":"PP004239","address":"Lammert Majoorlaan 33","city":"Bussum","operatorName":"TotalEnergies","maxPowerKw":0,"isMegawatt":false,"status":"AVAILABLE","source":"ndw","priceKwh":0.39}},{"type":"Feature","geometry":{"type":"Point","coordinates":[5.167635,52.278016]},"properties":{"type":"charge","layer":"passenger","locationId":"66a903ea-b24e-11eb-8591-42010a84004f","name":"TNLP005901","address":"Tesselschadelaan 8","city":"Bussum","operatorName":"TotalEnergies","maxPowerKw":17,"isMegawatt":false,"status":"AVAILABLE","source":"ndw","priceKwh":0.39}},{"type":"Feature","geometry":{"type":"Point","coordinates":[5.061378,52.330399]},"properties":{"type":"charge","layer":"passenger","locationId":"8ed4237a-d22b-11f0-b3b6-42010aa400b8","name":"TNLP005895","address":"De Kogge 18","city":"Muiden","operatorName":"TotalEnergies","maxPowerKw":17,"isMegawatt":false,"status":"AVAILABLE","source":"ndw","priceKwh":0.39}},{"type":"Feature","geometry":{"type":"Point","coordinates":[5.166654,52.269941]},"properties":{"type":"charge","layer":"passenger","locationId":"f7e8b51a-3814-11ed-ba71-42010aa40fc2","name":"TNLP007608","address":"Laarderweg 64","city":"Bussum","operatorName":"TotalEnergies","maxPowerKw":17,"isMegawatt":false,"status":"CHARGING","source":"ndw","priceKwh":0.39}},{"type":"Feature","geometry":{"type":"Point","coordinates":[5.179301,52.27305]},"properties":{"type":"charge","layer":"passenger","locationId":"6eda55e5-a28a-4bb4-9c00-a4c984f43dd5","name":"PP005163","address":"H. Zwaardemakerstraat 23","city":"Bussum","operatorName":"TotalEnergies","maxPowerKw":0,"isMegawatt":false,"status":"AVAILABLE","source":"ndw"}},{"type":"Feature","geometry":{"type":"Point","coordinates":[5.15047,52.28203]},"properties":{"type":"charge","layer":"passenger","locationId":"6f9657ce-b770-11f0-85e5-42010aa400b8","name":"PP005079","address":"Verlengde Fortlaan 15","city":"Naarden","operatorName":"TotalEnergies","maxPowerKw":0,"isMegawatt":false,"status":"AVAILABLE","source":"ndw","priceKwh":0.39}},{"type":"Feature","geometry":{"type":"Point","coordinates":[5.181649,52.272161]},"properties":{"type":"charge","layer":"passenger","locationId":"94a1df98-8ac6-11ea-9c24-42010a840ff6","name":"PP005143","address":"H. Kamerlingh Onnesweg 25 a","city":"Bussum","operatorName":"TotalEnergies","maxPowerKw":0,"isMegawatt":false,"status":"AVAILABLE","source":"ndw","priceKwh":0.39}},{"type":"Feature","geometry":{"type":"Point","coordinates":[5.15921,52.271057]},"properties":{"type":"charge","layer":"passenger","locationId":"ddbb3fd0-ccb0-11f0-b3e8-42010aa400b8","name":"TNLP034026","address":"Nieuwe Hilversumseweg 15","city":"Bussum","operatorName":"TotalEnergies","maxPowerKw":14,"isMegawatt":false,"status":"AVAILABLE","source":"ndw","priceKwh":0.3}},{"type":"Feature","geometry":{"type":"Point","coordinates":[5.1588279,52.2947396]},"properties":{"type":"charge","layer":"passenger","locationId":"1403","name":"Shell Recharge NL Westwalstraat 29","address":"Westwalstraat 29","city":"Naarden","operatorName":"Ubitricity","maxPowerKw":22,"isMegawatt":false,"status":"CHARGING","source":"ndw","priceKwh":0.266}},{"type":"Feature","geometry":{"type":"Point","coordinates":[5.160354,52.271387]},"properties":{"type":"charge","layer":"passenger","locationId":"2744dd7c-cd75-11f0-8f26-42010aa400b8","name":"TNLP009538","address":"Bensdorpplein 8","city":"Bussum","operatorName":"TotalEnergies","maxPowerKw":17,"isMegawatt":false,"status":"AVAILABLE","source":"ndw","priceKwh":0.39}},{"type":"Feature","geometry":{"type":"Point","coordinates":[5.17067,52.28561]},"properties":{"type":"charge","layer":"passenger","locationId":"2f20948c-c988-11f0-892e-42010aa400b8","name":"PP004074","address":"Tenierslaan 3","city":"Naarden","operatorName":"TotalEnergies","maxPowerKw":0,"isMegawatt":false,"status":"AVAILABLE","source":"ndw","priceKwh":0.39}},{"type":"Feature","geometry":{"type":"Point","coordinates":[5.157188,52.273827]},"properties":{"type":"charge","layer":"passenger","locationId":"8d5984a6-744d-11ee-a8ab-42010aa40fc0","name":"TNLP008374","address":"Graaf Wichmanlaan 12","city":"Bussum","operatorName":"TotalEnergies","maxPowerKw":14,"isMegawatt":false,"status":"AVAILABLE","source":"ndw","priceKwh":0.39}},{"type":"Feature","geometry":{"type":"Point","coordinates":[5.1730795,52.2695145]},"properties":{"type":"charge","layer":"passenger","locationId":"1363","name":"Shell Recharge NL Sint Janslaan 131","address":"Sint Janslaan 131","city":"Bussum","operatorName":"Ubitricity","maxPowerKw":22,"isMegawatt":false,"status":"AVAILABLE","source":"ndw","priceKwh":0.266}},{"type":"Feature","geometry":{"type":"Point","coordinates":[5.172928,52.266843]},"properties":{"type":"charge","layer":"passenger","locationId":"F2600BB5-D923-4ABF-A88D-5C80EE985912","name":"TNLP008910","address":"Ruysstraat 67","city":"Bussum","operatorName":"TotalEnergies","maxPowerKw":14,"isMegawatt":false,"status":"AVAILABLE","source":"ndw"}},{"type":"Feature","geometry":{"type":"Point","coordinates":[5.1726,52.26182]},"properties":{"type":"charge","layer":"passenger","locationId":"612","name":"Shell Recharge NL Lange Heul 774","address":"Lange Heul 774","city":"Bussum","operatorName":"Ubitricity","maxPowerKw":11,"isMegawatt":false,"status":"AVAILABLE","source":"ndw","priceKwh":0.388}},{"type":"Feature","geometry":{"type":"Point","coordinates":[5.176529,52.27455]},"properties":{"type":"charge","layer":"passenger","locationId":"57581E6B-E8AF-4AD1-AFE5-1AB1983F4859","name":"TNLP008165","address":"Wisentstraat 40","city":"Bussum","operatorName":"TotalEnergies","maxPowerKw":17,"isMegawatt":false,"status":"CHARGING","source":"ndw"}},{"type":"Feature","geometry":{"type":"Point","coordinates":[5.160727,52.293484]},"properties":{"type":"charge","layer":"passenger","locationId":"6d12c0ed-7b84-4648-910e-73ed0258d01e","name":"PP005643","address":"Westwalstraat 63","city":"Naarden","operatorName":"TotalEnergies","maxPowerKw":0,"isMegawatt":false,"status":"CHARGING","source":"ndw"}},{"type":"Feature","geometry":{"type":"Point","coordinates":[5.177907,52.263842]},"properties":{"type":"charge","layer":"passenger","locationId":"3c935646-c270-11f0-8ff4-42010aa400b8","name":"TNLP007733","address":"Randweg 173","city":"Bussum","operatorName":"TotalEnergies","maxPowerKw":17,"isMegawatt":false,"status":"AVAILABLE","source":"ndw","priceKwh":0.39}},{"type":"Feature","geometry":{"type":"Point","coordinates":[5.112411,52.325677]},"properties":{"type":"charge","layer":"passenger","locationId":"6370e388-b775-11f0-a3f0-42010aa400b8","name":"TNLP007507","address":"Googweg 1","city":"Muiderberg","operatorName":"TotalEnergies","maxPowerKw":17,"isMegawatt":false,"status":"AVAILABLE","source":"ndw","priceKwh":0.39}},{"type":"Feature","geometry":{"type":"Point","coordinates":[5.190626,52.270031]},"properties":{"type":"charge","layer":"passenger","locationId":"cefa82f4-c985-11f0-a421-42010aa400b8","name":"TNLP006719","address":"Wielewaallaan 39","city":"Bussum","operatorName":"TotalEnergies","maxPowerKw":17,"isMegawatt":false,"status":"AVAILABLE","source":"ndw","priceKwh":0.39}},{"type":"Feature","geometry":{"type":"Point","coordinates":[5.06826,52.331693]},"properties":{"type":"charge","layer":"passenger","locationId":"0fbb9256-d1cd-11ec-993b-42010aa40058","name":"TNLP007361","address":"Korte Zeestraat 1","city":"Muiden","operatorName":"TotalEnergies","maxPowerKw":17,"isMegawatt":false,"status":"AVAILABLE","source":"ndw","priceKwh":0.39}},{"type":"Feature","geometry":{"type":"Point","coordinates":[5.152838,52.2735]},"properties":{"type":"charge","layer":"passenger","locationId":"16d08d6c-d547-11ec-8987-42010a840003","name":"TNLP015119","address":"Meentweg 47a","city":"Bussum","operatorName":"TotalEnergies","maxPowerKw":17,"isMegawatt":false,"status":"CHARGING","source":"ndw","priceKwh":0.39}},{"type":"Feature","geometry":{"type":"Point","coordinates":[5.18302,52.268343]},"properties":{"type":"charge","layer":"passenger","locationId":"1d6f4b76-e5a3-11ef-a266-42010aa400b8","name":"TNLP015389","address":"Catharina van Renneslaan 2","city":"Bussum","operatorName":"TotalEnergies","maxPowerKw":17,"isMegawatt":false,"status":"AVAILABLE","source":"ndw","priceKwh":0.3}},{"type":"Feature","geometry":{"type":"Point","coordinates":[5.174633,52.264943]},"properties":{"type":"charge","layer":"passenger","locationId":"217ec34a-9e4e-11f0-b94e-42010aa400b8","name":"TNLP009969","address":"Prinses Margrietplantsoen 58","city":"Bussum","operatorName":"TotalEnergies","maxPowerKw":17,"isMegawatt":false,"status":"CHARGING","source":"ndw","priceKwh":0.39}},{"type":"Feature","geometry":{"type":"Point","coordinates":[5.152221,52.281657]},"properties":{"type":"charge","layer":"passenger","locationId":"2727dcf0-5a8d-11eb-826d-42010a84004b","name":"PP005649","address":"Zwarteweg 42","city":"Naarden","operatorName":"TotalEnergies","maxPowerKw":0,"isMegawatt":false,"status":"AVAILABLE","source":"ndw","priceKwh":0.39}},{"type":"Feature","geometry":{"type":"Point","coordinates":[5.163198,52.272802]},"properties":{"type":"charge","layer":"passenger","locationId":"2b1d014e-c53f-11ee-a17a-42010aa40fc0","name":"TNLP009962","address":"Brinklaan 115","city":"Bussum","operatorName":"TotalEnergies","maxPowerKw":17,"isMegawatt":false,"status":"AVAILABLE","source":"ndw","priceKwh":0.39}},{"type":"Feature","geometry":{"type":"Point","coordinates":[5.160032,52.288974]},"properties":{"type":"charge","layer":"passenger","locationId":"3d75bee6-ddd0-11ed-86e1-42010aa4001e","name":"TNLP008189","address":"Thierensweg 9","city":"Naarden","operatorName":"TotalEnergies","maxPowerKw":17,"isMegawatt":false,"status":"AVAILABLE","source":"ndw","priceKwh":0.39}},{"type":"Feature","geometry":{"type":"Point","coordinates":[5.170192,52.27858]},"properties":{"type":"charge","layer":"passenger","locationId":"5e1c291c-2d26-11f0-8a43-42010aa400b8","name":"TNLP034065","address":"Oud-Bussummerweg 69","city":"Bussum","operatorName":"TotalEnergies","maxPowerKw":14,"isMegawatt":false,"status":"AVAILABLE","source":"ndw","priceKwh":0.3}},{"type":"Feature","geometry":{"type":"Point","coordinates":[5.15716,52.278815]},"properties":{"type":"charge","layer":"passenger","locationId":"7885fbd6-b451-11f0-b162-42010aa400b8","name":"TNLP007957","address":"Oranjepark 2","city":"Bussum","operatorName":"TotalEnergies","maxPowerKw":17,"isMegawatt":false,"status":"AVAILABLE","source":"ndw","priceKwh":0.39}},{"type":"Feature","geometry":{"type":"Point","coordinates":[5.152473,52.279442]},"properties":{"type":"charge","layer":"passenger","locationId":"db27c12a-a92e-11ec-ae26-42010a840064","name":"TNLP007051","address":"P.J. Lomanplein 2","city":"Bussum","operatorName":"TotalEnergies","maxPowerKw":17,"isMegawatt":false,"status":"AVAILABLE","source":"ndw","priceKwh":0.39}},{"type":"Feature","geometry":{"type":"Point","coordinates":[5.16341,52.27656]},"properties":{"type":"charge","layer":"passenger","locationId":"e681b62e-840a-11f0-9f77-42010aa400b8","name":"PP005084","address":"Wilhelminaplantsoen 85","city":"Bussum","operatorName":"TotalEnergies","maxPowerKw":0,"isMegawatt":false,"status":"AVAILABLE","source":"ndw","priceKwh":0.39}},{"type":"Feature","geometry":{"type":"Point","coordinates":[5.065609,52.327957]},"properties":{"type":"charge","layer":"passenger","locationId":"eeae39ec-a270-11eb-ab93-42010a840020","name":"TNLP005717","address":"Weesperstraat 113","city":"Muiden","operatorName":"TotalEnergies","maxPowerKw":17,"isMegawatt":false,"status":"AVAILABLE","source":"ndw","priceKwh":0.39}},{"type":"Feature","geometry":{"type":"Point","coordinates":[5.07306,52.32799]},"properties":{"type":"charge","layer":"passenger","locationId":"169e6318-33ce-11ea-b11b-42010a840022","name":"PP004309","address":"De Duyf 1","city":"Muiden","operatorName":"TotalEnergies","maxPowerKw":0,"isMegawatt":false,"status":"AVAILABLE","source":"ndw","priceKwh":0.39}},{"type":"Feature","geometry":{"type":"Point","coordinates":[5.152873,52.283472]},