{"type":"FeatureCollection","metadata":{"gemeente":"Gouda","slug":"gouda","code":"GM0513","generated_at":"2026-06-07T19:22:09.578Z","total_passenger":625,"total_freight":1,"bounds":[4.659453881134015,51.99625842027634,4.757327396434524,52.04012021077849],"operators":["Alva Charging Services","DAEN Mobility","E-Flux by Road","EQUANS","Eneco","Fastned","Laadnet","Opcharge","Q-Park Netherlands","Shell Recharge","Tango electric","Tesla","Vattenfall InCharge"]},"features":[{"type":"Feature","geometry":{"type":"Point","coordinates":[4.710096,52.030203]},"properties":{"type":"charge","layer":"passenger","locationId":"89370334","name":"EQUANS SGZH 2.0 89370334","address":"Loevestein 2","city":"Gouda","operatorName":"EQUANS","maxPowerKw":0,"isMegawatt":false,"status":"AVAILABLE","source":"ndw"}},{"type":"Feature","geometry":{"type":"Point","coordinates":[4.70648,52.03999]},"properties":{"type":"charge","layer":"passenger","locationId":"a8a7cd76-4d93-11e8-943b-42010a840002","name":"Fastned De Andel","address":"De Andel A12","city":"Reeuwijk","operatorName":"Fastned","maxPowerKw":150,"isMegawatt":false,"status":"AVAILABLE","source":"ndw"}},{"type":"Feature","geometry":{"type":"Point","coordinates":[4.708093,52.030142]},"properties":{"type":"charge","layer":"passenger","locationId":"90281921","name":"EQUANS SGZH 2.0 Gravestein 5","address":"Gravestein 5","city":"Gouda","operatorName":"EQUANS","maxPowerKw":0,"isMegawatt":false,"status":"CHARGING","source":"ndw"}},{"type":"Feature","geometry":{"type":"Point","coordinates":[4.749224,52.005879]},"properties":{"type":"charge","layer":"passenger","locationId":"90386367","name":"EQUANS SGZH 2.0 Dammaspolderpad 15","address":"Dammaspolderpad 15","city":"Gouda","operatorName":"EQUANS","maxPowerKw":0,"isMegawatt":false,"status":"AVAILABLE","source":"ndw"}},{"type":"Feature","geometry":{"type":"Point","coordinates":[4.703319,52.009997]},"properties":{"type":"charge","layer":"passenger","locationId":"de5be598-c26f-11f0-879f-42010aa400b8","name":"Q-Park Gouda Bolwerk","address":"Sint Mariewal 3","city":"Gouda","operatorName":"Q-Park Netherlands","maxPowerKw":11,"isMegawatt":false,"status":"AVAILABLE","source":"ndw","priceKwh":0.55}},{"type":"Feature","geometry":{"type":"Point","coordinates":[4.703344,52.013544]},"properties":{"type":"charge","layer":"passenger","locationId":"89422050","name":"EQUANS SGZH 2.0 89422050","address":"Strijenstraat 9 H","city":"Gouda","operatorName":"EQUANS","maxPowerKw":0,"isMegawatt":false,"status":"CHARGING","source":"ndw"}},{"type":"Feature","geometry":{"type":"Point","coordinates":[4.68875,52.025971]},"properties":{"type":"charge","layer":"passenger","locationId":"89262061","name":"EQUANS SGZH 1.0 89262061","address":"Groenhovenweg 307","city":"Gouda","operatorName":"EQUANS","maxPowerKw":0,"isMegawatt":false,"status":"AVAILABLE","source":"ndw"}},{"type":"Feature","geometry":{"type":"Point","coordinates":[4.689737,52.028629]},"properties":{"type":"charge","layer":"passenger","locationId":"89052512","name":"EQUANS SGZH 1.0 89052512","address":"Plataanstraat 11","city":"Gouda","operatorName":"EQUANS","maxPowerKw":0,"isMegawatt":false,"status":"AVAILABLE","source":"ndw"}},{"type":"Feature","geometry":{"type":"Point","coordinates":[4.705131,52.036138]},"properties":{"type":"charge","layer":"passenger","locationId":"922666","name":"DAE-NL-2000164","address":"Catarina hoeve3","city":"Gouda","operatorName":"DAEN Mobility","maxPowerKw":11,"isMegawatt":false,"status":"AVAILABLE","source":"ndw","priceKwh":0.28}},{"type":"Feature","geometry":{"type":"Point","coordinates":[4.716204,52.036381]},"properties":{"type":"charge","layer":"passenger","locationId":"923219","name":"DAE_NL_2001069","address":"Pluutwerf 15","city":"Gouda","operatorName":"DAEN Mobility","maxPowerKw":11,"isMegawatt":false,"status":"AVAILABLE","source":"ndw","priceKwh":0.28}},{"type":"Feature","geometry":{"type":"Point","coordinates":[4.705321,52.039646]},"properties":{"type":"charge","layer":"passenger","locationId":"116cb0fa-d84e-11ef-b58f-42010aa400b8","name":"Shell Recharge Rijksweg A12 E30/E25","address":"Rijksweg A12 E30/E25","city":"Gouda","operatorName":"Shell Recharge","maxPowerKw":300,"isMegawatt":false,"status":"AVAILABLE","source":"ndw"}},{"type":"Feature","geometry":{"type":"Point","coordinates":[4.703913,52.034525]},"properties":{"type":"charge","layer":"passenger","locationId":"90300340","name":"EQUANS SGZH 2.0 Zuidhoef 158","address":"Zuidhoef 158","city":"Gouda","operatorName":"EQUANS","maxPowerKw":0,"isMegawatt":false,"status":"AVAILABLE","source":"ndw"}},{"type":"Feature","geometry":{"type":"Point","coordinates":[4.7162,52.00872]},"properties":{"type":"charge","layer":"passenger","locationId":"5b14fd44-fc36-11ec-861a-42010aa40032","name":"Eneco eMobility Fluwelensingel 87 Gouda","address":"Fluwelensingel 87","city":"Gouda","operatorName":"Eneco","maxPowerKw":0,"isMegawatt":false,"status":"CHARGING","source":"ndw","priceKwh":0.32}},{"type":"Feature","geometry":{"type":"Point","coordinates":[4.6895,52.00477]},"properties":{"type":"charge","layer":"passenger","locationId":"7c71f7e4-fc36-11ec-b264-42010aa4001d","name":"Eneco eMobility Marconistraat 62 Gouda","address":"Marconistraat 62","city":"Gouda","operatorName":"Eneco","maxPowerKw":22,"isMegawatt":false,"status":"CHARGING","source":"ndw","priceKwh":0.35}},{"type":"Feature","geometry":{"type":"Point","coordinates":[4.722742,52.003807]},"properties":{"type":"charge","layer":"passenger","locationId":"89262144","name":"EQUANS SGZH 1.0 89262144","address":"Goudseweg 77","city":"Gouda","operatorName":"EQUANS","maxPowerKw":0,"isMegawatt":false,"status":"AVAILABLE","source":"ndw"}},{"type":"Feature","geometry":{"type":"Point","coordinates":[4.705321,52.039646]},"properties":{"type":"charge","layer":"passenger","locationId":"621","name":"Shell Recharge NL0258 - Shell De Andel","address":"Rijksweg A12 E30/E25","city":"Gouda","operatorName":"Shell Recharge","maxPowerKw":300,"isMegawatt":false,"status":"AVAILABLE","source":"ndw","priceKwh":0.7025}},{"type":"Feature","geometry":{"type":"Point","coordinates":[4.696022,52.025]},"properties":{"type":"charge","layer":"passenger","locationId":"90357639","name":"EQUANS SGZH 2.0 Vuurdoornlaan 2","address":"Vuurdoornlaan 2","city":"Gouda","operatorName":"EQUANS","maxPowerKw":0,"isMegawatt":false,"status":"AVAILABLE","source":"ndw"}},{"type":"Feature","geometry":{"type":"Point","coordinates":[4.695118,52.019951]},"properties":{"type":"charge","layer":"passenger","locationId":"90249550","name":"EQUANS SGZH 2.0 Anna van Hensbeeksingel 186","address":"Anna van Hensbeeksingel 186","city":"Gouda","operatorName":"EQUANS","maxPowerKw":0,"isMegawatt":false,"status":"AVAILABLE","source":"ndw"}},{"type":"Feature","geometry":{"type":"Point","coordinates":[4.7448,52.01382]},"properties":{"type":"charge","layer":"passenger","locationId":"89262141","name":"EQUANS SGZH 1.0 Beethovenhof 15","address":"Beethovenhof 15","city":"Gouda","operatorName":"EQUANS","maxPowerKw":0,"isMegawatt":false,"status":"AVAILABLE","source":"ndw"}},{"type":"Feature","geometry":{"type":"Point","coordinates":[4.714216,52.010878]},"properties":{"type":"charge","layer":"passenger","locationId":"91172303","name":"EQUANS SGZH 2.0 Koepoort (t.h.v. Baan 10)","address":"Koepoort","city":"Gouda","operatorName":"EQUANS","maxPowerKw":0,"isMegawatt":false,"status":"AVAILABLE","source":"ndw"}},{"type":"Feature","geometry":{"type":"Point","coordinates":[4.705283,52.012752]},"properties":{"type":"charge","layer":"passenger","locationId":"89262033","name":"EQUANS SGZH 1.0 89262033","address":"Regentesseplantsoen 10","city":"Gouda","operatorName":"EQUANS","maxPowerKw":0,"isMegawatt":false,"status":"CHARGING","source":"ndw"}},{"type":"Feature","geometry":{"type":"Point","coordinates":[4.699528,52.009978]},"properties":{"type":"charge","layer":"passenger","locationId":"89262049","name":"EQUANS SGZH 1.0 89262049","address":"Onder de Boompjes 12","city":"Gouda","operatorName":"EQUANS","maxPowerKw":0,"isMegawatt":false,"status":"CHARGING","source":"ndw"}},{"type":"Feature","geometry":{"type":"Point","coordinates":[4.682984,52.018815]},"properties":{"type":"charge","layer":"passenger","locationId":"490b59df-2dd6-4568-8555-1b33dd7e8d17","name":"Nieuwe Gouwe O.Z","address":"Nieuwe Gouwe O.Z 19","city":"Gouda","operatorName":"Vattenfall InCharge","maxPowerKw":50,"isMegawatt":false,"status":"AVAILABLE","source":"ndw"}},{"type":"Feature","geometry":{"type":"Point","coordinates":[4.701238,52.002565]},"properties":{"type":"charge","layer":"passenger","locationId":"89262057","name":"EQUANS SGZH 1.0 89262057","address":"Da Costakade 67","city":"Gouda","operatorName":"EQUANS","maxPowerKw":0,"isMegawatt":false,"status":"CHARGING","source":"ndw"}},{"type":"Feature","geometry":{"type":"Point","coordinates":[4.705064,52.023702]},"properties":{"type":"charge","layer":"passenger","locationId":"90279219","name":"EQUANS SGZH 2.0 Abel Tasmanlaan 1","address":"Abel Tasmanlaan 1","city":"Gouda","operatorName":"EQUANS","maxPowerKw":0,"isMegawatt":false,"status":"AVAILABLE","source":"ndw"}},{"type":"Feature","geometry":{"type":"Point","coordinates":[4.7073,52.036438]},"properties":{"type":"charge","layer":"passenger","locationId":"89105165","name":"EQUANS SGZH 1.0 89105165","address":"Geertruida Hoeve 1","city":"Gouda","operatorName":"EQUANS","maxPowerKw":0,"isMegawatt":false,"status":"AVAILABLE","source":"ndw"}},{"type":"Feature","geometry":{"type":"Point","coordinates":[4.746529,52.014205]},"properties":{"type":"charge","layer":"passenger","locationId":"90830554","name":"EQUANS SGZH 2.0 Chopinstraat 21","address":"Chopinstraat 21","city":"Gouda","operatorName":"EQUANS","maxPowerKw":0,"isMegawatt":false,"status":"AVAILABLE","source":"ndw"}},{"type":"Feature","geometry":{"type":"Point","coordinates":[4.726736,52.012028]},"properties":{"type":"charge","layer":"passenger","locationId":"89262120","name":"EQUANS SGZH 1.0 89262120","address":"Dunantsingel 92","city":"Gouda","operatorName":"EQUANS","maxPowerKw":0,"isMegawatt":false,"status":"AVAILABLE","source":"ndw"}},{"type":"Feature","geometry":{"type":"Point","coordinates":[4.75184,52.009028]},"properties":{"type":"charge","layer":"passenger","locationId":"89127157","name":"EQUANS SGZH 1.0 Strookpolderstraat 2","address":"Strookpolderstraat 2","city":"Gouda","operatorName":"EQUANS","maxPowerKw":0,"isMegawatt":false,"status":"AVAILABLE","source":"ndw"}},{"type":"Feature","geometry":{"type":"Point","coordinates":[4.719106,52.015752]},"properties":{"type":"charge","layer":"passenger","locationId":"89262128","name":"EQUANS SGZH 1.0 89262128","address":"Willem Tombergstraat 43","city":"Gouda","operatorName":"EQUANS","maxPowerKw":0,"isMegawatt":false,"status":"AVAILABLE","source":"ndw"}},{"type":"Feature","geometry":{"type":"Point","coordinates":[4.715297,52.021537]},"properties":{"type":"charge","layer":"passenger","locationId":"90984832","name":"EQUANS SGZH 1.0 Regoutstraat 23","address":"Regoutstraat 23","city":"Gouda","operatorName":"EQUANS","maxPowerKw":0,"isMegawatt":false,"status":"AVAILABLE","source":"ndw"}},{"type":"Feature","geometry":{"type":"Point","coordinates":[4.741808,52.013183]},"properties":{"type":"charge","layer":"passenger","locationId":"89641447","name":"EQUANS SGZH 2.0 89641447","address":"Symfonielaan 18","city":"Gouda","operatorName":"EQUANS","maxPowerKw":0,"isMegawatt":false,"status":"AVAILABLE","source":"ndw"}},{"type":"Feature","geometry":{"type":"Point","coordinates":[4.703439,52.00591]},"properties":{"type":"charge","layer":"passenger","locationId":"90281907","name":"EQUANS SGZH 2.0 Jan Philipsweg 48","address":"Jan Philipsweg 48","city":"Gouda","operatorName":"EQUANS","maxPowerKw":0,"isMegawatt":false,"status":"CHARGING","source":"ndw"}},{"type":"Feature","geometry":{"type":"Point","coordinates":[4.716863,52.030491]},"properties":{"type":"charge","layer":"passenger","locationId":"90369525","name":"EQUANS SGZH 2.0 Waterruit 124","address":"Waterruit 124","city":"Gouda","operatorName":"EQUANS","maxPowerKw":0,"isMegawatt":false,"status":"AVAILABLE","source":"ndw"}},{"type":"Feature","geometry":{"type":"Point","coordinates":[4.708065,52.014147]},"properties":{"type":"charge","layer":"passenger","locationId":"90891566","name":"EQUANS SGZH 2.0 Herpstraat 3","address":"Herpstraat 3","city":"Gouda","operatorName":"EQUANS","maxPowerKw":0,"isMegawatt":false,"status":"AVAILABLE","source":"ndw"}},{"type":"Feature","geometry":{"type":"Point","coordinates":[4.6917,52.02344]},"properties":{"type":"charge","layer":"passenger","locationId":"90953929","name":"EQUANS SGZH 2.0 Groenhovenweg 1","address":"Groenhovenweg 1","city":"Gouda","operatorName":"EQUANS","maxPowerKw":0,"isMegawatt":false,"status":"CHARGING","source":"ndw"}},{"type":"Feature","geometry":{"type":"Point","coordinates":[4.69028,52.02155]},"properties":{"type":"charge","layer":"passenger","locationId":"8eecb814-fc36-11ec-98f3-42010aa40032","name":"Eneco eMobility White House Development B.V. - Gouda","address":"Burgemeester van Reenensingel 101","city":"Gouda","operatorName":"Eneco","maxPowerKw":22,"isMegawatt":false,"status":"AVAILABLE","source":"ndw","priceKwh":0.32}},{"type":"Feature","geometry":{"type":"Point","coordinates":[4.715245,52.035243]},"properties":{"type":"charge","layer":"passenger","locationId":"89262087","name":"EQUANS SGZH 1.0 89262087","address":"Zuiderwerf 36","city":"Gouda","operatorName":"EQUANS","maxPowerKw":0,"isMegawatt":false,"status":"AVAILABLE","source":"ndw"}},{"type":"Feature","geometry":{"type":"Point","coordinates":[4.699427,52.032457]},"properties":{"type":"charge","layer":"passenger","locationId":"90111899","name":"EQUANS SGZH 2.0 Veenzoom 85","address":"Veenzoom 85","city":"Gouda","operatorName":"EQUANS","maxPowerKw":0,"isMegawatt":false,"status":"AVAILABLE","source":"ndw"}},{"type":"Feature","geometry":{"type":"Point","coordinates":[4.680517,52.005077]},"properties":{"type":"charge","layer":"passenger","locationId":"89262152","name":"EQUANS SGZH 1.0 89262152","address":"Opkamer 32","city":"Gouda","operatorName":"EQUANS","maxPowerKw":0,"isMegawatt":false,"status":"AVAILABLE","source":"ndw"}},{"type":"Feature","geometry":{"type":"Point","coordinates":[4.699576,52.000215]},"properties":{"type":"charge","layer":"passenger","locationId":"89176133","name":"EQUANS SGZH 2.0 89176133","address":"Margrietplein 33","city":"Gouda","operatorName":"EQUANS","maxPowerKw":0,"isMegawatt":false,"status":"AVAILABLE","source":"ndw"}},{"type":"Feature","geometry":{"type":"Point","coordinates":[4.745986,52.005339]},"properties":{"type":"charge","layer":"passenger","locationId":"89228351","name":"EQUANS SGZH 2.0 89228351","address":"Wilhelmina van Pruisenlaan 40","city":"Gouda","operatorName":"EQUANS","maxPowerKw":0,"isMegawatt":false,"status":"AVAILABLE","source":"ndw"}},{"type":"Feature","geometry":{"type":"Point","coordinates":[4.729554,52.012194]},"properties":{"type":"charge","layer":"passenger","locationId":"90281902","name":"EQUANS SGZH 2.0 Dunantsingel 314","address":"Dunantsingel 314","city":"Gouda","operatorName":"EQUANS","maxPowerKw":0,"isMegawatt":false,"status":"AVAILABLE","source":"ndw"}},{"type":"Feature","geometry":{"type":"Point","coordinates":[4.729268,52.013387]},"properties":{"type":"charge","layer":"passenger","locationId":"89273916","name":"EQUANS SGZH 2.0 89273916","address":"Johannes Poststraat 26","city":"Gouda","operatorName":"EQUANS","maxPowerKw":0,"isMegawatt":false,"status":"AVAILABLE","source":"ndw"}},{"type":"Feature","geometry":{"type":"Point","coordinates":[4.71275,52.02535]},"properties":{"type":"charge","layer":"passenger","locationId":"3aac14ac-fc36-11ec-8e0e-42010aa4000d","name":"Eneco eMobility Groen van Prinsterersingel 47 Gouda","address":"Groen van Prinsterersingel 47","city":"Gouda","operatorName":"Eneco","maxPowerKw":0,"isMegawatt":false,"status":"AVAILABLE","source":"ndw","priceKwh":0.32}},{"type":"Feature","geometry":{"type":"Point","coordinates":[4.683443,52.018654]},"properties":{"type":"charge","layer":"passenger","locationId":"5b5c6aa4-ecde-11ee-9f95-42010aa40043","name":"Tango Gouda 1-2","address":"Nieuwe Gouwe Oostzijde 13A","city":"Gouda","operatorName":"Tango electric","maxPowerKw":300,"isMegawatt":false,"status":"AVAILABLE","source":"ndw","priceKwh":0.57}},{"type":"Feature","geometry":{"type":"Point","coordinates":[4.71659,52.011833]},"properties":{"type":"charge","layer":"passenger","locationId":"89262129","name":"EQUANS SGZH 1.0 89262129","address":"Kolfwetering 121","city":"Gouda","operatorName":"EQUANS","maxPowerKw":0,"isMegawatt":false,"status":"AVAILABLE","source":"ndw"}},{"type":"Feature","geometry":{"type":"Point","coordinates":[4.71971,52.01862]},"properties":{"type":"charge","layer":"passenger","locationId":"91346165","name":"EQUANS SGZH 2.0 Graaf Florisweg 131","address":"Graaf Florisweg 131","city":"Gouda","operatorName":"EQUANS","maxPowerKw":0,"isMegawatt":false,"status":"AVAILABLE","source":"ndw"}},{"type":"Feature","geometry":{"type":"Point","coordinates":[4.714395,52.012642]},"properties":{"type":"charge","layer":"passenger","locationId":"89262043","name":"EQUANS SGZH 1.0 89262043","address":"Houtmansgracht 5","city":"Gouda","operatorName":"EQUANS","maxPowerKw":0,"isMegawatt":false,"status":"AVAILABLE","source":"ndw"}},{"type":"Feature","geometry":{"type":"Point","coordinates":[4.683443,52.018654]},"properties":{"type":"charge","layer":"passenger","locationId":"1629ae60-412d-40b5-a9db-44fe00a6717c","name":"Tango Gouda 1-2","address":"Nieuwe Gouwe Oostzijde 13A","city":"Gouda","operatorName":"Tango electric","maxPowerKw":300,"isMegawatt":false,"status":"AVAILABLE","source":"ndw","priceKwh":0.6}},{"type":"Feature","geometry":{"type":"Point","coordinates":[4.692851,52.030134]},"properties":{"type":"charge","layer":"passenger","locationId":"89262067","name":"EQUANS SGZH 1.0 89262067","address":"Denneweg 11","city":"Gouda","operatorName":"EQUANS","maxPowerKw":0,"isMegawatt":false,"status":"CHARGING","source":"ndw"}},{"type":"Feature","geometry":{"type":"Point","coordinates":[4.70472,52.011032]},"properties":{"type":"charge","layer":"passenger","locationId":"89262041","name":"EQUANS SGZH 1.0 89262041","address":"Nonnenwater 8","city":"Gouda","operatorName":"EQUANS","maxPowerKw":0,"isMegawatt":false,"status":"CHARGING","source":"ndw"}},{"type":"Feature","geometry":{"type":"Point","coordinates":[4.747061,52.009241]},"properties":{"type":"charge","layer":"passenger","locationId":"90238460","name":"EQUANS SGZH 2.0 Oranjepoldererf 48","address":"Oranjepoldererf 48","city":"Gouda","operatorName":"EQUANS","maxPowerKw":0,"isMegawatt":false,"status":"AVAILABLE","source":"ndw"}},{"type":"Feature","geometry":{"type":"Point","coordinates":[4.68438,52.021586]},"properties":{"type":"charge","layer":"passenger","locationId":"B7E77BA3-7CBA-405E-B1BD-D57F961D52B8","name":"Eneco eMobility Burg. van Reenensingel 117 Gouda","address":"Burg. van Reenensingel 117","city":"Gouda","operatorName":"Eneco","maxPowerKw":0,"isMegawatt":false,"status":"UNAVAILABLE","source":"ndw","priceKwh":0.32}},{"type":"Feature","geometry":{"type":"Point","coordinates":[4.703319,52.009997]},"properties":{"type":"charge","layer":"passenger","locationId":"d7d04262-a16f-11f0-9003-42010aa400b8","name":"Q-Park Gouda Bolwerk","address":"Sint Mariewal 3","city":"Gouda","operatorName":"Q-Park Netherlands","maxPowerKw":11,"isMegawatt":false,"status":"AVAILABLE","source":"ndw","priceKwh":0.55}},{"type":"Feature","geometry":{"type":"Point","coordinates":[4.712666,52.01632]},"properties":{"type":"charge","layer":"passenger","locationId":"88424667","name":"EQUANS SGZH 1.0 Laadplein Schouwburgplein","address":"Schouwburgplein","city":"Gouda","operatorName":"EQUANS","maxPowerKw":0,"isMegawatt":false,"status":"AVAILABLE","source":"ndw"}},{"type":"Feature","geometry":{"type":"Point","coordinates":[4.715523,52.028172]},"properties":{"type":"charge","layer":"passenger","locationId":"121f9448-c715-11f0-86e3-42010aa400b8","name":"Eneco eMobility Lansigt Accountants en Belastingadviseurs - Gouda","address":"Burgemeester van Reenensingel 39","city":"Gouda","operatorName":"Eneco","maxPowerKw":22,"isMegawatt":false,"status":"AVAILABLE","source":"ndw","priceKwh":0.32}},{"type":"Feature","geometry":{"type":"Point","coordinates":[4.723429,52.013996]},"properties":{"type":"charge","layer":"passenger","locationId":"89273857","name":"EQUANS SGZH 2.0 89273857","address":"Joubertstraat 36","city":"Gouda","operatorName":"EQUANS","maxPowerKw":0,"isMegawatt":false,"status":"CHARGING","source":"ndw"}},{"type":"Feature","geometry":{"type":"Point","coordinates":[4.703319,52.009997]},"properties":{"type":"charge","layer":"passenger","locationId":"7EC97E1F-4862-4517-956F-E293F54F3073","name":"Q-Park Gouda Bolwerk","address":"Sint Mariewal 3","city":"Gouda","operatorName":"Q-Park Netherlands","maxPowerKw":11,"isMegawatt":false,"status":"AVAILABLE","source":"ndw"}},{"type":"Feature","geometry":{"type":"Point","coordinates":[4.710811,52.017285]},"properties":{"type":"charge","layer":"passenger","locationId":"88483349","name":"EQUANS SGZH 1.0 Laadplein Vossenburchkade","address":"Graaf Florisweg 12","city":"Gouda","operatorName":"EQUANS","maxPowerKw":0,"isMegawatt":false,"status":"AVAILABLE","source":"ndw"}},{"type":"Feature","geometry":{"type":"Point","coordinates":[4.723615,52.022186]},"properties":{"type":"charge","layer":"passenger","locationId":"89262101","name":"EQUANS SGZH 1.0 89262101","address":"Driewegplein 4","city":"Gouda","operatorName":"EQUANS","maxPowerKw":0,"isMegawatt":false,"status":"CHARGING","source":"ndw"}},{"type":"Feature","geometry":{"type":"Point","coordinates":[4.71923,52.013298]},"properties":{"type":"charge","layer":"passenger","locationId":"89127158","name":"EQUANS SGZH 1.0 89127158","address":"Zoutmanplein 4","city":"Gouda","operatorName":"EQUANS","maxPowerKw":0,"isMegawatt":false,"status":"AVAILABLE","source":"ndw"}},{"type":"Feature","geometry":{"type":"Point","coordinates":[4.713185,52.037546]},"properties":{"type":"charge","layer":"passenger","locationId":"89249658","name":"EQUANS SGZH 2.0 89249658","address":"Tjalkwerf 2 B","city":"Gouda","operatorName":"EQUANS","maxPowerKw":0,"isMegawatt":false,"status":"AVAILABLE","source":"ndw"}},{"type":"Feature","geometry":{"type":"Point","coordinates":[4.711629,52.007032]},"properties":{"type":"charge","layer":"passenger","locationId":"89142957","name":"EQUANS SGZH 1.0 89262039","address":"Bogen 59","city":"Gouda","operatorName":"EQUANS","maxPowerKw":0,"isMegawatt":false,"status":"AVAILABLE","source":"ndw"}},{"type":"Feature","geometry":{"type":"Point","coordinates":[4.708082,52.01888]},"properties":{"type":"charge","layer":"passenger","locationId":"89262079","name":"EQUANS SGZH 1.0 89262079","address":"Ronsseweg 220","city":"Gouda","operatorName":"EQUANS","maxPowerKw":0,"isMegawatt":false,"status":"AVAILABLE","source":"ndw"}},{"type":"Feature","geometry":{"type":"Point","coordinates":[4.699299,52.014362]},"properties":{"type":"charge","layer":"passenger","locationId":"89981389","name":"EQUANS SGZH 2.0 Noorderstraat 11","address":"Noorderstraat 11","city":"Gouda","operatorName":"EQUANS","maxPowerKw":0,"isMegawatt":false,"status":"CHARGING","source":"ndw"}},{"type":"Feature","geometry":{"type":"Point","coordinates":[4.697519,52.019336]},"properties":{"type":"charge","layer":"passenger","locationId":"4772830","name":"Laadnet J Bos en Zn project Locatie Anna van Hensbeeksingel","address":"Anna van Hensbeeksingel 122","city":"Gouda","operatorName":"Laadnet","maxPowerKw":22,"isMegawatt":false,"status":"AVAILABLE","source":"ndw"}},{"type":"Feature","geometry":{"type":"Point","coordinates":[4.711105,52.015981]},"properties":{"type":"charge","layer":"passenger","locationId":"89262112","name":"EQUANS SGZH 1.0 Jan van der Heijdenstraat 2","address":"Jan van der Heijdenstraat 2","city":"Gouda","operatorName":"EQUANS","maxPowerKw":0,"isMegawatt":false,"status":"CHARGING","source":"ndw"}},{"type":"Feature","geometry":{"type":"Point","coordinates":[4.688785,52.00063]},"properties":{"type":"charge","layer":"passenger","locationId":"89262150","name":"EQUANS SGZH 1.0 89262150","address":"ijsseloogwal 55","city":"Gouda","operatorName":"EQUANS","maxPowerKw":0,"isMegawatt":false,"status":"AVAILABLE","source":"ndw"}},{"type":"Feature","geometry":{"type":"Point","coordinates":[4.713552,52.008832]},"properties":{"type":"charge","layer":"passenger","locationId":"89056388","name":"EQUANS SGZH 1.0 89056388","address":"Spieringstraat 115","city":"Gouda","operatorName":"EQUANS","maxPowerKw":0,"isMegawatt":false,"status":"AVAILABLE","source":"ndw"}},{"type":"Feature","geometry":{"type":"Point","coordinates":[4.723511,52.020117]},"properties":{"type":"charge","layer":"passenger","locationId":"89262097","name":"EQUANS SGZH 1.0 89262097","address":"Dijkgraafslag 27","city":"Gouda","operatorName":"EQUANS","maxPowerKw":0,"isMegawatt":false,"status":"AVAILABLE","source":"ndw"}},{"type":"Feature","geometry":{"type":"Point","coordinates":[4.711289,52.01438]},"properties":{"type":"charge","layer":"passenger","locationId":"983A036D-0039-4ADA-AD87-A4CC54008E8A","name":"Q-Park Gouda Nieuwe Markt","address":"Lem Dulstraat 3","city":"Gouda","operatorName":"Q-Park Netherlands","maxPowerKw":11,"isMegawatt":false,"status":"AVAILABLE","source":"ndw"}},{"type":"Feature","geometry":{"type":"Point","coordinates":[4.705715,52.036299]},"properties":{"type":"charge","layer":"passenger","locationId":"90386350","name":"EQUANS SGZH 2.0 Negenhoeven 2","address":"Negenhoeven 2","city":"Gouda","operatorName":"EQUANS","maxPowerKw":0,"isMegawatt":false,"status":"AVAILABLE","source":"ndw"}},{"type":"Feature","geometry":{"type":"Point","coordinates":[4.67819,52.005778]},"properties":{"type":"charge","layer":"passenger","locationId":"89262153","name":"EQUANS SGZH 1.0 89262153","address":"Boenstoep 31","city":"Gouda","operatorName":"EQUANS","maxPowerKw":0,"isMegawatt":false,"status":"AVAILABLE","source":"ndw"}},{"type":"Feature","geometry":{"type":"Point","coordinates":[4.725158,52.025178]},"properties":{"type":"charge","layer":"passenger","locationId":"89262100","name":"EQUANS SGZH 1.0 89262100","address":"Leenmanslag 71","city":"Gouda","operatorName":"EQUANS","maxPowerKw":0,"isMegawatt":false,"status":"CHARGING","source":"ndw"}},{"type":"Feature","geometry":{"type":"Point","coordinates":[4.704339,52.012177]},"properties":{"type":"charge","layer":"passenger","locationId":"89124613","name":"EQUANS SGZH 1.0 89124613","address":"Regentesseplantsoen 4","city":"Gouda","operatorName":"EQUANS","maxPowerKw":0,"isMegawatt":false,"status":"AVAILABLE","source":"ndw"}},{"type":"Feature","geometry":{"type":"Point","coordinates":[4.721234,52.013824]},"properties":{"type":"charge","layer":"passenger","locationId":"90910670","name":"EQUANS SGZH 1.0 Burgemeester Martenssingel 13 (T.O)","address":"Burgemeester Martenssingel 13","city":"Gouda","operatorName":"EQUANS","maxPowerKw":0,"isMegawatt":false,"status":"CHARGING","source":"ndw"}},{"type":"Feature","geometry":{"type":"Point","coordinates":[4.700066,52.024324]},"properties":{"type":"charge","layer":"passenger","locationId":"89262064","name":"EQUANS SGZH 1.0 89262064","address":"Mercatorsingel 58","city":"Gouda","operatorName":"EQUANS","maxPowerKw":0,"isMegawatt":false,"status":"AVAILABLE","source":"ndw"}},{"type":"Feature","geometry":{"type":"Point","coordinates":[4.70648,52.03999]},"properties":{"type":"charge","layer":"passenger","locationId":"31350","name":"Fastned De Andel","address":"De Andel A12","city":"Reeuwijk","operatorName":"Fastned","maxPowerKw":150,"isMegawatt":false,"status":"AVAILABLE","source":"ndw","priceKwh":0.6364}},{"type":"Feature","geometry":{"type":"Point","coordinates":[4.713488,52.023135]},"properties":{"type":"charge","layer":"passenger","locationId":"89262106","name":"EQUANS SGZH 1.0 89262106","address":"Talmastraat 1","city":"Gouda","operatorName":"EQUANS","maxPowerKw":0,"isMegawatt":false,"status":"AVAILABLE","source":"ndw"}},{"type":"Feature","geometry":{"type":"Point","coordinates":[4.705092,52.012191]},"properties":{"type":"charge","layer":"passenger","locationId":"89249983","name":"EQUANS SGZH 2.0 89249983","address":"Nieuwehaven 312","city":"Gouda","operatorName":"EQUANS","maxPowerKw":0,"isMegawatt":false,"status":"CHARGING","source":"ndw"}},{"type":"Feature","geometry":{"type":"Point","coordinates":[4.673709,52.006741]},"properties":{"type":"charge","layer":"passenger","locationId":"90260034","name":"EQUANS SGZH 2.0 Burgemeester van Dijkesingel 186","address":"Burgemeester van Dijkesingel 186","city":"Gouda","operatorName":"EQUANS","maxPowerKw":0,"isMegawatt":false,"status":"AVAILABLE","source":"ndw"}},{"type":"Feature","geometry":{"type":"Point","coordinates":[4.709618,52.035293]},"properties":{"type":"charge","layer":"passenger","locationId":"90830523","name":"EQUANS SGZH 2.0 Groenlust 19","address":"Groenlust 19","city":"Gouda","operatorName":"EQUANS","maxPowerKw":0,"isMegawatt":false,"status":"AVAILABLE","source":"ndw"}},{"type":"Feature","geometry":{"type":"Point","coordinates":[4.726203,52.010307]},"properties":{"type":"charge","layer":"passenger","locationId":"90822370","name":"EQUANS SGZH 2.0 Nansenstraat 122 (t.h.v. von Suttnerstraat 28)","address":"Nansenstraat 122 (t.h.v. von Suttnerstraat 28","city":"Gouda","operatorName":"EQUANS","maxPowerKw":0,"isMegawatt":false,"status":"AVAILABLE","source":"ndw"}},{"type":"Feature","geometry":{"type":"Point","coordinates":[4.718309,52.008389]},"properties":{"type":"charge","layer":"passenger","locationId":"89187769","name":"EQUANS SGZH 2.0 89187769","address":"De Kwekerij 13","city":"Gouda","operatorName":"EQUANS","maxPowerKw":0,"isMegawatt":false,"status":"AVAILABLE","source":"ndw"}},{"type":"Feature","geometry":{"type":"Point","coordinates":[4.69788,52.01343]},"properties":{"type":"charge","layer":"passenger","locationId":"8d554a62-6ede-11ef-b726-42010aa400b8","name":"Eneco eMobility Holland Scherm B.V.","address":"Nijverheidsstraat 4","city":"Gouda","operatorName":"Eneco","maxPowerKw":150,"isMegawatt":false,"status":"AVAILABLE","source":"ndw","priceKwh":0.3}},{"type":"Feature","geometry":{"type":"Point","coordinates":[4.703983,52.02064]},"properties":{"type":"charge","layer":"passenger","locationId":"6a019c57cf536db2b9472080","name":"Bluelandweg (openbaar)","address":"Buchnerweg 5","city":"Gouda","operatorName":"E-Flux by Road","maxPowerKw":22,"isMegawatt":false,"status":"AVAILABLE","source":"ndw","priceKwh":0.53}},{"type":"Feature","geometry":{"type":"Point","coordinates":[4.703131,52.020405]},"properties":{"type":"charge","layer":"passenger","locationId":"89262065","name":"EQUANS SGZH 1.0 89262065","address":"Bleulandweg 12","city":"Gouda","operatorName":"EQUANS","maxPowerKw":0,"isMegawatt":false,"status":"AVAILABLE","source":"ndw"}},{"type":"Feature","geometry":{"type":"Point","coordinates":[4.67802,52.00643]},"properties":{"type":"charge","layer":"passenger","locationId":"91326273","name":"EQUANS SGZH 2.0 De Deel 31","address":"De Deel 31","city":"Gouda","operatorName":"EQUANS","maxPowerKw":0,"isMegawatt":false,"status":"AVAILABLE","source":"ndw"}},{"type":"Feature","geometry":{"type":"Point","coordinates":[4.736163,52.016013]},"properties":{"type":"charge","layer":"passenger","locationId":"89249994","name":"EQUANS SGZH 2.0 89249994","address":"Middenwillenseweg 73","city":"Gouda","operatorName":"EQUANS","maxPowerKw":0,"isMegawatt":false,"status":"AVAILABLE","source":"ndw"}},{"type":"Feature","geometry":{"type":"Point","coordinates":[4.679445,52.027608]},"properties":{"type":"charge","layer":"passenger","locationId":"b8773bb74611430d8070","name":"Campanile Hotel Gouda","address":"Kampenringweg 39-41","city":"Gouda","operatorName":"Opcharge","maxPowerKw":11,"isMegawatt":false,"status":"AVAILABLE","source":"ndw","priceKwh":0.49}},{"type":"Feature","geometry":{"type":"Point","coordinates":[4.694491,52.010703]},"properties":{"type":"charge","layer":"passenger","locationId":"90300345","name":"EQUANS SGZH 2.0 Koekoekplein 3","address":"Koekoekplein 3","city":"Gouda","operatorName":"EQUANS","maxPowerKw":0,"isMegawatt":false,"status":"AVAILABLE","source":"ndw"}},{"type":"Feature","geometry":{"type":"Point","coordinates":[4.698175,52.026308]},"properties":{"type":"charge","layer":"passenger","locationId":"90822427","name":"EQUANS SGZH 2.0 Heesterlaan 33","address":"Heesterlaan 33","city":"Gouda","operatorName":"EQUANS","maxPowerKw":0,"isMegawatt":false,"status":"AVAILABLE","source":"ndw"}},{"type":"Feature","geometry":{"type":"Point","coordinates":[4.711289,52.01438]},"properties":{"type":"charge","layer":"passenger","locationId":"311c7f4a-f55c-11ef-bf24-42010aa400b8","name":"Q-Park Gouda Nieuwe Markt","address":"Lem Dulstraat 3","city":"Gouda","operatorName":"Q-Park Netherlands","maxPowerKw":11,"isMegawatt":false,"status":"AVAILABLE","source":"ndw","priceKwh":0.55}},{"type":"Feature","geometry":{"type":"Point","coordinates":[4.700094,52.02771]},"properties":{"type":"charge","layer":"passenger","locationId":"89210081","name":"EQUANS SGZH 2.0 89210081","address":"Sneeuwbeslaan 2","city":"Gouda","operatorName":"EQUANS","maxPowerKw":0,"isMegawatt":false,"status":"AVAILABLE","source":"ndw"}},{"type":"Feature","geometry":{"type":"Point","coordinates":[4.745655,52.006084]},"properties":{"type":"charge","layer":"passenger","locationId":"89262136","name":"EQUANS SGZH 1.0 89262136","address":"Achthovenpolderpad 8","city":"Gouda","operatorName":"EQUANS","maxPowerKw":0,"isMegawatt":false,"status":"CHARGING","source":"ndw"}},{"type":"Feature","geometry":{"type":"Point","coordinates":[4.705751,52.032326]},"properties":{"type":"charge","layer":"passenger","locationId":"90278991","name":"EQUANS SGZH 2.0 Lekkenburg 150","address":"Lekkenburg 150","city":"Gouda","operatorName":"EQUANS","maxPowerKw":0,"isMegawatt":false,"status":"AVAILABLE","source":"ndw"}},{"type":"Feature","geometry":{"type":"Point","coordinates":[4.701735,52.035915]},"properties":{"type":"charge","layer":"passenger","locationId":"128191ea-b1bb-11ef-a8e9-42010aa400b8","name":"EQUANS SGZH 2.0 Noordhoef 169","address":"Noordhoef 169","city":"Gouda","operatorName":"EQUANS","maxPowerKw":0,"isMegawatt":false,"status":"AVAILABLE","source":"ndw","priceKwh":0.37}},{"type":"Feature","geometry":{"type":"Point","coordinates":[4.704151,52.024]},"properties":{"type":"charge","layer":"passenger","locationId":"1ee2acec-e92e-11ec-bc36-42010aa40fc0","name":"EQUANS SGZH 1.0 Eerste Abel Tasmanhof 1","address":"Eerste Abel Tasmanhof 1","city":"Gouda","operatorName":"EQUANS","maxPowerKw":0,"isMegawatt":false,"status":"AVAILABLE","source":"ndw","priceKwh":0.34}},{"type":"Feature","geometry":{"type":"Point","coordinates":[4.679293,52.003363]},"properties":{"type":"charge","layer":"passenger","locationId":"782b4980-0575-11ee-ada1-42010aa40fc0","name":"EQUANS SGZH 2.0 89641444","address":"Buitenstuk 3","city":"Gouda","operatorName":"EQUANS","maxPowerKw":0,"isMegawatt":false,"status":"AVAILABLE","source":"ndw","priceKwh":0.37}},{"type":"Feature","geometry":{"type":"Point","coordinates":[4.708791,52.012062]},"properties":{"type":"charge","layer":"passenger","locationId":"8a4a3ff2-80a2-11ed-bd60-42010aa40fc0","name":"EQUANS SGZH 1.0 89262037","address":"Naaierstraat 25","city":"Gouda","operatorName":"EQUANS","maxPowerKw":0,"isMegawatt":false,"status":"AVAILABLE","source":"ndw","priceKwh":0.34}},{"type":"Feature","geometry":{"type":"Point","coordinates":[4.722905,52.017697]},"properties":{"type":"charge","layer":"passenger","locationId":"a19734ec-31a4-11ec-9167-42010a840068","name":"EQUANS SGZH 1.0 89262108","address":"Tristanstraat / hoek Zwarteweg 3","city":"Gouda","operatorName":"EQUANS","maxPowerKw":0,"isMegawatt":false,"status":"AVAILABLE","source":"ndw","priceKwh":0.34}},{"type":"Feature","geometry":{"type":"Point","coordinates":[4.726274,52.009264]},"properties":{"type":"charge","layer":"passenger","locationId":"aa949500-14ef-11e9-88ab-42010a840014","name":"EQUANS SGZH 1.0 89262124","address":"Goejanverwelledijk 4","city":"Gouda","operatorName":"EQUANS","maxPowerKw":0,"isMegawatt":false,"status":"AVAILABLE","source":"ndw","priceKwh":0.34}},{"type":"Feature","geometry":{"type":"Point","coordinates":[4.740979,52.01569]},"properties":{"type":"charge","layer":"passenger","locationId":"b67aa5dc-5e3f-11ee-aaba-42010aa40fc0","name":"EQUANS SGZH 2.0 89445014","address":"Vlinderpad 34","city":"Gouda","operatorName":"EQUANS","maxPowerKw":0,"isMegawatt":false,"status":"AVAILABLE","source":"ndw","priceKwh":0.37}},{"type":"Feature","geometry":{"type":"Point","coordinates":[4.736866,52.015946]},"properties":{"type":"charge","layer":"passenger","locationId":"2a05248e-d927-11e9-869f-42010a840015","name":"EQUANS SGZH 1.0 89262110","address":"Middenwillenseweg 85","city":"Gouda","operatorName":"EQUANS","maxPowerKw":0,"isMegawatt":false,"status":"AVAILABLE","source":"ndw","priceKwh":0.34}},{"type":"Feature","geometry":{"type":"Point","coordinates":[4.695309,52.019586]},"properties":{"type":"charge","layer":"passenger","locationId":"37b49022-df99-11eb-95d3-42010a840003","name":"EQUANS SGZH 1.0 89052506","address":"Anna van Hensbeeksingel 253","city":"Gouda","operatorName":"EQUANS","maxPowerKw":0,"isMegawatt":false,"status":"UNAVAILABLE","source":"ndw","priceKwh":0.34}},{"type":"Feature","geometry":{"type":"Point","coordinates":[4.706706,52.009226]},"properties":{"type":"charge","layer":"passenger","locationId":"47917fac-620f-11ec-8fd5-42010a840003","name":"EQUANS SGZH 1.0 89105560","address":"Raam 73","city":"Gouda","operatorName":"EQUANS","maxPowerKw":0,"isMegawatt":false,"status":"AVAILABLE","source":"ndw","priceKwh":0.34}},{"type":"Feature","geometry":{"type":"Point","coordinates":[4.692851,52.030134]},"properties":{"type":"charge","layer":"passenger","locationId":"5da10174-bdc2-11eb-ad67-42010a840003","name":"EQUANS SGZH 1.0 89262067","address":"Denneweg 11","city":"Gouda","operatorName":"EQUANS","maxPowerKw":0,"isMegawatt":false,"status":"AVAILABLE","source":"ndw","priceKwh":0.34}},{"type":"Feature","geometry":{"type":"Point","coordinates":[4.727248,52.016786]},"properties":{"type":"charge","layer":"passenger","locationId":"6741dece-1a7d-11ed-88f7-42010aa40fc0","name":"EQUANS SGZH 2.0 89291631","address":"Merlijnstraat 78","city":"Gouda","operatorName":"EQUANS","maxPowerKw":0,"isMegawatt":false,"status":"AVAILABLE","source":"ndw","priceKwh":0.37}},{"type":"Feature","geometry":{"type":"Point","coordinates":[4.690216,52.022632]},"properties":{"type":"charge","layer":"passenger","locationId":"a36d0fc4-44b2-11eb-8350-42010a840003","name":"EQUANS SGZH 1.0 Laadplein Groenheuvel","address":"Heuvellaan 1","city":"Gouda","operatorName":"EQUANS","maxPowerKw":0,"isMegawatt":false,"status":"AVAILABLE","source":"ndw","priceKwh":0.34}},{"type":"Feature","geometry":{"type":"Point","coordinates":[4.703131,52.020405]},"properties":{"type":"charge","layer":"passenger","locationId":"d786ff76-6851-11e8-9fd1-42010a840002","name":"EQUANS SGZH 1.0 89262065","address":"Bleulandweg 12","city":"Gouda","operatorName":"EQUANS","maxPowerKw":0,"isMegawatt":false,"status":"AVAILABLE","source":"ndw","priceKwh":0.34}},{"type":"Feature","geometry":{"type":"Point","coordinates":[4.709409,52.020925]},"properties":{"type":"charge","layer":"passenger","locationId":"da83b1c0-4f3c-11e8-b176-42010a840002","name":"EQUANS SGZH 1.0 89262095","address":"Van Limburg Stirumstraat 17","city":"Gouda","operatorName":"EQUANS","maxPowerKw":0,"isMegawatt":false,"status":"AVAILABLE","source":"ndw","priceKwh":0.34}},{"type":"Feature","geometry":{"type":"Point","coordinates":[4.677791,52.003629]},"properties":{"type":"charge","layer":"passenger","locationId":"dcec65e2-0c2e-11ee-9e27-42010aa40fc0","name":"EQUANS SGZH 2.0 89228371","address":"Moestuin 6","city":"Gouda","operatorName":"EQUANS","maxPowerKw":0,"isMegawatt":false,"status":"AVAILABLE","source":"ndw","priceKwh":0.37}},{"type":"Feature","geometry":{"type":"Point","coordinates":[4.71495,52.015997]},"properties":{"type":"charge","layer":"passenger","locationId":"eaaf4af0-9698-11ea-a7ca-42010a840fc9","name":"EQUANS SGZH 1.0 89262126","address":"Eerste Kade 71","city":"Gouda","operatorName":"EQUANS","maxPowerKw":0,"isMegawatt":false,"status":"AVAILABLE","source":"ndw","priceKwh":0.34}},{"type":"Feature","geometry":{"type":"Point","coordinates":[4.721234,52.013824]},"properties":{"type":"charge","layer":"passenger","locationId":"f6066400-8cfe-11e9-9af9-42010a840011","name":"EQUANS SGZH 1.0 Burgemeester Martenssingel 13 (T.O)","address":"Burgemeester Martenssingel 13","city":"Gouda","operatorName":"EQUANS","maxPowerKw":0,"isMegawatt":false,"status":"CHARGING","source":"ndw","priceKwh":0.34}},{"type":"Feature","geometry":{"type":"Point","coordinates":[4.741069,52.013749]},"properties":{"type":"charge","layer":"passenger","locationId":"90260102","name":"EQUANS SGZH 2.0 Symfonielaan 41","address":"Symfonielaan 41","city":"Gouda","operatorName":"EQUANS","maxPowerKw":0,"isMegawatt":false,"status":"AVAILABLE","source":"ndw"}},{"type":"Feature","geometry":{"type":"Point","coordinates":[4.742995,52.013378]},"properties":{"type":"charge","layer":"passenger","locationId":"6a1ff13693438dfa5ebd36db","name":"Fempowerment Gouda","address":"Ouverturelaan 2","city":"Gouda","operatorName":"E-Flux by Road","maxPowerKw":14,"isMegawatt":false,"status":"AVAILABLE","source":"ndw","priceKwh":0.73}},{"type":"Feature","geometry":{"type":"Point","coordinates":[4.711118,52.003833]},"properties":{"type":"charge","layer":"passenger","locationId":"4242715","name":"Laadnet Gebroeders Bakker Groente en Fruit","address":"Gouderaksedijk 66A","city":"Gouda","operatorName":"Laadnet","maxPowerKw":22,"isMegawatt":false,"status":"AVAILABLE","source":"ndw"}},{"type":"Feature","geometry":{"type":"Point","coordinates":[4.689207,52.030113]},"properties":{"type":"charge","layer":"passenger","locationId":"89262073","name":"EQUANS SGZH 1.0 89262073","address":"Akeleistraat 8","city":"Gouda","operatorName":"EQUANS","maxPowerKw":0,"isMegawatt":false,"status":"AVAILABLE","source":"ndw"}},{"type":"Feature","geometry":{"type":"Point","coordinates":[4.754055,52.006604]},"properties":{"type":"charge","layer":"passenger","locationId":"09fcdc80-4e73-11e8-bdec-42010a840002","name":"EQUANS SGZH 1.0 89262142","address":"Romerostraat 28","city":"Gouda","operatorName":"EQUANS","maxPowerKw":0,"isMegawatt":false,"status":"AVAILABLE","source":"ndw","priceKwh":0.34}},{"type":"Feature","geometry":{"type":"Point","coordinates":[4.688752,52.027566]},"properties":{"type":"charge","layer":"passenger","locationId":"147929d6-608e-11eb-aa34-42010a840022","name":"EQUANS SGZH 1.0 89262075","address":"Plataanstraat 42","city":"Gouda","operatorName":"EQUANS","maxPowerKw":0,"isMegawatt":false,"status":"AVAILABLE","source":"ndw","priceKwh":0.34}},{"type":"Feature","geometry":{"type":"Point","coordinates":[4.731268,52.011823]},"properties":{"type":"charge","layer":"passenger","locationId":"427e90b6-42a4-11ec-a893-42010a840003","name":"EQUANS SGZH 2.0 89146501","address":"Verzetslaan 10","city":"Gouda","operatorName":"EQUANS","maxPowerKw":0,"isMegawatt":false,"status":"AVAILABLE","source":"ndw","priceKwh":0.37}},{"type":"Feature","geometry":{"type":"Point","coordinates":[4.744254,52.007024]},"properties":{"type":"charge","layer":"passenger","locationId":"67d04442-fe8d-11ea-9f64-42010a840fef","name":"EQUANS SGZH 1.0 89262143","address":"Middenmolenlaan 16","city":"Gouda","operatorName":"EQUANS","maxPowerKw":0,"isMegawatt":false,"status":"AVAILABLE","source":"ndw","priceKwh":0.34}},{"type":"Feature","geometry":{"type":"Point","coordinates":[4.72024,52.0099]},"properties":{"type":"charge","layer":"passenger","locationId":"ea03bd66-043e-11f0-82c7-42010aa400b8","name":"EQUANS SGZH 2.0 de la Reylaan 2","address":"de la Reylaan 2","city":"Gouda","operatorName":"EQUANS","maxPowerKw":0,"isMegawatt":false,"status":"AVAILABLE","source":"ndw","priceKwh":0.37}},{"type":"Feature","geometry":{"type":"Point","coordinates":[4.708122,52.025351]},"properties":{"type":"charge","layer":"passenger","locationId":"89262088","name":"EQUANS SGZH 1.0 89262088","address":"Calslaan 2","city":"Gouda","operatorName":"EQUANS","maxPowerKw":0,"isMegawatt":false,"status":"CHARGING","source":"ndw"}},{"type":"Feature","geometry":{"type":"Point","coordinates":[4.695822,52.021929]},"properties":{"type":"charge","layer":"passenger","locationId":"89301053","name":"EQUANS SGZH 1.0 89301053","address":"Magalhaeslaan 12","city":"Gouda","operatorName":"EQUANS","maxPowerKw":0,"isMegawatt":false,"status":"CHARGING","source":"ndw"}},{"type":"Feature","geometry":{"type":"Point","coordinates":[4.71417,52.01973]},"properties":{"type":"charge","layer":"passenger","locationId":"90273562","name":"EQUANS SGZH 2.0 Jozefhof 424","address":"Jozefhof 424","city":"Gouda","operatorName":"EQUANS","maxPowerKw":0,"isMegawatt":false,"status":"AVAILABLE","source":"ndw"}},{"type":"Feature","geometry":{"type":"Point","coordinates":[4.70147,52.00693]},"properties":{"type":"charge","layer":"passenger","locationId":"91357631","name":"EQUANS SGZH 2.0 Herenstraat 72","address":"Herenstraat 72","city":"Gouda","operatorName":"EQUANS","maxPowerKw":0,"isMegawatt":false,"status":"AVAILABLE","source":"ndw"}},{"type":"Feature","geometry":{"type":"Point","coordinates":[4.675602,52.024723]},"properties":{"type":"charge","layer":"passenger","locationId":"89262071","name":"EQUANS SGZH 1.0 89262071","address":"Elburgplein 1","city":"Gouda","operatorName":"EQUANS","maxPowerKw":0,"isMegawatt":false,"status":"AVAILABLE","source":"ndw"}},{"type":"Feature","geometry":{"type":"Point","coordinates":[4.722262,52.014176]},"properties":{"type":"charge","layer":"passenger","locationId":"89262116","name":"EQUANS SGZH 1.0 89262116","address":"Krugerlaan 18","city":"Gouda","operatorName":"EQUANS","maxPowerKw":0,"isMegawatt":false,"status":"AVAILABLE","source":"ndw"}},{"type":"Feature","geometry":{"type":"Point","coordinates":[4.754055,52.006604]},"properties":{"type":"charge","layer":"passenger","locationId":"89262142","name":"EQUANS SGZH 1.0 89262142","address":"Romerostraat 28","city":"Gouda","operatorName":"EQUANS","maxPowerKw":0,"isMegawatt":false,"status":"CHARGING","source":"ndw"}},{"type":"Feature","geometry":{"type":"Point","coordinates":[4.74816,52.013279]},"properties":{"type":"charge","layer":"passenger","locationId":"0ee1461c-0f7e-11ec-9b1c-42010a840003","name":"EQUANS SGZH 1.0 89090311","address":"Satiehof - Componistenlaan 99","city":"Gouda","operatorName":"EQUANS","maxPowerKw":0,"isMegawatt":false,"status":"AVAILABLE","source":"ndw","priceKwh":0.34}},{"type":"Feature","geometry":{"type":"Point","coordinates":[4.707364,52.008999]},"properties":{"type":"charge","layer":"passenger","locationId":"318ef68a-9868-11ee-a937-42010aa40fc0","name":"EQUANS SGZH 2.0 Raam 81 A","address":"Raam 81 A","city":"Gouda","operatorName":"EQUANS","maxPowerKw":0,"isMegawatt":false,"status":"AVAILABLE","source":"ndw","priceKwh":0.37}},{"type":"Feature","geometry":{"type":"Point","coordinates":[4.708065,52.014147]},"properties":{"type":"charge","layer":"passenger","locationId":"a00e715a-d9ce-11ef-bb14-42010aa400b8","name":"EQUANS SGZH 2.0 Herpstraat 3","address":"Herpstraat 3","city":"Gouda","operatorName":"EQUANS","maxPowerKw":0,"isMegawatt":false,"status":"AVAILABLE","source":"ndw","priceKwh":0.37}},{"type":"Feature","geometry":{"type":"Point","coordinates":[4.706183,52.02925]},"properties":{"type":"charge","layer":"passenger","locationId":"c771369c-76a4-11eb-9119-42010a840043","name":"EQUANS SGZH 1.0 89262084","address":"Cronestein 21","city":"Gouda","operatorName":"EQUANS","maxPowerKw":0,"isMegawatt":false,"status":"AVAILABLE","source":"ndw","priceKwh":0.34}},{"type":"Feature","geometry":{"type":"Point","coordinates":[4.723511,52.020117]},"properties":{"type":"charge","layer":"passenger","locationId":"126b478a-4e73-11e8-a336-42010a840002","name":"EQUANS SGZH 1.0 89262097","address":"Dijkgraafslag 27","city":"Gouda","operatorName":"EQUANS","maxPowerKw":0,"isMegawatt":false,"status":"CHARGING","source":"ndw","priceKwh":0.34}},{"type":"Feature","geometry":{"type":"Point","coordinates":[4.705715,52.036299]},"properties":{"type":"charge","layer":"passenger","locationId":"64a9000e-8c02-11ef-8955-42010aa400b8","name":"EQUANS SGZH 2.0 Negenhoeven 2","address":"Negenhoeven 2","city":"Gouda","operatorName":"EQUANS","maxPowerKw":0,"isMegawatt":false,"status":"AVAILABLE","source":"ndw","priceKwh":0.37}},{"type":"Feature","geometry":{"type":"Point","coordinates":[4.69771,52.010893]},"properties":{"type":"charge","layer":"passenger","locationId":"65065f2a-bc6f-11ec-b731-42010a840003","name":"EQUANS SGZH 2.0 89160225","address":"Onder de Boompjes 62","city":"Gouda","operatorName":"EQUANS","maxPowerKw":0,"isMegawatt":false,"status":"AVAILABLE","source":"ndw","priceKwh":0.37}},{"type":"Feature","geometry":{"type":"Point","coordinates":[4.694141,52.025836]},"properties":{"type":"charge","layer":"passenger","locationId":"6fa156fc-e5b1-11e9-b6d6-42010a840012","name":"EQUANS SGZH 1.0 89262059","address":"Kamperfoelielaan 91","city":"Gouda","operatorName":"EQUANS","maxPowerKw":0,"isMegawatt":false,"status":"AVAILABLE","source":"ndw","priceKwh":0.34}},{"type":"Feature","geometry":{"type":"Point","coordinates":[4.705751,52.032326]},"properties":{"type":"charge","layer":"passenger","locationId":"b684e97a-21ee-11ef-b127-42010aa400b8","name":"EQUANS SGZH 2.0 Lekkenburg 150","address":"Lekkenburg 150","city":"Gouda","operatorName":"EQUANS","maxPowerKw":0,"isMegawatt":false,"status":"AVAILABLE","source":"ndw","priceKwh":0.37}},{"type":"Feature","geometry":{"type":"Point","coordinates":[4.712047,52.024016]},"properties":{"type":"charge","layer":"passenger","locationId":"b6dcfc02-50ce-11e8-8222-42010a840002","name":"EQUANS SGZH 1.0 89262105","address":"Heemskerkstraat 16","city":"Gouda","operatorName":"EQUANS","maxPowerKw":0,"isMegawatt":false,"status":"AVAILABLE","source":"ndw","priceKwh":0.34}},{"type":"Feature","geometry":{"type":"Point","coordinates":[4.727595,52.013298]},"properties":{"type":"charge","layer":"passenger","locationId":"b7815cf8-540a-11ee-bc19-42010aa40fc0","name":"EQUANS SGZH 2.0 89885264","address":"Bernadottelaan 134","city":"Gouda","operatorName":"EQUANS","maxPowerKw":0,"isMegawatt":false,"status":"AVAILABLE","source":"ndw","priceKwh":0.37}},{"type":"Feature","geometry":{"type":"Point","coordinates":[4.708082,52.01888]},"properties":{"type":"charge","layer":"passenger","locationId":"d2de6a0a-4f3c-11e8-999e-42010a840002","name":"EQUANS SGZH 1.0 89262079","address":"Ronsseweg 220","city":"Gouda","operatorName":"EQUANS","maxPowerKw":0,"isMegawatt":false,"status":"AVAILABLE","source":"ndw","priceKwh":0.34}},{"type":"Feature","geometry":{"type":"Point","coordinates":[4.675729,52.024066]},"properties":{"type":"charge","layer":"passenger","locationId":"d738ff3e-e088-11ec-ab8d-42010aa40fc0","name":"EQUANS SGZH 2.0 89241527","address":"Hanzeweg 21","city":"Gouda","operatorName":"EQUANS","maxPowerKw":0,"isMegawatt":false,"status":"CHARGING","source":"ndw","priceKwh":0.37}},{"type":"Feature","geometry":{"type":"Point","coordinates":[4.720023,52.018818]},"properties":{"type":"charge","layer":"passenger","locationId":"d76b05be-6851-11e8-808b-42010a840002","name":"EQUANS SGZH 1.0 89262094","address":"Graaf Florisweg 135","city":"Gouda","operatorName":"EQUANS","maxPowerKw":0,"isMegawatt":false,"status":"CHARGING","source":"ndw","priceKwh":0.34}},{"type":"Feature","geometry":{"type":"Point","coordinates":[4.694491,52.010703]},"properties":{"type":"charge","layer":"passenger","locationId":"e76a4d1c-34c9-11ef-a76b-42010aa400b8","name":"EQUANS SGZH 2.0 Koekoekplein 3","address":"Koekoekplein 3","city":"Gouda","operatorName":"EQUANS","maxPowerKw":0,"isMegawatt":false,"status":"AVAILABLE","source":"ndw","priceKwh":0.37}},{"type":"Feature","geometry":{"type":"Point","coordinates":[4.688785,52.00063]},"properties":{"type":"charge","layer":"passenger","locationId":"4d77ad44-7379-11ec-91cd-42010a840003","name":"EQUANS SGZH 1.0 89262150","address":"ijsseloogwal 55","city":"Gouda","operatorName":"EQUANS","maxPowerKw":0,"isMegawatt":false,"status":"AVAILABLE","source":"ndw","priceKwh":0.34}},{"type":"Feature","geometry":{"type":"Point","coordinates":[4.705098,52.013817]},"properties":{"type":"charge","layer":"passenger","locationId":"8671e1de-9204-11eb-a396-42010a840063","name":"EQUANS SGZH 1.0 89262046","address":"Van Swietenstraat 1","city":"Gouda","operatorName":"EQUANS","maxPowerKw":0,"isMegawatt":false,"status":"AVAILABLE","source":"ndw","priceKwh":0.34}},{"type":"Feature","geometry":{"type":"Point","coordinates":[4.724956,52.012213]},"properties":{"type":"charge","layer":"passenger","locationId":"942256c6-6bca-11ef-a646-42010aa400b8","name":"EQUANS SGZH 2.0 Nansenstraat 40","address":"Nansenstraat 40","city":"Gouda","operatorName":"EQUANS","maxPowerKw":0,"isMegawatt":false,"status":"AVAILABLE","source":"ndw","priceKwh":0.37}},{"type":"Feature","geometry":{"type":"Point","coordinates":[4.710811,52.017285]},"properties":{"type":"charge","layer":"passenger","locationId":"a423d844-44b2-11eb-be73-42010a840003","name":"EQUANS SGZH 1.0 Laadplein Vossenburchkade","address":"Graaf Florisweg 12","city":"Gouda","operatorName":"EQUANS","maxPowerKw":0,"isMegawatt":false,"status":"AVAILABLE","source":"ndw","priceKwh":0.34}},{"type":"Feature","geometry":{"type":"Point","coordinates":[4.72039,52.01677]},"properties":{"type":"charge","layer":"passenger","locationId":"c2589808-bd39-11ec-b910-42010a840003","name":"EQUANS SGZH 2.0 89195394","address":"Vossenburchkade 120","city":"Gouda","operatorName":"EQUANS","maxPowerKw":0,"isMegawatt":false,"status":"AVAILABLE","source":"ndw","priceKwh":0.37}},{"type":"Feature","geometry":{"type":"Point","coordinates":[4.701411,52.021159]},"properties":{"type":"charge","layer":"passenger","locationId":"14258002-54cb-11eb-b3b1-42010a840060","name":"EQUANS SGZH 1.0 89262081","address":"Bleulandweg 172","city":"Gouda","operatorName":"EQUANS","maxPowerKw":0,"isMegawatt":false,"status":"CHARGING","source":"ndw","priceKwh":0.34}},{"type":"Feature","geometry":{"type":"Point","coordinates":[4.702188,52.033253]},"properties":{"type":"charge","layer":"passenger","locationId":"14e2f0c2-bade-11ec-91d9-42010a840003","name":"EQUANS SGZH 2.0 89187771","address":"Westhoef 1","city":"Gouda","operatorName":"EQUANS","maxPowerKw":0,"isMegawatt":false,"status":"CHARGING","source":"ndw","priceKwh":0.37}},{"type":"Feature","geometry":{"type":"Point","coordinates":[4.720202,52.021393]},"properties":{"type":"charge","layer":"passenger","locationId":"3731be36-4f3c-11e8-81fd-42010a840002","name":"EQUANS SGZH 1.0 89262099","address":"Burgvlietkade 102","city":"Gouda","operatorName":"EQUANS","maxPowerKw":0,"isMegawatt":false,"status":"AVAILABLE","source":"ndw","priceKwh":0.34}},{"type":"Feature","geometry":{"type":"Point","coordinates":[4.716067,52.011869]},"properties":{"type":"charge","layer":"passenger","locationId":"44678aaa-37ec-11ef-b813-42010aa400b8","name":"EQUANS SGZH 2.0 Klein Amerika 24","address":"Klein Amerika 24","city":"Gouda","operatorName":"EQUANS","maxPowerKw":0,"isMegawatt":false,"status":"AVAILABLE","source":"ndw","priceKwh":0.37}},{"type":"Feature","geometry":{"type":"Point","coordinates":[4.713618,52.016512]},"properties":{"type":"charge","layer":"passenger","locationId":"48011a4a-4f3c-11e8-9f4d-42010a840002","name":"EQUANS SGZH 1.0 89262125","address":"Jan Luykenstraat 66","city":"Gouda","operatorName":"EQUANS","maxPowerKw":0,"isMegawatt":false,"status":"AVAILABLE","source":"ndw","priceKwh":0.34}},{"type":"Feature","geometry":{"type":"Point","coordinates":[4.699427,52.032457]},"properties":{"type":"charge","layer":"passenger","locationId":"610df95a-b802-11ef-ad2e-42010aa400b8","name":"EQUANS SGZH 2.0 Veenzoom 85","address":"Veenzoom 85","city":"Gouda","operatorName":"EQUANS","maxPowerKw":0,"isMegawatt":false,"status":"AVAILABLE","source":"ndw","priceKwh":0.37}},{"type":"Feature","geometry":{"type":"Point","coordinates":[4.747061,52.009241]},"properties":{"type":"charge","layer":"passenger","locationId":"61f227c2-f77f-11ee-ae5a-42010aa400b8","name":"EQUANS SGZH 2.0 Oranjepoldererf 48","address":"Oranjepoldererf 48","city":"Gouda","operatorName":"EQUANS","maxPowerKw":0,"isMegawatt":false,"status":"AVAILABLE","source":"ndw","priceKwh":0.37}},{"type":"Feature","geometry":{"type":"Point","coordinates":[4.716697,52.015153]},"properties":{"type":"charge","layer":"passenger","locationId":"7e750e54-3c52-11ec-b807-42010a840003","name":"EQUANS SGZH 1.0 89052515","address":"Eerste Hieronymus van Alphenstraat 98","city":"Gouda","operatorName":"EQUANS","maxPowerKw":0,"isMegawatt":false,"status":"AVAILABLE","source":"ndw","priceKwh":0.34}},{"type":"Feature","geometry":{"type":"Point","coordinates":[4.711343,52.029145]},"properties":{"type":"charge","layer":"passenger","locationId":"a6e8bb54-a1c1-11ec-96a7-42010a840003","name":"EQUANS SGZH 2.0 89205183","address":"Woudestein 20","city":"Gouda","operatorName":"EQUANS","maxPowerKw":0,"isMegawatt":false,"status":"AVAILABLE","source":"ndw","priceKwh":0.37}},{"type":"Feature","geometry":{"type":"Point","coordinates":[4.70022,52.02058]},"properties":{"type":"charge","layer":"passenger","locationId":"ae8e4454-cece-11ef-a72f-42010aa400b8","name":"EQUANS SGZH 2.0 Bleulandweg 336","address":"Bleulandweg 336","city":"Gouda","operatorName":"EQUANS","maxPowerKw":0,"isMegawatt":false,"status":"AVAILABLE","source":"ndw","priceKwh":0.37}},{"type":"Feature","geometry":{"type":"Point","coordinates":[4.711629,52.007032]},"properties":{"type":"charge","layer":"passenger","locationId":"b42929f2-8932-11e9-bcf6-42010a84003c","name":"EQUANS SGZH 1.0 89262039","address":"Bogen 59","city":"Gouda","operatorName":"EQUANS","maxPowerKw":0,"isMegawatt":false,"status":"AVAILABLE","source":"ndw","priceKwh":0.34}},{"type":"Feature","geometry":{"type":"Point","coordinates":[4.712056,52.030218]},"properties":{"type":"charge","layer":"passenger","locationId":"d0c2de26-6851-11e8-8764-42010a840002","name":"EQUANS SGZH 1.0 89262085","address":"Weerestein 58","city":"Gouda","operatorName":"EQUANS","maxPowerKw":0,"isMegawatt":false,"status":"AVAILABLE","source":"ndw","priceKwh":0.34}},{"type":"Feature","geometry":{"type":"Point","coordinates":[4.708122,52.025351]},"properties":{"type":"charge","layer":"passenger","locationId":"d75eec12-4f3c-11e8-b272-42010a840002","name":"EQUANS SGZH 1.0 89262088","address":"Calslaan 2","city":"Gouda","operatorName":"EQUANS","maxPowerKw":0,"isMegawatt":false,"status":"AVAILABLE","source":"ndw","priceKwh":0.34}},{"type":"Feature","geometry":{"type":"Point","coordinates":[4.750652,52.010119]},"properties":{"type":"charge","layer":"passenger","locationId":"e703beee-34c9-11ef-96a2-42010aa400b8","name":"EQUANS SGZH 2.0 Watergangpolderplein 14","address":"Watergangpolderplein 14","city":"Gouda","operatorName":"EQUANS","maxPowerKw":0,"isMegawatt":false,"status":"AVAILABLE","source":"ndw","priceKwh":0.37}},{"type":"Feature","geometry":{"type":"Point","coordinates":[4.707421,52.007226]},"properties":{"type":"charge","layer":"passenger","locationId":"f08e581c-4f3c-11e8-b4c5-42010a840002","name":"EQUANS SGZH 1.0 89262050","address":"Turfsingel 71","city":"Gouda","operatorName":"EQUANS","maxPowerKw":0,"isMegawatt":false,"status":"AVAILABLE","source":"ndw","priceKwh":0.34}},{"type":"Feature","geometry":{"type":"Point","coordinates":[4.70266,52.02898]},"properties":{"type":"charge","layer":"passenger","locationId":"f94f7a84-295d-11e9-8d8d-42010a84001f","name":"EQUANS SGZH 1.0 89262082","address":"Catsveld 36","city":"Gouda","operatorName":"EQUANS","maxPowerKw":0,"isMegawatt":false,"status":"AVAILABLE","source":"ndw","priceKwh":0.34}},{"type":"Feature","geometry":{"type":"Point","coordinates":[4.689207,52.030113]},"properties":{"type":"charge","layer":"passenger","locationId":"032979da-541b-11eb-a486-42010a840036","name":"EQUANS SGZH 1.0 89262073","address":"Akeleistraat 8","city":"Gouda","operatorName":"EQUANS","maxPowerKw":0,"isMegawatt":false,"status":"AVAILABLE","source":"ndw","priceKwh":0.34}},{"type":"Feature","geometry":{"type":"Point","coordinates":[4.708803,52.013095]},"properties":{"type":"charge","layer":"passenger","locationId":"13a651b0-c2bb-11ec-b5d1-42010a840003","name":"EQUANS SGZH 2.0 89221174","address":"Slapperdel 20","city":"Gouda","operatorName":"EQUANS","maxPowerKw":0,"isMegawatt":false,"status":"AVAILABLE","source":"ndw","priceKwh":0.37}},{"type":"Feature","geometry":{"type":"Point","coordinates":[4.709328,52.038085]},"properties":{"type":"charge","layer":"passenger","locationId":"16c0624e-5b4a-11ef-8931-42010aa400b8","name":"EQUANS SGZH 2.0 Akkerlust 15","address":"Akkerlust 15","city":"Gouda","operatorName":"EQUANS","maxPowerKw":0,"isMegawatt":false,"status":"AVAILABLE","source":"ndw","priceKwh":0.37}},{"type":"Feature","geometry":{"type":"Point","coordinates":[4.7073,52.036438]},"properties":{"type":"charge","layer":"passenger","locationId":"54dd4a3a-a4e3-11ec-91b8-42010a840003","name":"EQUANS SGZH 1.0 89105165","address":"Geertruida Hoeve 1","city":"Gouda","operatorName":"EQUANS","maxPowerKw":0,"isMegawatt":false,"status":"AVAILABLE","source":"ndw","priceKwh":0.34}},{"type":"Feature","geometry":{"type":"Point","coordinates":[4.715896,52.012099]},"properties":{"type":"charge","layer":"passenger","locationId":"5af31e7e-c6fa-11e8-afb0-42010a840002","name":"EQUANS SGZH 1.0 89262113","address":"Klein Amerika 20","city":"Gouda","operatorName":"EQUANS","maxPowerKw":0,"isMegawatt":false,"status":"CHARGING","source":"ndw","priceKwh":0.34}},{"type":"Feature","geometry":{"type":"Point","coordinates":[4.698175,52.026308]},"properties":{"type":"charge","layer":"passenger","locationId":"741f0e54-9182-11ef-85cb-42010aa400b8","name":"EQUANS SGZH 2.0 Heesterlaan 33","address":"Heesterlaan 33","city":"Gouda","operatorName":"EQUANS","maxPowerKw":0,"isMegawatt":false,"status":"AVAILABLE","source":"ndw","priceKwh":0.37}},{"type":"Feature","geometry":{"type":"Point","coordinates":[4.731544,52.013943]},"properties":{"type":"charge","layer":"passenger","locationId":"961fa440-c9e0-11eb-9b55-42010a840006","name":"EQUANS SGZH 1.0 89262121","address":"Brandsmastraat 1","city":"Gouda","operatorName":"EQUANS","maxPowerKw":0,"isMegawatt":false,"status":"AVAILABLE","source":"ndw","priceKwh":0.34}},{"type":"Feature","geometry":{"type":"Point","coordinates":[4.67269,52.00698]},"properties":{"type":"charge","layer":"passenger","locationId":"a271f006-e406-11ef-8c92-42010aa400b8","name":"EQUANS SGZH 2.0 Burgemeester van Dijkesingel 210 b","address":"Burgemeester van Dijkesingel 210 b","city":"Gouda","operatorName":"EQUANS","maxPowerKw":0,"isMegawatt":false,"status":"AVAILABLE","source":"ndw","priceKwh":0.37}},{"type":"Feature","geometry":{"type":"Point","coordinates":[4.701729,52.006696]},"properties":{"type":"charge","layer":"passenger","locationId":"ba6287ac-a1bf-11ec-8fce-42010a840003","name":"EQUANS SGZH 1.0 89154158","address":"Herenstraat 72","city":"Gouda","operatorName":"EQUANS","maxPowerKw":0,"isMegawatt":false,"status":"AVAILABLE","source":"ndw","priceKwh":0.34}},{"type":"Feature","geometry":{"type":"Point","coordinates":[4.69771,52.010893]},"properties":{"type":"charge","layer":"passenger","locationId":"89160225","name":"EQUANS SGZH 2.0 89160225","address":"Onder de Boompjes 62","city":"Gouda","operatorName":"EQUANS","maxPowerKw":0,"isMegawatt":false,"status":"AVAILABLE","source":"ndw"}},{"type":"Feature","geometry":{"type":"Point","coordinates":[4.736661,52.013328]},"properties":{"type":"charge","layer":"passenger","locationId":"90360702","name":"EQUANS SGZH 2.0 Han Hollanderweg 50","address":"Han Hollanderweg 50","city":"Gouda","operatorName":"EQUANS","maxPowerKw":0,"isMegawatt":false,"status":"AVAILABLE","source":"ndw"}},{"type":"Feature","geometry":{"type":"Point","coordinates":[4.705408,52.004209]},"properties":{"type":"charge","layer":"passenger","locationId":"136590ec-fcd3-11ec-882f-42010aa40fc0","name":"EQUANS SGZH 1.0 89262053","address":"Constantijn Huygensstraat 2","city":"Gouda","operatorName":"EQUANS","maxPowerKw":0,"isMegawatt":false,"status":"AVAILABLE","source":"ndw","priceKwh":0.34}},{"type":"Feature","geometry":{"type":"Point","coordinates":[4.749224,52.005879]},"properties":{"type":"charge","layer":"passenger","locationId":"14490c40-8102-11ef-a277-42010aa400b8","name":"EQUANS SGZH 2.0 Dammaspolderpad 15","address":"Dammaspolderpad 15","city":"Gouda","operatorName":"EQUANS","maxPowerKw":0,"isMegawatt":false,"status":"AVAILABLE","source":"ndw","priceKwh":0.37}},{"type":"Feature","geometry":{"type":"Point","coordinates":[4.701238,52.002565]},"properties":{"type":"charge","layer":"passenger","locationId":"55a2fc88-b0f1-11e8-b77f-42010a840002","name":"EQUANS SGZH 1.0 89262057","address":"Da Costakade 67","city":"Gouda","operatorName":"EQUANS","maxPowerKw":0,"isMegawatt":false,"status":"AVAILABLE","source":"ndw","priceKwh":0.34}},{"type":"Feature","geometry":{"type":"Point","coordinates":[4.689127,52.00259]},"properties":{"type":"charge","layer":"passenger","locationId":"5b126160-ad2c-11f0-9cb4-42010aa400b8","name":"EQUANS SGZH 1.0 89262145","address":"Ijsseloogwal 1","city":"Gouda","operatorName":"EQUANS","maxPowerKw":0,"isMegawatt":false,"status":"CHARGING","source":"ndw","priceKwh":0.34}},{"type":"Feature","geometry":{"type":"Point","coordinates":[4.700066,52.024324]},"properties":{"type":"charge","layer":"passenger","locationId":"6548b3ce-ce2f-11e9-aa93-42010a840036","name":"EQUANS SGZH 1.0 89262064","address":"Mercatorsingel 58","city":"Gouda","operatorName":"EQUANS","maxPowerKw":0,"isMegawatt":false,"status":"UNAVAILABLE","source":"ndw","priceKwh":0.34}},{"type":"Feature","geometry":{"type":"Point","coordinates":[4.680449,52.002956]},"properties":{"type":"charge","layer":"passenger","locationId":"70f4848a-e56a-11ee-90da-42010aa400b8","name":"EQUANS SGZH 1.0 Burgemeester van Dijkesingel 61","address":"Burgemeester van Dijkesingel 61","city":"Gouda","operatorName":"EQUANS","maxPowerKw":0,"isMegawatt":false,"status":"CHARGING","source":"ndw","priceKwh":0.34}},{"type":"Feature","geometry":{"type":"Point","coordinates":[4.701859,52.025189]},"properties":{"type":"charge","layer":"passenger","locationId":"83658ed4-cea2-11eb-a5e8-42010a840008","name":"EQUANS SGZH 1.0 89262063","address":"Mercatorsingel 22","city":"Gouda","operatorName":"EQUANS","maxPowerKw":0,"isMegawatt":false,"status":"AVAILABLE","source":"ndw","priceKwh":0.34}},{"type":"Feature","geometry":{"type":"Point","coordinates":[4.694295,52.008345]},"properties":{"type":"charge","layer":"passenger","locationId":"ef8ee264-136a-11ed-a0c8-42010aa40fc0","name":"EQUANS SGZH 2.0 89291212","address":"Koningin Wilhelminaweg 214","city":"Gouda","operatorName":"EQUANS","maxPowerKw":0,"isMegawatt":false,"status":"UNAVAILABLE","source":"ndw","priceKwh":0.37}},{"type":"Feature","geometry":{"type":"Point","coordinates":[4.718329,52.014572]},"properties":{"type":"charge","layer":"passenger","locationId":"2d94bbfc-089d-11ed-a009-42010aa40fc0","name":"EQUANS SGZH 2.0 89249971","address":"van Persijnstraat 30","city":"Gouda","operatorName":"EQUANS","maxPowerKw":0,"isMegawatt":false,"status":"AVAILABLE","source":"ndw","priceKwh":0.37}},{"type":"Feature","geometry":{"type":"Point","coordinates":[4.740072,52.011446]},"properties":{"type":"charge","layer":"passenger","locationId":"35783982-9182-11ef-a346-42010aa400b8","name":"EQUANS SGZH 2.0 Getijmolenerf 61","address":"Getijmolenerf 61","city":"Gouda","operatorName":"EQUANS","maxPowerKw":0,"isMegawatt":false,"status":"AVAILABLE","source":"ndw","priceKwh":0.37}},{"type":"Feature","geometry":{"type":"Point","coordinates":[4.736163,52.016013]},"properties":{"type":"charge","layer":"passenger","locationId":"5f2de156-1758-11ed-8a13-42010aa40fc0","name":"EQUANS SGZH 2.0 89249994","address":"Middenwillenseweg 73","city":"Gouda","operatorName":"EQUANS","maxPowerKw":0,"isMegawatt":false,"status":"AVAILABLE","source":"ndw","priceKwh":0.37}},{"type":"Feature","geometry":{"type":"Point","coordinates":[4.710463,52.011521]},"properties":{"type":"charge","layer":"passenger","locationId":"669671ec-d0fc-11ee-9a27-42010aa40fc0","name":"EQUANS SGZH 2.0 de Baan 26","address":"de Baan 26","city":"Gouda","operatorName":"EQUANS","maxPowerKw":0,"isMegawatt":false,"status":"CHARGING","source":"ndw","priceKwh":0.37}},{"type":"Feature","geometry":{"type":"Point","coordinates":[4.702306,52.010279]},"properties":{"type":"charge","layer":"passenger","locationId":"adf92de4-f9ae-11ec-a6a4-42010aa40fc0","name":"EQUANS SGZH 2.0 89249598","address":"Moordrechtse Verlaat 1","city":"Gouda","operatorName":"EQUANS","maxPowerKw":0,"isMegawatt":false,"status":"AVAILABLE","source":"ndw","priceKwh":0.37}},{"type":"Feature","geometry":{"type":"Point","coordinates":[4.69739,52.009614]},"properties":{"type":"charge","layer":"passenger","locationId":"e6e94136-34c9-11ef-a292-42010aa400b8","name":"EQUANS SGZH 2.0 Kievitstraat 20","address":"Kievitstraat 20","city":"Gouda","operatorName":"EQUANS","maxPowerKw":0,"isMegawatt":false,"status":"AVAILABLE","source":"ndw","priceKwh":0.37}},{"type":"Feature","geometry":{"type":"Point","coordinates":[4.710168,52.009055]},"properties":{"type":"charge","layer":"passenger","locationId":"ead9b4a6-f2d5-11e8-ab34-42010a840002","name":"EQUANS SGZH 2.0 Komijnsteeg 26","address":"Komijnsteeg 26","city":"Gouda","operatorName":"EQUANS","maxPowerKw":0,"isMegawatt":false,"status":"AVAILABLE","source":"ndw","priceKwh":0.34}},{"type":"Feature","geometry":{"type":"Point","coordinates":[4.718309,52.008389]},"properties":{"type":"charge","layer":"passenger","locationId":"ebf2f454-a1c0-11ec-97ee-42010a840003","name":"EQUANS SGZH 2.0 89187769","address":"De Kwekerij 13","city":"Gouda","operatorName":"EQUANS","maxPowerKw":0,"isMegawatt":false,"status":"AVAILABLE","source":"ndw","priceKwh":0.37}},{"type":"Feature","geometry":{"type":"Point","coordinates":[4.746529,52.014205]},"properties":{"type":"charge","layer":"passenger","locationId":"03ecd3a6-a13a-11ef-a04f-42010aa400b8","name":"EQUANS SGZH 2.0 Chopinstraat 21","address":"Chopinstraat 21","city":"Gouda","operatorName":"EQUANS","maxPowerKw":0,"isMegawatt":false,"status":"AVAILABLE","source":"ndw","priceKwh":0.37}},{"type":"Feature","geometry":{"type":"Point","coordinates":[4.723805,52.009306]},"properties":{"type":"charge","layer":"passenger","locationId":"7f8d47fe-39c9-11e9-93d0-42010a840036","name":"EQUANS SGZH 1.0 89262117","address":"Krugerlaan 169","city":"Gouda","operatorName":"EQUANS","maxPowerKw":0,"isMegawatt":false,"status":"AVAILABLE","source":"ndw","priceKwh":0.34}},{"type":"Feature","geometry":{"type":"Point","coordinates":[4.685399,52.002443]},"properties":{"type":"charge","layer":"passenger","locationId":"a4d98bae-c4f5-11ea-b0c9-42010a840033","name":"EQUANS SGZH 1.0 89262148","address":"Vlielandstraat 22","city":"Gouda","operatorName":"EQUANS","maxPowerKw":0,"isMegawatt":false,"status":"AVAILABLE","source":"ndw","priceKwh":0.34}},{"type":"Feature","geometry":{"type":"Point","coordinates":[4.699664,52.005641]},"properties":{"type":"charge","layer":"passenger","locationId":"a577f93e-481a-11ec-b9ca-42010a840003","name":"EQUANS SGZH 1.0 89105161","address":"Jacob van Lennepkade 2","city":"Gouda","operatorName":"EQUANS","maxPowerKw":0,"isMegawatt":false,"status":"CHARGING","source":"ndw","priceKwh":0.34}},{"type":"Feature","geometry":{"type":"Point","coordinates":[4.723429,52.013996]},"properties":{"type":"charge","layer":"passenger","locationId":"d1811934-2fb4-11ed-8857-42010aa40fc0","name":"EQUANS SGZH 2.0 89273857","address":"Joubertstraat 36","city":"Gouda","operatorName":"EQUANS","maxPowerKw":0,"isMegawatt":false,"status":"AVAILABLE","source":"ndw","priceKwh":0.37}},{"type":"Feature","geometry":{"type":"Point","coordinates":[4.716911,52.013976]},"properties":{"type":"charge","layer":"passenger","locationId":"dac4afbe-7ab8-11ef-af0e-42010aa400b8","name":"EQUANS SGZH 2.0 Tweede kade 8","address":"Tweede kade 8","city":"Gouda","operatorName":"EQUANS","maxPowerKw":0,"isMegawatt":false,"status":"AVAILABLE","source":"ndw","priceKwh":0.37}},{"type":"Feature","geometry":{"type":"Point","coordinates":[4.700552,52.034234]},"properties":{"type":"charge","layer":"passenger","locationId":"e2a52cf6-9af0-11ef-af9b-42010aa400b8","name":"EQUANS SGZH 2.0 Rietzoom 45","address":"Rietzoom 45","city":"Gouda","operatorName":"EQUANS","maxPowerKw":0,"isMegawatt":false,"status":"AVAILABLE","source":"ndw","priceKwh":0.37}},{"type":"Feature","geometry":{"type":"Point","coordinates":[4.722262,52.014176]},"properties":{"type":"charge","layer":"passenger","locationId":"eeee0314-4f3b-11e8-8436-42010a840002","name":"EQUANS SGZH 1.0 89262116","address":"Krugerlaan 18","city":"Gouda","operatorName":"EQUANS","maxPowerKw":0,"isMegawatt":false,"status":"AVAILABLE","source":"ndw","priceKwh":0.34}},{"type":"Feature","geometry":{"type":"Point","coordinates":[4.710073,52.036067]},"properties":{"type":"charge","layer":"passenger","locationId":"fd6cf0de-4f3c-11e8-b1bd-42010a840002","name":"EQUANS SGZH 1.0 89262086","address":"Landluststraat 14","city":"Gouda","operatorName":"EQUANS","maxPowerKw":0,"isMegawatt":false,"status":"AVAILABLE","source":"ndw","priceKwh":0.34}},{"type":"Feature","geometry":{"type":"Point","coordinates":[4.675602,52.024723]},"properties":{"type":"charge","layer":"passenger","locationId":"1b4315ce-b45a-11e9-8163-42010a840fec","name":"EQUANS SGZH 1.0 89262071","address":"Elburgplein 1","city":"Gouda","operatorName":"EQUANS","maxPowerKw":0,"isMegawatt":false,"status":"CHARGING","source":"ndw","priceKwh":0.34}},{"type":"Feature","geometry":{"type":"Point","coordinates":[4.737951,52.013115]},"properties":{"type":"charge","layer":"passenger","locationId":"28783134-f1d3-11ec-919f-42010aa40fc0","name":"EQUANS SGZH 2.0 89249986","address":"Marathonlaan 15","city":"Gouda","operatorName":"EQUANS","maxPowerKw":0,"isMegawatt":false,"status":"AVAILABLE","source":"ndw","priceKwh":0.37}},{"type":"Feature","geometry":{"type":"Point","coordinates":[4.698304,52.022437]},"properties":{"type":"charge","layer":"passenger","locationId":"64895c5e-8c02-11ef-ab94-42010aa400b8","name":"EQUANS SGZH 2.0 Willem Barentszlaan 3","address":"Willem Barentszlaan 3","city":"Gouda","operatorName":"EQUANS","maxPowerKw":0,"isMegawatt":false,"status":"AVAILABLE","source":"ndw","priceKwh":0.37}},{"type":"Feature","geometry":{"type":"Point","coordinates":[4.70045,52.023967]},"properties":{"type":"charge","layer":"passenger","locationId":"7db4dfcc-bd39-11ec-8416-42010a840003","name":"EQUANS SGZH 2.0 89188764","address":"Amundsenlaan 1","city":"Gouda","operatorName":"EQUANS","maxPowerKw":0,"isMegawatt":false,"status":"AVAILABLE","source":"ndw","priceKwh":0.37}},{"type":"Feature","geometry":{"type":"Point","coordinates":[4.697746,52.013301]},"properties":{"type":"charge","layer":"passenger","locationId":"7fa8c034-c212-11ee-80d0-42010aa40fc0","name":"EQUANS SGZH 2.0 Nijverheidsstraat 4","address":"Nijverheidsstraat 4","city":"Gouda","operatorName":"EQUANS","maxPowerKw":0,"isMegawatt":false,"status":"CHARGING","source":"ndw","priceKwh":0.37}},{"type":"Feature","geometry":{"type":"Point","coordinates":[4.707295,52.019501]},"properties":{"type":"charge","layer":"passenger","locationId":"9f114370-5b4a-11ef-abd1-42010aa400b8","name":"EQUANS SGZH 2.0 Ronsseweg 152","address":"Ronsseweg 152","city":"Gouda","operatorName":"EQUANS","maxPowerKw":0,"isMegawatt":false,"status":"AVAILABLE","source":"ndw","priceKwh":0.37}},{"type":"Feature","geometry":{"type":"Point","coordinates":[4.71685,52.028154]},"properties":{"type":"charge","layer":"passenger","locationId":"c20c0796-62cf-11ec-b754-42010a840003","name":"EQUANS SGZH 1.0 89150558","address":"Kongsbergstraat 2","city":"Gouda","operatorName":"EQUANS","maxPowerKw":0,"isMegawatt":false,"status":"AVAILABLE","source":"ndw","priceKwh":0.34}},{"type":"Feature","geometry":{"type":"Point","coordinates":[4.744837,52.00932]},"properties":{"type":"charge","layer":"passenger","locationId":"c25eb7b6-62cf-11ec-adb8-42010a840003","name":"EQUANS SGZH 1.0 89150570","address":"Beukmolenplantsoen 1","city":"Gouda","operatorName":"EQUANS","maxPowerKw":0,"isMegawatt":false,"status":"AVAILABLE","source":"ndw","priceKwh":0.34}},{"type":"Feature","geometry":{"type":"Point","coordinates":[4.700591,52.003357]},"properties":{"type":"charge","layer":"passenger","locationId":"c929c314-2a64-11eb-a0e7-42010a840024","name":"EQUANS SGZH 1.0 89262056","address":"Jacob Catsstraat 37","city":"Gouda","operatorName":"EQUANS","maxPowerKw":0,"isMegawatt":false,"status":"AVAILABLE","source":"ndw","priceKwh":0.34}},{"type":"Feature","geometry":{"type":"Point","coordinates":[4.725558,52.014168]},"properties":{"type":"charge","layer":"passenger","locationId":"f629eb78-ba14-11ec-882d-42010a840003","name":"EQUANS SGZH 2.0 89190175","address":"Bunchestraat 28","city":"Gouda","operatorName":"EQUANS","maxPowerKw":0,"isMegawatt":false,"status":"AVAILABLE","source":"ndw","priceKwh":0.37}},{"type":"Feature","geometry":{"type":"Point","coordinates":[4.716104,52.019681]},"properties":{"type":"charge","layer":"passenger","locationId":"f6b18e5e-4f3b-11e8-938c-42010a840002","name":"EQUANS SGZH 1.0 89262096","address":"Juliana van Stolbergstraat 30","city":"Gouda","operatorName":"EQUANS","maxPowerKw":0,"isMegawatt":false,"status":"CHARGING","source":"ndw","priceKwh":0.34}},{"type":"Feature","geometry":{"type":"Point","coordinates":[4.703344,52.013544]},"properties":{"type":"charge","layer":"passenger","locationId":"2d099fee-8d32-11ed-8fa5-42010aa40fc0","name":"EQUANS SGZH 2.0 89422050","address":"Strijenstraat 9 H","city":"Gouda","operatorName":"EQUANS","maxPowerKw":0,"isMegawatt":false,"status":"AVAILABLE","source":"ndw","priceKwh":0.37}},{"type":"Feature","geometry":{"type":"Point","coordinates":[4.697943,52.033851]},"properties":{"type":"charge","layer":"passenger","locationId":"3c53e7a6-bade-11ec-a1e7-42010a840003","name":"EQUANS SGZH 2.0 89190174","address":"Rietzoom 186","city":"Gouda","operatorName":"EQUANS","maxPowerKw":0,"isMegawatt":false,"status":"AVAILABLE","source":"ndw","priceKwh":0.37}},{"type":"Feature","geometry":{"type":"Point","coordinates":[4.689126,52.027214]},"properties":{"type":"charge","layer":"passenger","locationId":"4a415e48-d33a-11eb-a167-42010a840064","name":"EQUANS SGZH 1.0 89262074","address":"Plantaanstraat 43","city":"Gouda","operatorName":"EQUANS","maxPowerKw":0,"isMegawatt":false,"status":"AVAILABLE","source":"ndw","priceKwh":0.34}},{"type":"Feature","geometry":{"type":"Point","coordinates":[4.710149,52.021381]},"properties":{"type":"charge","layer":"passenger","locationId":"4fbab3aa-47d1-11f0-9d04-42010aa400b8","name":"EQUANS SGZH 2.0 van Hogendorpplein 4","address":"van Hogendorpplein 4","city":"Gouda","operatorName":"EQUANS","maxPowerKw":0,"isMegawatt":false,"status":"AVAILABLE","source":"ndw","priceKwh":0.37}},{"type":"Feature","geometry":{"type":"Point","coordinates":[4.722143,52.016922]},"properties":{"type":"charge","layer":"passenger","locationId":"811011fe-bdc2-11eb-98f9-42010a840003","name":"EQUANS SGZH 1.0 89262102","address":"Steijnpad 8","city":"Gouda","operatorName":"EQUANS","maxPowerKw":0,"isMegawatt":false,"status":"AVAILABLE","source":"ndw","priceKwh":0.34}},{"type":"Feature","geometry":{"type":"Point","coordinates":[4.73311,52.01434]},"properties":{"type":"charge","layer":"passenger","locationId":"811851f8-d9ce-11ef-8239-42010aa400b8","name":"EQUANS SGZH 2.0 Gedenklaan 39","address":"Gedenklaan 39","city":"Gouda","operatorName":"EQUANS","maxPowerKw":0,"isMegawatt":false,"status":"AVAILABLE","source":"ndw","priceKwh":0.37}},{"type":"Feature","geometry":{"type":"Point","coordinates":[4.714543,52.037336]},"properties":{"type":"charge","layer":"passenger","locationId":"8bc77eb2-a783-11ef-ac8e-42010aa400b8","name":"EQUANS SGZH 2.0 Schouwwerf 1","address":"Schouwwerf 1","city":"Gouda","operatorName":"EQUANS","maxPowerKw":0,"isMegawatt":false,"status":"AVAILABLE","source":"ndw","priceKwh":0.37}},{"type":"Feature","geometry":{"type":"Point","coordinates":[4.706657,52.018771]},"properties":{"type":"charge","layer":"passenger","locationId":"a35aed56-2eeb-11ed-9d11-42010aa40fc0","name":"EQUANS SGZH 2.0 89273872","address":"Ronsseweg 339","city":"Gouda","operatorName":"EQUANS","maxPowerKw":0,"isMegawatt":false,"status":"AVAILABLE","source":"ndw","priceKwh":0.37}},{"type":"Feature","geometry":{"type":"Point","coordinates":[4.715879,52.013361]},"properties":{"type":"charge","layer":"passenger","locationId":"a9b0ec3a-3a49-11ef-aa12-42010aa400b8","name":"EQUANS SGZH 2.0 Karnemelksloot 31","address":"Karnemelksloot 31","city":"Gouda","operatorName":"EQUANS","maxPowerKw":0,"isMegawatt":false,"status":"AVAILABLE","source":"ndw","priceKwh":0.37}},{"type":"Feature","geometry":{"type":"Point","coordinates":[4.70472,52.011032]},"properties":{"type":"charge","layer":"passenger","locationId":"d86ab07e-1ff0-11ea-b507-42010a840006","name":"EQUANS SGZH 1.0 89262041","address":"Nonnenwater 8","city":"Gouda","operatorName":"EQUANS","maxPowerKw":0,"isMegawatt":false,"status":"AVAILABLE","source":"ndw","priceKwh":0.34}},{"type":"Feature","geometry":{"type":"Point","coordinates":[4.69368,52.010591]},"properties":{"type":"charge","layer":"passenger","locationId":"dd03bbca-98a6-11e9-8e0a-42010a840029","name":"EQUANS SGZH 1.0 89262048","address":"Koekoekplein 13","city":"Gouda","operatorName":"EQUANS","maxPowerKw":0,"isMegawatt":false,"status":"AVAILABLE","source":"ndw","priceKwh":0.34}},{"type":"Feature","geometry":{"type":"Point","coordinates":[4.712735,52.019171]},"properties":{"type":"charge","layer":"passenger","locationId":"f783d18e-69e7-11ea-a24b-42010a840009","name":"EQUANS SGZH 1.0 89262066","address":"Jan van Beaumontstraat 18","city":"Gouda","operatorName":"EQUANS","maxPowerKw":0,"isMegawatt":false,"status":"AVAILABLE","source":"ndw","priceKwh":0.34}},{"type":"Feature","geometry":{"type":"Point","coordinates":[4.703949,52.023577]},"properties":{"type":"charge","layer":"passenger","locationId":"0e86b842-4f3c-11e8-bc19-42010a840002","name":"EQUANS SGZH 1.0 89262080","address":"Marco Pololaan 7","city":"Gouda","operatorName":"EQUANS","maxPowerKw":0,"isMegawatt":false,"status":"AVAILABLE","source":"ndw","priceKwh":0.34}},{"type":"Feature","geometry":{"type":"Point","coordinates":[4.718597,52.018542]},"properties":{"type":"charge","layer":"passenger","locationId":"21b31964-717e-11e9-bbc2-42010a840fe4","name":"EQUANS SGZH 1.0 89262093","address":"Graaf Florisweg 123","city":"Gouda","operatorName":"EQUANS","maxPowerKw":0,"isMegawatt":false,"status":"AVAILABLE","source":"ndw","priceKwh":0.34}},{"type":"Feature","geometry":{"type":"Point","coordinates":[4.709986,52.02995]},"properties":{"type":"charge","layer":"passenger","locationId":"230bc01c-3b8a-11ec-b9ab-42010a840003","name":"EQUANS SGZH 1.0 89105556","address":"Blommesteinsingel 45","city":"Gouda","operatorName":"EQUANS","maxPowerKw":0,"isMegawatt":false,"status":"AVAILABLE","source":"ndw","priceKwh":0.34}},{"type":"Feature","geometry":{"type":"Point","coordinates":[4.702231,52.031692]},"properties":{"type":"charge","layer":"passenger","locationId":"3b769a78-d415-11eb-8b02-42010a840036","name":"EQUANS SGZH 1.0 89262090","address":"Gildenburg 12","city":"Gouda","operatorName":"EQUANS","maxPowerKw":0,"isMegawatt":false,"status":"CHARGING","source":"ndw","priceKwh":0.34}},{"type":"Feature","geometry":{"type":"Point","coordinates":[4.704227,52.005618]},"properties":{"type":"charge","layer":"passenger","locationId":"47a2bbda-4f3c-11e8-9307-42010a840002","name":"EQUANS SGZH 1.0 89262054","address":"Vorstmanstraat 54","city":"Gouda","operatorName":"EQUANS","maxPowerKw":0,"isMegawatt":false,"status":"AVAILABLE","source":"ndw","priceKwh":0.34}},{"type":"Feature","geometry":{"type":"Point","coordinates":[4.713694,52.014747]},"properties":{"type":"charge","layer":"passenger","locationId":"5d54e6ee-6486-11eb-af70-42010a84003e","name":"EQUANS SGZH 1.0 89262131","address":"Boelekade 161","city":"Gouda","operatorName":"EQUANS","maxPowerKw":0,"isMegawatt":false,"status":"CHARGING","source":"ndw","priceKwh":0.34}},{"type":"Feature","geometry":{"type":"Point","coordinates":[4.680517,52.005077]},"properties":{"type":"charge","layer":"passenger","locationId":"82475136-855f-11eb-b7ae-42010a840022","name":"EQUANS SGZH 1.0 89262152","address":"Opkamer 32","city":"Gouda","operatorName":"EQUANS","maxPowerKw":0,"isMegawatt":false,"status":"AVAILABLE","source":"ndw","priceKwh":0.34}},{"type":"Feature","geometry":{"type":"Point","coordinates":[4.703913,52.034525]},"properties":{"type":"charge","layer":"passenger","locationId":"e71de9c2-34c9-11ef-b269-42010aa400b8","name":"EQUANS SGZH 2.0 Zuidhoef 158","address":"Zuidhoef 158","city":"Gouda","operatorName":"EQUANS","maxPowerKw":0,"isMegawatt":false,"status":"CHARGING","source":"ndw","priceKwh":0.37}},{"type":"Feature","geometry":{"type":"Point","coordinates":[4.722742,52.003807]},"properties":{"type":"charge","layer":"passenger","locationId":"024d0fe8-5751-11eb-9336-42010a84005a","name":"EQUANS SGZH 1.0 89262144","address":"Goudseweg 77","city":"Gouda","operatorName":"EQUANS","maxPowerKw":0,"isMegawatt":false,"status":"AVAILABLE","source":"ndw","priceKwh":0.34}},{"type":"Feature","geometry":{"type":"Point","coordinates":[4.731707,52.016347]},"properties":{"type":"charge","layer":"passenger","locationId":"1464f040-8102-11ef-bfae-42010aa400b8","name":"EQUANS SGZH 2.0 Citroenvlinderstraat 8","address":"Citroenvlinderstraat 8","city":"Gouda","operatorName":"EQUANS","maxPowerKw":0,"isMegawatt":false,"status":"AVAILABLE","source":"ndw","priceKwh":0.37}},{"type":"Feature","geometry":{"type":"Point","coordinates":[4.711579,52.015861]},"properties":{"type":"charge","layer":"passenger","locationId":"1a2d8b04-f15f-11ea-b84a-42010a840033","name":"EQUANS SGZH 1.0 89262111","address":"Boelekade 41","city":"Gouda","operatorName":"EQUANS","maxPowerKw":0,"isMegawatt":false,"status":"AVAILABLE","source":"ndw","priceKwh":0.34}},{"type":"Feature","geometry":{"type":"Point","coordinates":[4.750497,52.013594]},"properties":{"type":"charge","layer":"passenger","locationId":"4831331a-6001-11ef-bb27-42010aa400b8","name":"EQUANS SGZH 2.0 Rossinistraat 112","address":"Rossinistraat 112","city":"Gouda","operatorName":"EQUANS","maxPowerKw":0,"isMegawatt":false,"status":"AVAILABLE","source":"ndw","priceKwh":0.37}},{"type":"Feature","geometry":{"type":"Point","coordinates":[4.74298,52.008042]},"properties":{"type":"charge","layer":"passenger","locationId":"57e3fc42-50e5-11ee-ac5e-42010aa40fc0","name":"EQUANS SGZH 2.0 89877081","address":"Middenmolenlaan 66","city":"Gouda","operatorName":"EQUANS","maxPowerKw":0,"isMegawatt":false,"status":"AVAILABLE","source":"ndw","priceKwh":0.37}},{"type":"Feature","geometry":{"type":"Point","coordinates":[4.673066,52.005286]},"properties":{"type":"charge","layer":"passenger","locationId":"73ef4e3a-9182-11ef-b319-42010aa400b8","name":"EQUANS SGZH 2.0 Hillebrand Herenbraslaan 2 (hoek Andries 't Boertg","address":"Hillebrand Herenbraslaan 2 (hoek Andries 't B","city":"Gouda","operatorName":"EQUANS","maxPowerKw":0,"isMegawatt":false,"status":"AVAILABLE","source":"ndw","priceKwh":0.37}},{"type":"Feature","geometry":{"type":"Point","coordinates":[4.682816,52.003925]},"properties":{"type":"charge","layer":"passenger","locationId":"7845587a-0575-11ee-a961-42010aa40fc0","name":"EQUANS SGZH 2.0 89641445","address":"Hortus 1","city":"Gouda","operatorName":"EQUANS","maxPowerKw":0,"isMegawatt":false,"status":"AVAILABLE","source":"ndw","priceKwh":0.37}},{"type":"Feature","geometry":{"type":"Point","coordinates":[4.720369,52.012365]},"properties":{"type":"charge","layer":"passenger","locationId":"8314b45e-00a5-11ef-be7b-42010aa400b8","name":"EQUANS SGZH 2.0 Zoutmanstraat 31","address":"Zoutmanstraat 31","city":"Gouda","operatorName":"EQUANS","maxPowerKw":0,"isMegawatt":false,"status":"AVAILABLE","source":"ndw","priceKwh":0.37}},{"type":"Feature","geometry":{"type":"Point","coordinates":[4.745061,52.010519]},"properties":{"type":"charge","layer":"passenger","locationId":"a6bc67cc-7378-11ee-a97f-42010aa40fc0","name":"EQUANS SGZH 2.0 Poldermolenplein 3","address":"Poldermolenplein 3","city":"Gouda","operatorName":"EQUANS","maxPowerKw":0,"isMegawatt":false,"status":"AVAILABLE","source":"ndw","priceKwh":0.37}},{"type":"Feature","geometry":{"type":"Point","coordinates":[4.73404,52.01201]},"properties":{"type":"charge","layer":"passenger","locationId":"ba1cfa2a-3b40-11f0-b4b4-42010aa400b8","name":"EQUANS SGZH 2.0 Rutgersstraat 2","address":"Rutgersstraat 2","city":"Gouda","operatorName":"EQUANS","maxPowerKw":0,"isMegawatt":false,"status":"AVAILABLE","source":"ndw","priceKwh":0.37}},{"type":"Feature","geometry":{"type":"Point","coordinates":[4.748218,52.012117]},"properties":{"type":"charge","layer":"passenger","locationId":"cd0cf25e-ede4-11ec-ac5a-42010aa40fc0","name":"EQUANS SGZH 2.0 89249744","address":"Schubertplein 16","city":"Gouda","operatorName":"EQUANS","maxPowerKw":0,"isMegawatt":false,"status":"AVAILABLE","source":"ndw","priceKwh":0.37}},{"type":"Feature","geometry":{"type":"Point","coordinates":[4.746901,52.01301]},"properties":{"type":"charge","layer":"passenger","locationId":"fa313854-ef72-11ed-8f0a-42010aa40fc0","name":"EQUANS SGZH 2.0 89273875","address":"Mozartstraat 2","city":"Gouda","operatorName":"EQUANS","maxPowerKw":0,"isMegawatt":false,"status":"AVAILABLE","source":"ndw","priceKwh":0.37}},{"type":"Feature","geometry":{"type":"Point","coordinates":[4.739279,52.009941]},"properties":{"type":"charge","layer":"passenger","locationId":"17b9fbba-fcd3-11ec-873f-42010aa40fc0","name":"EQUANS SGZH 1.0 89262134","address":"Estafetteweg 18","city":"Gouda","operatorName":"EQUANS","maxPowerKw":0,"isMegawatt":false,"status":"AVAILABLE","source":"ndw","priceKwh":0.34}},{"type":"Feature","geometry":{"type":"Point","coordinates":[4.734814,52.016076]},"properties":{"type":"charge","layer":"passenger","locationId":"1f84952a-598a-11ee-b5d8-42010aa40fc0","name":"EQUANS SGZH 2.0 89954330","address":"Middenwillenseweg 47","city":"Gouda","operatorName":"EQUANS","maxPowerKw":0,"isMegawatt":false,"status":"AVAILABLE","source":"ndw","priceKwh":0.37}},{"type":"Feature","geometry":{"type":"Point","coordinates":[4.715245,52.035243]},"properties":{"type":"charge","layer":"passenger","locationId":"6bf43882-85ec-11e9-8aa2-42010a840fdd","name":"EQUANS SGZH 1.0 89262087","address":"Zuiderwerf 36","city":"Gouda","operatorName":"EQUANS","maxPowerKw":0,"isMegawatt":false,"status":"AVAILABLE","source":"ndw","priceKwh":0.34}},{"type":"Feature","geometry":{"type":"Point","coordinates":[4.67802,52.00643]},"properties":{"type":"charge","layer":"passenger","locationId":"8cd7dac8-fbd7-11f0-8c89-42010aa400b8","name":"EQUANS SGZH 2.0 De Deel 31","address":"De Deel 31","city":"Gouda","operatorName":"EQUANS","maxPowerKw":0,"isMegawatt":false,"status":"AVAILABLE","source":"ndw","priceKwh":0.37}},{"type":"Feature","geometry":{"type":"Point","coordinates":[4.713185,52.037546]},"properties":{"type":"charge","layer":"passenger","locationId":"cc5ef456-ede4-11ec-b34b-42010aa40fc0","name":"EQUANS SGZH 2.0 89249658","address":"Tjalkwerf 2 B","city":"Gouda","operatorName":"EQUANS","maxPowerKw":0,"isMegawatt":false,"status":"AVAILABLE","source":"ndw","priceKwh":0.37}},{"type":"Feature","geometry":{"type":"Point","coordinates":[4.75177,52.005309]},"properties":{"type":"charge","layer":"passenger","locationId":"cded9610-ede4-11ec-8281-42010aa40fc0","name":"EQUANS SGZH 2.0 89249978","address":"Boschpolderstraat 27","city":"Gouda","operatorName":"EQUANS","maxPowerKw":0,"isMegawatt":false,"status":"AVAILABLE","source":"ndw","priceKwh":0.37}},{"type":"Feature","geometry":{"type":"Point","coordinates":[4.705615,52.009908]},"properties":{"type":"charge","layer":"passenger","locationId":"1f178024-ad80-11eb-a0b2-42010a840067","name":"EQUANS SGZH 1.0 89262042","address":"Raam 41","city":"Gouda","operatorName":"EQUANS","maxPowerKw":0,"isMegawatt":false,"status":"AVAILABLE","source":"ndw","priceKwh":0.34}},{"type":"Feature","geometry":{"type":"Point","coordinates":[4.699395,52.0023]},"properties":{"type":"charge","layer":"passenger","locationId":"4592dbec-0699-11f0-81d3-42010aa400b8","name":"EQUANS SGZH 2.0 Aernout Drostkade 11","address":"Aernout Drostkade 11","city":"Gouda","operatorName":"EQUANS","maxPowerKw":0,"isMegawatt":false,"status":"AVAILABLE","source":"ndw","priceKwh":0.37}},{"type":"Feature","geometry":{"type":"Point","coordinates":[4.689458,52.021094]},"properties":{"type":"charge","layer":"passenger","locationId":"4c0df4f4-fb06-11f0-809e-42010aa400b8","name":"EQUANS Jamani Group","address":"Gentseweg 5","city":"Gouda","operatorName":"EQUANS","maxPowerKw":0,"isMegawatt":false,"status":"AVAILABLE","source":"ndw","priceKwh":0.4}},{"type":"Feature","geometry":{"type":"Point","coordinates":[4.721083,52.012285]},"properties":{"type":"charge","layer":"passenger","locationId":"78ac2668-0575-11ee-b2c3-42010aa40fc0","name":"EQUANS SGZH 2.0 89641451","address":"Burgemeester Martenssingel 38","city":"Gouda","operatorName":"EQUANS","maxPowerKw":0,"isMegawatt":false,"status":"AVAILABLE","source":"ndw","priceKwh":0.37}},{"type":"Feature","geometry":{"type":"Point","coordinates":[4.723734,52.009764]},"properties":{"type":"charge","layer":"passenger","locationId":"adcb0b32-50e5-11ee-87e4-42010aa40fc0","name":"EQUANS SGZH 2.0 89927705","address":"Krugerlaan 151","city":"Gouda","operatorName":"EQUANS","maxPowerKw":0,"isMegawatt":false,"status":"AVAILABLE","source":"ndw","priceKwh":0.37}},{"type":"Feature","geometry":{"type":"Point","coordinates":[4.716306,52.016922]},"properties":{"type":"charge","layer":"passenger","locationId":"fbd1743a-f1c5-11ed-9ce1-42010aa40fc0","name":"EQUANS SGZH 1.0 89262104","address":"Vossenbuchkade 69","city":"Gouda","operatorName":"EQUANS","maxPowerKw":0,"isMegawatt":false,"status":"AVAILABLE","source":"ndw","priceKwh":0.34}},{"type":"Feature","geometry":{"type":"Point","coordinates":[4.676284,52.005375]},"properties":{"type":"charge","layer":"passenger","locationId":"140bf120-9dcb-11eb-bed3-42010a840077","name":"EQUANS SGZH 1.0 89262149","address":"Melkbocht 28","city":"Gouda","operatorName":"EQUANS","maxPowerKw":0,"isMegawatt":false,"status":"AVAILABLE","source":"ndw","priceKwh":0.34}},{"type":"Feature","geometry":{"type":"Point","coordinates":[4.699968,52.010087]},"properties":{"type":"charge","layer":"passenger","locationId":"20709084-ca97-11ec-8399-42010a840003","name":"EQUANS SGZH 2.0 89228352","address":"Onder de Boompjes 2","city":"Gouda","operatorName":"EQUANS","maxPowerKw":0,"isMegawatt":false,"status":"AVAILABLE","source":"ndw","priceKwh":0.37}},{"type":"Feature","geometry":{"type":"Point","coordinates":[4.745986,52.005339]},"properties":{"type":"charge","layer":"passenger","locationId":"7dc9083c-cf3d-11ed-8454-42010aa40fc0","name":"EQUANS SGZH 2.0 89228351","address":"Wilhelmina van Pruisenlaan 40","city":"Gouda","operatorName":"EQUANS","maxPowerKw":0,"isMegawatt":false,"status":"AVAILABLE","source":"ndw","priceKwh":0.37}},{"type":"Feature","geometry":{"type":"Point","coordinates":[4.707276,52.015827]},"properties":{"type":"charge","layer":"passenger","locationId":"e1a742ea-3b89-11ec-83ee-42010a840003","name":"EQUANS SGZH 1.0 89052505","address":"Crabethpark 15","city":"Gouda","operatorName":"EQUANS","maxPowerKw":0,"isMegawatt":false,"status":"AVAILABLE","source":"ndw","priceKwh":0.34}},{"type":"Feature","geometry":{"type":"Point","coordinates":[4.703272,52.031004]},"properties":{"type":"charge","layer":"passenger","locationId":"f5d4a002-e978-11e8-9995-42010a840002","name":"EQUANS SGZH 1.0 89262089","address":"Swadenburg 66","city":"Gouda","operatorName":"EQUANS","maxPowerKw":0,"isMegawatt":false,"status":"AVAILABLE","source":"ndw","priceKwh":0.34}},{"type":"Feature","geometry":{"type":"Point","coordinates":[4.687719,52.02905]},"properties":{"type":"charge","layer":"passenger","locationId":"89262072","name":"EQUANS SGZH 1.0 89262072","address":"Prunuslaan 47","city":"Gouda","operatorName":"EQUANS","maxPowerKw":0,"isMegawatt":false,"status":"AVAILABLE","source":"ndw"}},{"type":"Feature","geometry":{"type":"Point","coordinates":[4.69332,52.03175]},"properties":{"type":"charge","layer":"passenger","locationId":"3e493b9a-2d1a-11f0-854f-42010aa400b8","name":"EQUANS SGZH 2.0 Papaverstraat 31","address":"Papaverstraat 31","city":"Gouda","operatorName":"EQUANS","maxPowerKw":0,"isMegawatt":false,"status":"AVAILABLE","source":"ndw","priceKwh":0.37}},{"type":"Feature","geometry":{"type":"Point","coordinates":[4.71458,52.010648]},"properties":{"type":"charge","layer":"passenger","locationId":"5c1bd4bc-805a-11e8-8375-42010a840002","name":"EQUANS SGZH 1.0 89262045","address":"De Baan 101","city":"Gouda","operatorName":"EQUANS","maxPowerKw":0,"isMegawatt":false,"status":"CHARGING","source":"ndw","priceKwh":0.34}},{"type":"Feature","geometry":{"type":"Point","coordinates":[4.709618,52.035293]},"properties":{"type":"charge","layer":"passenger","locationId":"7bec0848-9570-11ef-9580-42010aa400b8","name":"EQUANS SGZH 2.0 Groenlust 19","address":"Groenlust 19","city":"Gouda","operatorName":"EQUANS","maxPowerKw":0,"isMegawatt":false,"status":"AVAILABLE","source":"ndw","priceKwh":0.37}},{"type":"Feature","geometry":{"type":"Point","coordinates":[4.709173,52.011784]},"properties":{"type":"charge","layer":"passenger","locationId":"a853d5a2-a84c-11ef-9f16-42010aa400b8","name":"EQUANS SGZH 2.0 Naaierstraat 29","address":"Naaierstraat 29","city":"Gouda","operatorName":"EQUANS","maxPowerKw":0,"isMegawatt":false,"status":"AVAILABLE","source":"ndw","priceKwh":0.37}},{"type":"Feature","geometry":{"type":"Point","coordinates":[4.677341,52.005447]},"properties":{"type":"charge","layer":"passenger","locationId":"aa004864-ed48-11ee-a270-42010aa400b8","name":"EQUANS SGZH 2.0 Boenstoep 1","address":"Boenstoep 1","city":"Gouda","operatorName":"EQUANS","maxPowerKw":0,"isMegawatt":false,"status":"AVAILABLE","source":"ndw","priceKwh":0.37}},{"type":"Feature","geometry":{"type":"Point","coordinates":[4.728322,52.017675]},"properties":{"type":"charge","layer":"passenger","locationId":"d356c2fa-3798-11ec-a5bb-42010a840003","name":"EQUANS SGZH 1.0 89127149","address":"Gloriantplantsoen 122","city":"Gouda","operatorName":"EQUANS","maxPowerKw":0,"isMegawatt":false,"status":"AVAILABLE","source":"ndw","priceKwh":0.34}},{"type":"Feature","geometry":{"type":"Point","coordinates":[4.692443,52.024486]},"properties":{"type":"charge","layer":"passenger","locationId":"f5048960-2eea-11ed-bae8-42010aa40fc0","name":"EQUANS SGZH 2.0 89258303","address":"Bosranklaan 39","city":"Gouda","operatorName":"EQUANS","maxPowerKw":0,"isMegawatt":false,"status":"AVAILABLE","source":"ndw","priceKwh":0.37}},{"type":"Feature","geometry":{"type":"Point","coordinates":[4.741069,52.013749]},"properties":{"type":"charge","layer":"passenger","locationId":"0f0cc65a-f64b-11e9-b020-42010a840012","name":"EQUANS SGZH 2.0 Symfonielaan 41","address":"Symfonielaan 41","city":"Gouda","operatorName":"EQUANS","maxPowerKw":0,"isMegawatt":false,"status":"AVAILABLE","source":"ndw","priceKwh":0.34}},{"type":"Feature","geometry":{"type":"Point","coordinates":[4.729554,52.012194]},"properties":{"type":"charge","layer":"passenger","locationId":"3e607d1c-6eef-11ef-89f8-42010aa400b8","name":"EQUANS SGZH 2.0 Dunantsingel 314","address":"Dunantsingel 314","city":"Gouda","operatorName":"EQUANS","maxPowerKw":0,"isMegawatt":false,"status":"AVAILABLE","source":"ndw","priceKwh":0.37}},{"type":"Feature","geometry":{"type":"Point","coordinates":[4.712203,52.0338]},"properties":{"type":"charge","layer":"passenger","locationId":"560447a6-29ca-11ef-baf4-42010aa400b8","name":"EQUANS SGZH 2.0 Windhoek 16","address":"Windhoek 16","city":"Gouda","operatorName":"EQUANS","maxPowerKw":0,"isMegawatt":false,"status":"AVAILABLE","source":"ndw","priceKwh":0.37}},{"type":"Feature","geometry":{"type":"Point","coordinates":[4.68669,52.002153]},