{"type":"FeatureCollection","metadata":{"gemeente":"Haaksbergen","slug":"haaksbergen","code":"GM0158","generated_at":"2026-06-07T19:22:09.578Z","total_passenger":94,"total_freight":0,"bounds":[6.624484760812941,52.11810461074084,6.889751544133015,52.20633127022288],"operators":["Allego","DAEN Mobility","E-Flux by Road","Eneco","Laadnet","Opcharge","Pluq","Shell Recharge","VARO Charging","Vattenfall InCharge"]},"features":[{"type":"Feature","geometry":{"type":"Point","coordinates":[6.742904,52.162466]},"properties":{"type":"charge","layer":"passenger","locationId":"6f0da106-6f04-45c7-a8d1-174f616dbe32","name":"Trompstraat","address":"Trompstraat 17","city":"Haaksbergen","operatorName":"Vattenfall InCharge","maxPowerKw":11,"isMegawatt":false,"status":"AVAILABLE","source":"ndw"}},{"type":"Feature","geometry":{"type":"Point","coordinates":[6.72745,52.14344]},"properties":{"type":"charge","layer":"passenger","locationId":"494c45be643e4fa8b22a","name":"Haaksbergen Stichting Groot Scholtenhagen P2","address":"Scholtenhagenweg 39","city":"Haaksbergen","operatorName":"Opcharge","maxPowerKw":22,"isMegawatt":false,"status":"AVAILABLE","source":"ndw","priceKwh":0.49}},{"type":"Feature","geometry":{"type":"Point","coordinates":[6.729022,52.162398]},"properties":{"type":"charge","layer":"passenger","locationId":"8d0981a3-7228-48ac-910d-725b7faaeb13","name":"Frans Halsstraat 23","address":"Frans Halsstraat 23","city":"Haaksbergen","operatorName":"Vattenfall InCharge","maxPowerKw":11,"isMegawatt":false,"status":"AVAILABLE","source":"ndw"}},{"type":"Feature","geometry":{"type":"Point","coordinates":[6.711806,52.150758]},"properties":{"type":"charge","layer":"passenger","locationId":"2249976","name":"Laadnet Hoofdkantoor Haaksbergen","address":"Tolstraat 26","city":"Haaksbergen","operatorName":"Laadnet","maxPowerKw":22,"isMegawatt":false,"status":"AVAILABLE","source":"ndw"}},{"type":"Feature","geometry":{"type":"Point","coordinates":[6.736824,52.156933]},"properties":{"type":"charge","layer":"passenger","locationId":"d47d6780-abe0-11ec-9ba3-42010a840003","name":"NL,Lansinkstraat 86, 7481JR Haaksbergen","address":"Lansinkstraat 86","city":"Haaksbergen","operatorName":"Allego","maxPowerKw":0,"isMegawatt":false,"status":"AVAILABLE","source":"ndw"}},{"type":"Feature","geometry":{"type":"Point","coordinates":[6.744822,52.154741]},"properties":{"type":"charge","layer":"passenger","locationId":"6f0490ea-ef20-492a-ab5b-136af142bea8","name":"Blankenburgerstraat","address":"Blankenburgerstraat 42","city":"Haaksbergen","operatorName":"Vattenfall InCharge","maxPowerKw":11,"isMegawatt":false,"status":"AVAILABLE","source":"ndw"}},{"type":"Feature","geometry":{"type":"Point","coordinates":[6.742101,52.153589]},"properties":{"type":"charge","layer":"passenger","locationId":"NLLOC021301","name":"NL, Doctor Prinsstraat 7, 7481 EV Haaksbergen","address":"Doctor Prinsstraat 7","city":"Haaksbergen","operatorName":"Allego","maxPowerKw":0,"isMegawatt":false,"status":"AVAILABLE","source":"ndw","priceKwh":0.3488}},{"type":"Feature","geometry":{"type":"Point","coordinates":[6.72756,52.16717]},"properties":{"type":"charge","layer":"passenger","locationId":"ef754c1b93cae50d9e062351b7349864","name":"Orchidee 37","address":"Orchidee 37","city":"Haaksbergen","operatorName":"Vattenfall InCharge","maxPowerKw":11,"isMegawatt":false,"status":"AVAILABLE","source":"ndw"}},{"type":"Feature","geometry":{"type":"Point","coordinates":[6.738623,52.169786]},"properties":{"type":"charge","layer":"passenger","locationId":"7a64432a-7089-11ea-8893-42010a840003","name":"NL, Papaver 1, 7483CN, Haaksbergen","address":"Papaver 1","city":"Haaksbergen","operatorName":"Allego","maxPowerKw":0,"isMegawatt":false,"status":"AVAILABLE","source":"ndw"}},{"type":"Feature","geometry":{"type":"Point","coordinates":[6.713294,52.150943]},"properties":{"type":"charge","layer":"passenger","locationId":"3968865","name":"Laadnet Hoofdkantoor Haaksbergen 2","address":"Tolstraat 19","city":"Haaksbergen","operatorName":"Laadnet","maxPowerKw":22,"isMegawatt":false,"status":"AVAILABLE","source":"ndw"}},{"type":"Feature","geometry":{"type":"Point","coordinates":[6.70098,52.17179]},"properties":{"type":"charge","layer":"passenger","locationId":"63b27a30-fc36-11ec-8512-42010aa4001d","name":"Eneco eMobility Rietmolenweg 20 Haaksbergen","address":"Rietmolenweg 20","city":"Haaksbergen","operatorName":"Eneco","maxPowerKw":0,"isMegawatt":false,"status":"AVAILABLE","source":"ndw","priceKwh":0.39}},{"type":"Feature","geometry":{"type":"Point","coordinates":[6.748213,52.172729]},"properties":{"type":"charge","layer":"passenger","locationId":"d3424470-e0cd-11ee-a667-42010aa400b8","name":"Shell Recharge Textielstraat 24","address":"Textielstraat 24","city":"Haaksbergen","operatorName":"Shell Recharge","maxPowerKw":150,"isMegawatt":false,"status":"AVAILABLE","source":"ndw"}},{"type":"Feature","geometry":{"type":"Point","coordinates":[6.719789,52.160053]},"properties":{"type":"charge","layer":"passenger","locationId":"2658424","name":"Laadnet Alfen Barink 12","address":"Barink 12","city":"Haaksbergen","operatorName":"Laadnet","maxPowerKw":11,"isMegawatt":false,"status":"AVAILABLE","source":"ndw"}},{"type":"Feature","geometry":{"type":"Point","coordinates":[6.742878,52.157599]},"properties":{"type":"charge","layer":"passenger","locationId":"4a82c226-bc58-11ed-aee5-42010aa40fc0","name":"NL, Vincentstraat 14, 7481LA Haaksbergen","address":"Vincentstraat 14","city":"Haaksbergen","operatorName":"Allego","maxPowerKw":0,"isMegawatt":false,"status":"AVAILABLE","source":"ndw"}},{"type":"Feature","geometry":{"type":"Point","coordinates":[6.745287,52.16112]},"properties":{"type":"charge","layer":"passenger","locationId":"7868f22c-e923-11ec-b1d6-42010aa40fc0","name":"NL, De Boerenmaat 56, 7481DW, Haaksbergen","address":"De Boerenmaat 56","city":"Haaksbergen","operatorName":"Allego","maxPowerKw":0,"isMegawatt":false,"status":"AVAILABLE","source":"ndw"}},{"type":"Feature","geometry":{"type":"Point","coordinates":[6.742101,52.153589]},"properties":{"type":"charge","layer":"passenger","locationId":"bf8cd6e4-ae32-11ed-9810-42010aa40fc0","name":"NL, Doctor Prinsstraat 7, 7481 EV Haaksbergen","address":"Doctor Prinsstraat 7","city":"Haaksbergen","operatorName":"Allego","maxPowerKw":0,"isMegawatt":false,"status":"AVAILABLE","source":"ndw"}},{"type":"Feature","geometry":{"type":"Point","coordinates":[6.726116,52.153198]},"properties":{"type":"charge","layer":"passenger","locationId":"63f869a7c74f430011aa556b","name":"Cubuso BV","address":"Industriestraat 77","city":"Haaksbergen","operatorName":"E-Flux by Road","maxPowerKw":16,"isMegawatt":false,"status":"AVAILABLE","source":"ndw","priceKwh":0.429}},{"type":"Feature","geometry":{"type":"Point","coordinates":[6.74765,52.16183]},"properties":{"type":"charge","layer":"passenger","locationId":"f9a19313086deb3ab340b84fee9c0c87","name":"Merelstraat 76","address":"Merelstraat 76","city":"Haaksbergen","operatorName":"Vattenfall InCharge","maxPowerKw":11,"isMegawatt":false,"status":"AVAILABLE","source":"ndw"}},{"type":"Feature","geometry":{"type":"Point","coordinates":[6.742351,52.173556]},"properties":{"type":"charge","layer":"passenger","locationId":"68ee419878706013cd367f2c","name":"Argos Haaksbergen Textielstraat","address":"Textielstraat 1","city":"Haaksbergen","operatorName":"VARO Charging","maxPowerKw":76,"isMegawatt":false,"status":"AVAILABLE","source":"ndw","priceKwh":0.68}},{"type":"Feature","geometry":{"type":"Point","coordinates":[6.735639,52.156506]},"properties":{"type":"charge","layer":"passenger","locationId":"41fc70d6-21b4-11ee-a565-42010aa40fc0","name":"NL, Frankenhuis, 34, 7481MB, Haaksbergen","address":"Frankenhuis 34","city":"Haaksbergen","operatorName":"Allego","maxPowerKw":0,"isMegawatt":false,"status":"AVAILABLE","source":"ndw"}},{"type":"Feature","geometry":{"type":"Point","coordinates":[6.746303,52.1658]},"properties":{"type":"charge","layer":"passenger","locationId":"973b7886-aca1-11ed-924b-42010aa40fc0","name":"NL, Beethovenstraat 32, 7482TK, Haaksbergen","address":"Beethovenstraat 32","city":"Haaksbergen","operatorName":"Allego","maxPowerKw":0,"isMegawatt":false,"status":"AVAILABLE","source":"ndw"}},{"type":"Feature","geometry":{"type":"Point","coordinates":[6.748213,52.172729]},"properties":{"type":"charge","layer":"passenger","locationId":"486","name":"Shell Recharge NL9109 - Gamma Haaksbergen","address":"Textielstraat 24","city":"Haaksbergen","operatorName":"Shell Recharge","maxPowerKw":150,"isMegawatt":false,"status":"AVAILABLE","source":"ndw","priceKwh":0.7025}},{"type":"Feature","geometry":{"type":"Point","coordinates":[6.717676,52.160733]},"properties":{"type":"charge","layer":"passenger","locationId":"236462ec-f133-11e9-b9b0-42010a840003","name":"NLD, De Volmer 96, 7482HB, Haaksbergen","address":"De Volmer 96","city":"Haaksbergen","operatorName":"Allego","maxPowerKw":0,"isMegawatt":false,"status":"AVAILABLE","source":"ndw"}},{"type":"Feature","geometry":{"type":"Point","coordinates":[6.715392,52.159497]},"properties":{"type":"charge","layer":"passenger","locationId":"07f1b5f143daf8eeb9cf07788252d99a","name":"Warfriet 25","address":"Warfriet 25","city":"Haaksbergen","operatorName":"Vattenfall InCharge","maxPowerKw":11,"isMegawatt":false,"status":"CHARGING","source":"ndw"}},{"type":"Feature","geometry":{"type":"Point","coordinates":[6.746968,52.156478]},"properties":{"type":"charge","layer":"passenger","locationId":"818f5c8c-8ecb-41c4-9687-8048d672f247","name":"Telgengaarden","address":"Telgengaarden 1","city":"Haaksbergen","operatorName":"Vattenfall InCharge","maxPowerKw":11,"isMegawatt":false,"status":"AVAILABLE","source":"ndw"}},{"type":"Feature","geometry":{"type":"Point","coordinates":[6.754333,52.165236]},"properties":{"type":"charge","layer":"passenger","locationId":"95455bb6-72dc-11ea-8939-42010a840003","name":"NL, Bonifatiushof 52, 7481AB, Haaksbergen","address":"Bonifatiushof 52","city":"Haaksbergen","operatorName":"Allego","maxPowerKw":0,"isMegawatt":false,"status":"AVAILABLE","source":"ndw"}},{"type":"Feature","geometry":{"type":"Point","coordinates":[6.70462,52.1544]},"properties":{"type":"charge","layer":"passenger","locationId":"68a73fc807b3d1cddb111937","name":"Léon Bouwman 's station","address":"Brammeloweg 16","city":"Haaksbergen","operatorName":"E-Flux by Road","maxPowerKw":11,"isMegawatt":false,"status":"CHARGING","source":"ndw","priceKwh":0.38}},{"type":"Feature","geometry":{"type":"Point","coordinates":[6.751823,52.160636]},"properties":{"type":"charge","layer":"passenger","locationId":"2955baa8-a75e-446c-b676-1e5db7f07ee2","name":"Geukerdijk ","address":"Geukerdijk 35","city":"Haaksbergen","operatorName":"Vattenfall InCharge","maxPowerKw":11,"isMegawatt":false,"status":"AVAILABLE","source":"ndw"}},{"type":"Feature","geometry":{"type":"Point","coordinates":[6.736824,52.156933]},"properties":{"type":"charge","layer":"passenger","locationId":"NLLOC010500","name":"NL,Lansinkstraat 86, 7481JR Haaksbergen","address":"Lansinkstraat 86","city":"Haaksbergen","operatorName":"Allego","maxPowerKw":0,"isMegawatt":false,"status":"AVAILABLE","source":"ndw","priceKwh":0.3488}},{"type":"Feature","geometry":{"type":"Point","coordinates":[6.718127,52.158746]},"properties":{"type":"charge","layer":"passenger","locationId":"a6b9fe59-2379-4cb2-820a-58ccb1e4e27e","name":"De Volmer","address":"De Volmer 26","city":"Haaksbergen","operatorName":"Vattenfall InCharge","maxPowerKw":11,"isMegawatt":false,"status":"AVAILABLE","source":"ndw"}},{"type":"Feature","geometry":{"type":"Point","coordinates":[6.72705,52.14716]},"properties":{"type":"charge","layer":"passenger","locationId":"42de893039134042964b","name":"Haaksbergen Stichting Groot Scholtenhagen P1","address":"Scholtenhagenweg 29","city":"Haaksbergen","operatorName":"Opcharge","maxPowerKw":11,"isMegawatt":false,"status":"AVAILABLE","source":"ndw","priceKwh":0.49}},{"type":"Feature","geometry":{"type":"Point","coordinates":[6.732924,52.167154]},"properties":{"type":"charge","layer":"passenger","locationId":"c63d2266-73a5-11ea-ac5d-42010a840003","name":"NL, Brem 4, 7483 BX, Haaksbergen","address":"Brem 4","city":"Haaksbergen","operatorName":"Allego","maxPowerKw":0,"isMegawatt":false,"status":"AVAILABLE","source":"ndw"}},{"type":"Feature","geometry":{"type":"Point","coordinates":[6.723192,52.159418]},"properties":{"type":"charge","layer":"passenger","locationId":"cdd82852-ad6a-11ed-ae8a-42010aa40fc0","name":"NL, Stiegert, 62, 7482GE, Haaksbergen","address":"Stiegert 62","city":"Haaksbergen","operatorName":"Allego","maxPowerKw":0,"isMegawatt":false,"status":"AVAILABLE","source":"ndw"}},{"type":"Feature","geometry":{"type":"Point","coordinates":[6.732483,52.151601]},"properties":{"type":"charge","layer":"passenger","locationId":"4bfb31ea-aca1-11ed-bdf5-42010aa40fc0","name":"NL, Prins Bernhardstraat 37, 7481GX, Haaksbergen","address":"Prins Bernhardstraat 37","city":"Haaksbergen","operatorName":"Allego","maxPowerKw":0,"isMegawatt":false,"status":"AVAILABLE","source":"ndw"}},{"type":"Feature","geometry":{"type":"Point","coordinates":[6.721642,52.137982]},"properties":{"type":"charge","layer":"passenger","locationId":"6526e1efc4f5c90020dada5b","name":"Erve Bruggert BV","address":"scholtenhagenweg 46","city":"Haaksbergen","operatorName":"E-Flux by Road","maxPowerKw":11,"isMegawatt":false,"status":"AVAILABLE","source":"ndw","priceKwh":0.43}},{"type":"Feature","geometry":{"type":"Point","coordinates":[6.732925,52.161786]},"properties":{"type":"charge","layer":"passenger","locationId":"651c215b7c58560020d70ad0","name":"Nubix Electric / Nubix (VARO)*","address":"Hengelosestraat 1","city":"Haaksbergen","operatorName":"E-Flux by Road","maxPowerKw":22,"isMegawatt":false,"status":"UNAVAILABLE","source":"ndw","priceKwh":0.53}},{"type":"Feature","geometry":{"type":"Point","coordinates":[6.705405,52.176542]},"properties":{"type":"charge","layer":"passenger","locationId":"ede282aa-bfd9-414c-8be4-2b8990ad9d35","name":"Vaanholt","address":"Vaanholt 4","city":"Haaksbergen","operatorName":"Vattenfall InCharge","maxPowerKw":11,"isMegawatt":false,"status":"AVAILABLE","source":"ndw"}},{"type":"Feature","geometry":{"type":"Point","coordinates":[6.867227,52.136982]},"properties":{"type":"charge","layer":"passenger","locationId":"67a07e44dd42d1e42d1c0ca2","name":"62108 Salland Twente - Erve 't Markslag","address":"Markslagweg 9","city":"Buurse","operatorName":"E-Flux by Road","maxPowerKw":11,"isMegawatt":false,"status":"AVAILABLE","source":"ndw","priceKwh":0.43}},{"type":"Feature","geometry":{"type":"Point","coordinates":[6.741976,52.180147]},"properties":{"type":"charge","layer":"passenger","locationId":"923455","name":"DAE_NL_2001134","address":"Kabelstraat 3A","city":"Haaksbergen","operatorName":"DAEN Mobility","maxPowerKw":11,"isMegawatt":false,"status":"AVAILABLE","source":"ndw","priceKwh":0.29}},{"type":"Feature","geometry":{"type":"Point","coordinates":[6.732483,52.151601]},"properties":{"type":"charge","layer":"passenger","locationId":"NLLOC021676","name":"NL, Prins Bernhardstraat 37, 7481GX, Haaksbergen","address":"Prins Bernhardstraat 37","city":"Haaksbergen","operatorName":"Allego","maxPowerKw":0,"isMegawatt":false,"status":"AVAILABLE","source":"ndw","priceKwh":0.3488}},{"type":"Feature","geometry":{"type":"Point","coordinates":[6.72,52.15]},"properties":{"type":"charge","layer":"passenger","locationId":"3134865","name":"Laadnet Haak","address":"Kalanderijstraat 4","city":"Haaksbergen","operatorName":"Laadnet","maxPowerKw":11,"isMegawatt":false,"status":"UNAVAILABLE","source":"ndw"}},{"type":"Feature","geometry":{"type":"Point","coordinates":[6.742878,52.157599]},"properties":{"type":"charge","layer":"passenger","locationId":"NLLOC020308","name":"NL, Vincentstraat 14, 7481LA Haaksbergen","address":"Vincentstraat 14","city":"Haaksbergen","operatorName":"Allego","maxPowerKw":0,"isMegawatt":false,"status":"AVAILABLE","source":"ndw","priceKwh":0.3488}},{"type":"Feature","geometry":{"type":"Point","coordinates":[6.728029,52.14038]},"properties":{"type":"charge","layer":"passenger","locationId":"67e2cdacc7de0a3df18e932a","name":"Twentse Golf Academy","address":"Hasseltweg 5A","city":"Haaksbergen","operatorName":"Pluq","maxPowerKw":17,"isMegawatt":false,"status":"AVAILABLE","source":"ndw","priceKwh":0.4}},{"type":"Feature","geometry":{"type":"Point","coordinates":[6.746303,52.1658]},"properties":{"type":"charge","layer":"passenger","locationId":"NLLOC019696","name":"NL, Beethovenstraat 32, 7482TK, Haaksbergen","address":"Beethovenstraat 32","city":"Haaksbergen","operatorName":"Allego","maxPowerKw":0,"isMegawatt":false,"status":"AVAILABLE","source":"ndw","priceKwh":0.3488}},{"type":"Feature","geometry":{"type":"Point","coordinates":[6.721642,52.137982]},"properties":{"type":"charge","layer":"passenger","locationId":"6526e0d864946a00209c7f57","name":"Hotel Erve Bruggert BV 1","address":"scholtenhagenweg 46","city":"haaksbergen","operatorName":"E-Flux by Road","maxPowerKw":11,"isMegawatt":false,"status":"AVAILABLE","source":"ndw","priceKwh":0.43}},{"type":"Feature","geometry":{"type":"Point","coordinates":[6.737876,52.151901]},"properties":{"type":"charge","layer":"passenger","locationId":"c299b679-23bc-4283-87fa-69b2e1f16c13","name":"Ambachtstraat","address":"Ambachtstraat 32","city":"Haaksbergen","operatorName":"Vattenfall InCharge","maxPowerKw":11,"isMegawatt":false,"status":"AVAILABLE","source":"ndw"}},{"type":"Feature","geometry":{"type":"Point","coordinates":[6.727592,52.153586]},"properties":{"type":"charge","layer":"passenger","locationId":"60c876d269e4162cfd9be107","name":"Tandheelkunde Haaksbergen","address":"Kruislandstraat 42","city":"Haaksbergen","operatorName":"E-Flux by Road","maxPowerKw":11,"isMegawatt":false,"status":"AVAILABLE","source":"ndw","priceKwh":0.32}},{"type":"Feature","geometry":{"type":"Point","coordinates":[6.709803,52.150219]},"properties":{"type":"charge","layer":"passenger","locationId":"635a6bd008d2efde4e1df618","name":"EViiGO - Brammelo","address":"Tolstraat 35","city":"Haaksbergen","operatorName":"E-Flux by Road","maxPowerKw":180,"isMegawatt":false,"status":"AVAILABLE","source":"ndw","priceKwh":0.443}},{"type":"Feature","geometry":{"type":"Point","coordinates":[6.742364,52.179007]},"properties":{"type":"charge","layer":"passenger","locationId":"61eab1ac7c79379c34d5046c","name":"Uzin Utz Nederland B.V.","address":"Bouwstraat 18","city":"Haaksbergen","operatorName":"E-Flux by Road","maxPowerKw":22,"isMegawatt":false,"status":"AVAILABLE","source":"ndw","priceKwh":0.33}},{"type":"Feature","geometry":{"type":"Point","coordinates":[6.756576,52.160715]},"properties":{"type":"charge","layer":"passenger","locationId":"2666204","name":"Laadnet Enschedesestraat 93","address":"Enschedesestraat 93","city":"Haaksbergen","operatorName":"Laadnet","maxPowerKw":11,"isMegawatt":false,"status":"UNAVAILABLE","source":"ndw"}},{"type":"Feature","geometry":{"type":"Point","coordinates":[6.809822,52.149593]},"properties":{"type":"charge","layer":"passenger","locationId":"622f4bf60656a0aacdc477c0","name":"De Pol","address":"Meijersgaardenweg 4/6","city":"Haaksbergen","operatorName":"E-Flux by Road","maxPowerKw":22,"isMegawatt":false,"status":"AVAILABLE","source":"ndw","priceKwh":0.52}},{"type":"Feature","geometry":{"type":"Point","coordinates":[6.75039,52.16568]},"properties":{"type":"charge","layer":"passenger","locationId":"0c85b9f4e7b60b4489290d3bea8e3a12","name":"Mozartstraat 174","address":"Mozartstraat 174","city":"Haaksbergen","operatorName":"Vattenfall InCharge","maxPowerKw":11,"isMegawatt":false,"status":"AVAILABLE","source":"ndw"}},{"type":"Feature","geometry":{"type":"Point","coordinates":[6.740531,52.151458]},"properties":{"type":"charge","layer":"passenger","locationId":"bfede3ab-74ee-4057-a86d-11fe48d0eac2","name":"Molenstraat","address":"Molenstraat 56","city":"Haaksbergen","operatorName":"Vattenfall InCharge","maxPowerKw":11,"isMegawatt":false,"status":"CHARGING","source":"ndw"}},{"type":"Feature","geometry":{"type":"Point","coordinates":[6.70098,52.17179]},"properties":{"type":"charge","layer":"passenger","locationId":"363F9718-EBCD-4ABA-9DFE-3CE368593AAA","name":"Eneco eMobility Rietmolenweg 20 Haaksbergen","address":"Rietmolenweg 20","city":"Haaksbergen","operatorName":"Eneco","maxPowerKw":0,"isMegawatt":false,"status":"AVAILABLE","source":"ndw","priceKwh":0.47}},{"type":"Feature","geometry":{"type":"Point","coordinates":[6.739683,52.157223]},"properties":{"type":"charge","layer":"passenger","locationId":"bb48c497-cf0c-4b93-a06f-2b4eed9a56bd","name":"Kalter","address":"Kalter 4 d","city":"Haaksbergen","operatorName":"Vattenfall InCharge","maxPowerKw":11,"isMegawatt":false,"status":"AVAILABLE","source":"ndw"}},{"type":"Feature","geometry":{"type":"Point","coordinates":[6.729011,52.160753]},"properties":{"type":"charge","layer":"passenger","locationId":"bd3ae375ee0e4f54932e53cdc92bcd0d","name":"Albert Cuyplaan 69","address":"Albert Cuyplaan 69","city":"Haaksbergen","operatorName":"Vattenfall InCharge","maxPowerKw":11,"isMegawatt":false,"status":"AVAILABLE","source":"ndw"}},{"type":"Feature","geometry":{"type":"Point","coordinates":[6.736158,52.165749]},"properties":{"type":"charge","layer":"passenger","locationId":"61c9dae97cf85c2d953fc172","name":"Dauwnetel 9 Haaksbergen","address":"Dauwnetel  9","city":"Haaksbergen","operatorName":"E-Flux by Road","maxPowerKw":22,"isMegawatt":false,"status":"AVAILABLE","source":"ndw","priceKwh":0.3317}},{"type":"Feature","geometry":{"type":"Point","coordinates":[6.809844,52.149659]},"properties":{"type":"charge","layer":"passenger","locationId":"622f4e93d8524d5f44a2b712","name":"De Pol","address":"Meijersgaardenweg  4-6","city":"Haaksbergen","operatorName":"E-Flux by Road","maxPowerKw":22,"isMegawatt":false,"status":"AVAILABLE","source":"ndw","priceKwh":0.52}},{"type":"Feature","geometry":{"type":"Point","coordinates":[6.741973,52.17095]},"properties":{"type":"charge","layer":"passenger","locationId":"0b9ad02b742bb9c5b8cb1b648825bea7","name":"De Greune 21c","address":"De Greune 21c","city":"Haaksbergen","operatorName":"Vattenfall InCharge","maxPowerKw":11,"isMegawatt":false,"status":"AVAILABLE","source":"ndw"}},{"type":"Feature","geometry":{"type":"Point","coordinates":[6.739068,52.162308]},"properties":{"type":"charge","layer":"passenger","locationId":"54871e54-df3c-49b9-9813-0a2e68f017f3","name":"Evertsenstraat 5","address":"Evertsenstraat 5","city":"Haaksbergen","operatorName":"Vattenfall InCharge","maxPowerKw":11,"isMegawatt":false,"status":"AVAILABLE","source":"ndw"}},{"type":"Feature","geometry":{"type":"Point","coordinates":[6.742635,52.173967]},"properties":{"type":"charge","layer":"passenger","locationId":"625014f9284d630d544a2bf3","name":"MobiliteitsPartners laadstation","address":"Metaalstraat 3","city":"Haaksbergen","operatorName":"E-Flux by Road","maxPowerKw":22,"isMegawatt":false,"status":"AVAILABLE","source":"ndw","priceKwh":0.58}},{"type":"Feature","geometry":{"type":"Point","coordinates":[6.74263,52.173976]},"properties":{"type":"charge","layer":"passenger","locationId":"62863b211f79cf56cea9cc5c","name":"MobiliteitsPartners laadstation","address":"Metaalstraat  3","city":"Haaksbergen","operatorName":"E-Flux by Road","maxPowerKw":22,"isMegawatt":false,"status":"AVAILABLE","source":"ndw","priceKwh":0.58}},{"type":"Feature","geometry":{"type":"Point","coordinates":[6.724788,52.163302]},"properties":{"type":"charge","layer":"passenger","locationId":"7d3181c8-7482-42b5-9425-f03cd65f0407","name":"Nijenkerckestraat","address":"Nijenkerckestraat 54","city":"Haaksbergen","operatorName":"Vattenfall InCharge","maxPowerKw":11,"isMegawatt":false,"status":"AVAILABLE","source":"ndw"}},{"type":"Feature","geometry":{"type":"Point","coordinates":[6.740365,52.15523]},"properties":{"type":"charge","layer":"passenger","locationId":"f72a469a-af3d-4a0f-84ff-069fcfec8afa","name":"Hibbertsstraat 6","address":"Hibbertsstraat 6","city":"Haaksbergen","operatorName":"Vattenfall InCharge","maxPowerKw":11,"isMegawatt":false,"status":"AVAILABLE","source":"ndw"}},{"type":"Feature","geometry":{"type":"Point","coordinates":[6.745205,52.165982]},"properties":{"type":"charge","layer":"passenger","locationId":"63c938d7a8c45c00123f6a95","name":"Zwiers 's station","address":"Beethovenstraat  67","city":"Haaksbergen","operatorName":"E-Flux by Road","maxPowerKw":22,"isMegawatt":false,"status":"AVAILABLE","source":"ndw","priceKwh":0.83}},{"type":"Feature","geometry":{"type":"Point","coordinates":[6.745287,52.16112]},"properties":{"type":"charge","layer":"passenger","locationId":"NLLOC017592","name":"NL, De Boerenmaat 56, 7481DW, Haaksbergen","address":"De Boerenmaat 56","city":"Haaksbergen","operatorName":"Allego","maxPowerKw":0,"isMegawatt":false,"status":"AVAILABLE","source":"ndw","priceKwh":0.3488}},{"type":"Feature","geometry":{"type":"Point","coordinates":[6.732924,52.167154]},"properties":{"type":"charge","layer":"passenger","locationId":"NLLOC006542","name":"NL, Brem 4, 7483 BX, Haaksbergen","address":"Brem 4","city":"Haaksbergen","operatorName":"Allego","maxPowerKw":0,"isMegawatt":false,"status":"AVAILABLE","source":"ndw","priceKwh":0.3488}},{"type":"Feature","geometry":{"type":"Point","coordinates":[6.72748,52.15304]},"properties":{"type":"charge","layer":"passenger","locationId":"7534417f08a061594126e0158d847deb","name":"Twijnerstraat 65","address":"Twijnerstraat 65","city":"Haaksbergen","operatorName":"Vattenfall InCharge","maxPowerKw":11,"isMegawatt":false,"status":"AVAILABLE","source":"ndw"}},{"type":"Feature","geometry":{"type":"Point","coordinates":[6.739466,52.15326]},"properties":{"type":"charge","layer":"passenger","locationId":"d8ec6c59-0149-4ae2-bbd3-f7664f09c8ce","name":"Eibergsestraat 16","address":"Eibergsestraat 16","city":"Haaksbergen","operatorName":"Vattenfall InCharge","maxPowerKw":11,"isMegawatt":false,"status":"AVAILABLE","source":"ndw"}},{"type":"Feature","geometry":{"type":"Point","coordinates":[6.74972,52.168092]},"properties":{"type":"charge","layer":"passenger","locationId":"95eefeab-fbd7-46e6-a1df-023cb5e3e086","name":"de Berk ","address":"de Berk  3","city":"Haaksbergen","operatorName":"Vattenfall InCharge","maxPowerKw":11,"isMegawatt":false,"status":"AVAILABLE","source":"ndw"}},{"type":"Feature","geometry":{"type":"Point","coordinates":[6.719832,52.165862]},"properties":{"type":"charge","layer":"passenger","locationId":"727b59b1-3db1-4dbc-8d18-54da45fa44a2","name":"Ulenholt 9","address":"Ulenholt 9","city":"Haaksbergen","operatorName":"Vattenfall InCharge","maxPowerKw":11,"isMegawatt":false,"status":"AVAILABLE","source":"ndw"}},{"type":"Feature","geometry":{"type":"Point","coordinates":[6.743242,52.155431]},"properties":{"type":"charge","layer":"passenger","locationId":"43c2a78d-2dab-484f-af3f-6ca8cb4593fc","name":"Blankenburgerstraat","address":"Blankenburgerstraat 38j","city":"Haaksbergen","operatorName":"Vattenfall InCharge","maxPowerKw":11,"isMegawatt":false,"status":"AVAILABLE","source":"ndw"}},{"type":"Feature","geometry":{"type":"Point","coordinates":[6.738623,52.169786]},"properties":{"type":"charge","layer":"passenger","locationId":"NLLOC006369","name":"NL, Papaver 1, 7483CN, Haaksbergen","address":"Papaver 1","city":"Haaksbergen","operatorName":"Allego","maxPowerKw":0,"isMegawatt":false,"status":"AVAILABLE","source":"ndw","priceKwh":0.3488}},{"type":"Feature","geometry":{"type":"Point","coordinates":[6.723192,52.159418]},"properties":{"type":"charge","layer":"passenger","locationId":"NLLOC014527","name":"NL, Stiegert, 62, 7482GE, Haaksbergen","address":"Stiegert 62","city":"Haaksbergen","operatorName":"Allego","maxPowerKw":0,"isMegawatt":false,"status":"AVAILABLE","source":"ndw","priceKwh":0.3488}},{"type":"Feature","geometry":{"type":"Point","coordinates":[6.735639,52.156506]},"properties":{"type":"charge","layer":"passenger","locationId":"NLLOC010145","name":"NL, Frankenhuis, 34, 7481MB, Haaksbergen","address":"Frankenhuis 34","city":"Haaksbergen","operatorName":"Allego","maxPowerKw":0,"isMegawatt":false,"status":"AVAILABLE","source":"ndw","priceKwh":0.3488}},{"type":"Feature","geometry":{"type":"Point","coordinates":[6.736026,52.16012]},"properties":{"type":"charge","layer":"passenger","locationId":"d737a78b-4f9d-43b7-8f8c-203ed4d85526","name":"Van Heemskerkstraat","address":"Van Heemskerkstraat 16","city":"Haaksbergen","operatorName":"Vattenfall InCharge","maxPowerKw":11,"isMegawatt":false,"status":"CHARGING","source":"ndw"}},{"type":"Feature","geometry":{"type":"Point","coordinates":[6.754333,52.165236]},"properties":{"type":"charge","layer":"passenger","locationId":"NLLOC008059","name":"NL, Bonifatiushof 52, 7481AB, Haaksbergen","address":"Bonifatiushof 52","city":"Haaksbergen","operatorName":"Allego","maxPowerKw":0,"isMegawatt":false,"status":"AVAILABLE","source":"ndw","priceKwh":0.3488}},{"type":"Feature","geometry":{"type":"Point","coordinates":[6.746483,52.166879]},"properties":{"type":"charge","layer":"passenger","locationId":"449ad6efe74cf4718462825dba793275","name":"Veldmaterstraat 24","address":"Veldmaterstraat 24","city":"Haaksbergen","operatorName":"Vattenfall InCharge","maxPowerKw":11,"isMegawatt":false,"status":"AVAILABLE","source":"ndw"}},{"type":"Feature","geometry":{"type":"Point","coordinates":[6.747233,52.163275]},"properties":{"type":"charge","layer":"passenger","locationId":"8d0b8023-9377-4cba-b3b7-c7857c53342c","name":"Wiedenbroeksingel 82","address":"Wiedenbroeksingel 82","city":"Haaksbergen","operatorName":"Vattenfall InCharge","maxPowerKw":11,"isMegawatt":false,"status":"AVAILABLE","source":"ndw"}},{"type":"Feature","geometry":{"type":"Point","coordinates":[6.74194,52.16127]},"properties":{"type":"charge","layer":"passenger","locationId":"3c61d5069906a3fa8e276ebdb273d84d","name":"Cornelis Jolstraat 3","address":"Cornelis Jolstraat 3","city":"Haaksbergen","operatorName":"Vattenfall InCharge","maxPowerKw":11,"isMegawatt":false,"status":"AVAILABLE","source":"ndw"}},{"type":"Feature","geometry":{"type":"Point","coordinates":[6.757362,52.164417]},"properties":{"type":"charge","layer":"passenger","locationId":"0ae429d1cd2e6a8958398dc500b2de5f","name":"Geukerdijk 92","address":"Geukerdijk 92","city":"Haaksbergen","operatorName":"Vattenfall InCharge","maxPowerKw":11,"isMegawatt":false,"status":"AVAILABLE","source":"ndw"}},{"type":"Feature","geometry":{"type":"Point","coordinates":[6.717676,52.160733]},"properties":{"type":"charge","layer":"passenger","locationId":"NLLOC005219","name":"NLD, De Volmer 96, 7482HB, Haaksbergen","address":"De Volmer 96","city":"Haaksbergen","operatorName":"Allego","maxPowerKw":0,"isMegawatt":false,"status":"AVAILABLE","source":"ndw","priceKwh":0.3488}},{"type":"Feature","geometry":{"type":"Point","coordinates":[6.718244,52.164216]},"properties":{"type":"charge","layer":"passenger","locationId":"21e26f4a-7b89-4003-b85c-2efdb643b035","name":"Reute","address":"Reute 32","city":"Haaksbergen","operatorName":"Vattenfall InCharge","maxPowerKw":11,"isMegawatt":false,"status":"CHARGING","source":"ndw"}},{"type":"Feature","geometry":{"type":"Point","coordinates":[6.741292,52.157563]},"properties":{"type":"charge","layer":"passenger","locationId":"99b30d2d-dcf9-421c-9d47-04d598b15788","name":"Vincentstraat 39","address":"Vincentstraat 39","city":"Haaksbergen","operatorName":"Vattenfall InCharge","maxPowerKw":11,"isMegawatt":false,"status":"AVAILABLE","source":"ndw"}},{"type":"Feature","geometry":{"type":"Point","coordinates":[6.701094,52.177721]},"properties":{"type":"charge","layer":"passenger","locationId":"6efbc872-278b-4ed0-931d-e292d6bdfff0","name":"Beckummerweg","address":"Beckummerweg 7","city":"Haaksbergen","operatorName":"Vattenfall InCharge","maxPowerKw":11,"isMegawatt":false,"status":"AVAILABLE","source":"ndw"}},{"type":"Feature","geometry":{"type":"Point","coordinates":[6.729259,52.160581]},"properties":{"type":"charge","layer":"passenger","locationId":"64e3e5d0-9b83-4143-9338-d7c66331d69a","name":"Ferdinand Bolstraat","address":"Ferdinand Bolstraat 12","city":"Haaksbergen","operatorName":"Vattenfall InCharge","maxPowerKw":11,"isMegawatt":false,"status":"AVAILABLE","source":"ndw"}},{"type":"Feature","geometry":{"type":"Point","coordinates":[6.74917,52.154479]},"properties":{"type":"charge","layer":"passenger","locationId":"0e76b6c5-fa67-479e-a8fd-14d35701084d","name":"Buurserstraat 48","address":"Buurserstraat 48","city":"Haaksbergen","operatorName":"Vattenfall InCharge","maxPowerKw":11,"isMegawatt":false,"status":"AVAILABLE","source":"ndw"}},{"type":"Feature","geometry":{"type":"Point","coordinates":[6.735867,52.164499]},"properties":{"type":"charge","layer":"passenger","locationId":"cbfbd815-9ba0-4559-a543-5e1dc614cc35","name":"Boterbloem","address":"Boterbloem 7","city":"Haaksbergen","operatorName":"Vattenfall InCharge","maxPowerKw":11,"isMegawatt":false,"status":"AVAILABLE","source":"ndw"}},{"type":"Feature","geometry":{"type":"Point","coordinates":[6.726574,52.16609]},"properties":{"type":"charge","layer":"passenger","locationId":"d17bc91d-217e-4348-8b7f-58e1a9394758","name":"Orchidee 2","address":"Orchidee 2","city":"Haaksbergen","operatorName":"Vattenfall InCharge","maxPowerKw":11,"isMegawatt":false,"status":"AVAILABLE","source":"ndw"}},{"type":"Feature","geometry":{"type":"Point","coordinates":[6.732425,52.163556]},"properties":{"type":"charge","layer":"passenger","locationId":"0322751072505af966c4f154d69a20d0","name":"Korenbloem 1","address":"Korenbloem 1","city":"Haaksbergen","operatorName":"Vattenfall InCharge","maxPowerKw":11,"isMegawatt":false,"status":"AVAILABLE","source":"ndw"}},{"type":"Feature","geometry":{"type":"Point","coordinates":[6.731967,52.165446]},"properties":{"type":"charge","layer":"passenger","locationId":"8572c2bf-36c7-4615-9c93-c55d022c6ec5","name":"Ranonkel 2","address":"Ranonkel 2","city":"Haaksbergen","operatorName":"Vattenfall InCharge","maxPowerKw":11,"isMegawatt":false,"status":"AVAILABLE","source":"ndw"}},{"type":"Feature","geometry":{"type":"Point","coordinates":[6.831515,52.14572]},"properties":{"type":"charge","layer":"passenger","locationId":"23aa953c-d8ce-4e4d-aefd-5d6c7b8ebd45","name":"De Noor 58","address":"De Noor 58","city":"Haaksbergen","operatorName":"Vattenfall InCharge","maxPowerKw":11,"isMegawatt":false,"status":"AVAILABLE","source":"ndw"}},{"type":"Feature","geometry":{"type":"Point","coordinates":[6.743786,52.159059]},"properties":{"type":"charge","layer":"passenger","locationId":"5e7bf70946ed46c1a0cb2477c7690ecc","name":"Kortenaerstraat 2","address":"Kortenaerstraat 2","city":"Haaksbergen","operatorName":"Vattenfall InCharge","maxPowerKw":11,"isMegawatt":false,"status":"AVAILABLE","source":"ndw"}},{"type":"Feature","geometry":{"type":"Point","coordinates":[6.719113,52.166519]},"properties":{"type":"charge","layer":"passenger","locationId":"064cd7ff86461718b68873ced8987ada","name":"Hondelink 162","address":"Hondelink 162","city":"Haaksbergen","operatorName":"Vattenfall InCharge","maxPowerKw":11,"isMegawatt":false,"status":"AVAILABLE","source":"ndw"}},{"type":"Feature","geometry":{"type":"MultiPolygon","coordinates":[[[[6.712388376071087,52.20633127022288],[6.763678592982034,52.19189755923149],[6.766801312622539,52.191064596690644],[6.776600890732831,52.18430536601092],[6.788173469140949,52.17629239825855],[6.805595042853691,52.16660605475071],[6.814278312603811,52.17086066136336],[6.827991727149878,52.17100606346596],[6.869866526111329,52.162692856361126],[6.889751544133015,52.16120540261541],[6.880459423748621,52.15600901408293],[6.881961575956273,52.15597596287798],[6.873302144224976,52.13297338787531],[6.873459591118317,52.130283204430334],[6.867089330788918,52.1280708402114],[6.855474867679811,52.120461655548176],[6.843199416400476,52.119196653945245],[6.822711059020609,52.11840387607735],[6.76362634710837,52.11876287945511],[6.760572717042338,52.118779713359494],[6.739506113157682,52.11855625487781],[6.739493326494231,52.11810461074084],[6.716272580583762,52.118270302031426],[6.711290083771568,52.11970814813689],[6.697810232726371,52.12355361677548],[6.677690787301685,52.12595894192583],[6.672556396056522,52.12737029651942],[6.663003644416794,52.13000107697105],[6.668409308952805,52.13661472084694],[6.672613296941712,52.139309991836946],[6.6743951209990895,52.14277449677268],[6.673748579978805,52.14828664531381],[6.671309571288404,52.15045816451212],[6.672679174283871,52.150507402773584],[6.673819758896659,52.1521036736514],[6.672429073289841,52.15303174694937],[6.673095374976744,52.15475334822127],[6.67061057163975,52.15642037626112],[6.673914492433091,52.15881445031929],[6.673640746028825,52.159862380331575],[6.673147319720861,52.16011893952768],[6.674067109573086,52.161243512733044],[6.6727848067087985,52.161379119437186],[6.673397782814785,52.163239752201264],[6.671973889905236,52.16492728549415],[6.671339338328818,52.165683252546394],[6.649212180714987,52.172878566821254],[6.645041079903394,52.17419434172086],[6.647294462054604,52.17689535987084],[6.642755354578523,52.18144718903207],[6.641391742020053,52.18090628491438],[6.640123925287051,52.18128058538288],[6.6344541603559986,52.185955272024266],[6.63080677306682,52.18629861745505],[6.624484760812941,52.18887935690591],[6.653082381261482,52.19370071994297],[6.672050940026745,52.19818668966932],[6.675646855297467,52.19791301752668],[6.683776631010777,52.19729388972893],[6.697494670096624,52.19624788221637],[6.704279747054188,52.19923542173288],[6.712388376071087,52.20633127022288]]]]},"properties":{"type":"boundary","gemeente":"Haaksbergen","code":"GM0158"}}]}