{"type":"FeatureCollection","metadata":{"gemeente":"Haarlemmermeer","slug":"haarlemmermeer","code":"GM0394","generated_at":"2026-06-07T19:22:09.578Z","total_passenger":638,"total_freight":6,"bounds":[4.550469762324709,52.214476171998044,4.819061389651349,52.43333626450937],"operators":["Allego","Alva Charging Services","ChargePoint","DAEN Mobility","E-Flux by Road","EQUANS","Eneco","Fastned","Greenchoice B.V.","IPCharging","Laadnet","Lidl","NXT Charging Solutions","NXT50Five","Opcharge","Pluq","PowerGo","PureCharged","Q-Park Netherlands","Shell Recharge","Spirii","Tesla","TotalEnergies","Ubitricity","Valk Energy","Vattenfall InCharge","bp pulse","e-VOLTT"]},"features":[{"type":"Feature","geometry":{"type":"Point","coordinates":[4.714819,52.292356]},"properties":{"type":"charge","layer":"passenger","locationId":"cfd5ad60-5d75-11f0-a77d-42010aa400b8","name":"bp pulse Hoofddorp","address":"Kruisweg 450","city":"Hoofddorp","operatorName":"bp pulse","maxPowerKw":150,"isMegawatt":false,"status":"AVAILABLE","source":"ndw","priceKwh":0.7}},{"type":"Feature","geometry":{"type":"Point","coordinates":[4.6567,52.30674]},"properties":{"type":"charge","layer":"passenger","locationId":"220","name":"Shell Recharge NL Doornburg 50","address":"Doornburg 50","city":"Hoofddorp","operatorName":"Ubitricity","maxPowerKw":11,"isMegawatt":false,"status":"UNAVAILABLE","source":"ndw","priceKwh":0.388}},{"type":"Feature","geometry":{"type":"Point","coordinates":[4.703837,52.289047]},"properties":{"type":"charge","layer":"passenger","locationId":"923011","name":"P47 DAE_NL_2000467","address":"Taurusavenue 133","city":"Hoofddorp","operatorName":"DAEN Mobility","maxPowerKw":22,"isMegawatt":false,"status":"AVAILABLE","source":"ndw","priceKwh":0.36}},{"type":"Feature","geometry":{"type":"Point","coordinates":[4.661255,52.304831]},"properties":{"type":"charge","layer":"passenger","locationId":"d593349c-407f-11eb-a106-42010a84004a","name":"TNLP005860","address":"Edelenburg 1","city":"Hoofddorp","operatorName":"TotalEnergies","maxPowerKw":0,"isMegawatt":false,"status":"CHARGING","source":"ndw","priceKwh":0.4}},{"type":"Feature","geometry":{"type":"Point","coordinates":[4.703837,52.289047]},"properties":{"type":"charge","layer":"passenger","locationId":"923004","name":"P40 DAE_NL_2001212","address":"Taurusavenue 133","city":"Hoofddorp","operatorName":"DAEN Mobility","maxPowerKw":22,"isMegawatt":false,"status":"AVAILABLE","source":"ndw"}},{"type":"Feature","geometry":{"type":"Point","coordinates":[4.801723,52.321131]},"properties":{"type":"charge","layer":"passenger","locationId":"758d2d62-d3a7-11f0-8b5a-42010aa400b8","name":"Eneco eMobility Transdev - Schiphol - Cateringweg","address":"Cateringweg 12","city":"Schiphol","operatorName":"Eneco","maxPowerKw":22,"isMegawatt":false,"status":"AVAILABLE","source":"ndw","priceKwh":0.45}},{"type":"Feature","geometry":{"type":"Point","coordinates":[4.809174,52.307209]},"properties":{"type":"charge","layer":"passenger","locationId":"69a6e409f30e93c2a25ac0e6","name":"SPL-O Hoofdentree","address":"Stationsplein-ZW 1001","city":"Schiphol","operatorName":"E-Flux by Road","maxPowerKw":22,"isMegawatt":false,"status":"AVAILABLE","source":"ndw","priceKwh":0.2584}},{"type":"Feature","geometry":{"type":"Point","coordinates":[4.693974,52.310933]},"properties":{"type":"charge","layer":"passenger","locationId":"922879","name":"DAE-NL-200444","address":"J.C. Beetslaan 141","city":"Hoofddorp","operatorName":"DAEN Mobility","maxPowerKw":4,"isMegawatt":false,"status":"AVAILABLE","source":"ndw","priceKwh":0.28}},{"type":"Feature","geometry":{"type":"Point","coordinates":[4.703837,52.289047]},"properties":{"type":"charge","layer":"passenger","locationId":"923009","name":"P46 DAE_NL_2000466","address":"Taurusavenue 133","city":"Hoofddorp","operatorName":"DAEN Mobility","maxPowerKw":22,"isMegawatt":false,"status":"AVAILABLE","source":"ndw","priceKwh":0.36}},{"type":"Feature","geometry":{"type":"Point","coordinates":[4.79518,52.33323]},"properties":{"type":"charge","layer":"passenger","locationId":"184","name":"Shell Recharge NL Egelantierstraat 60","address":"Egelantierstraat 60","city":"Badhoevedorp","operatorName":"Ubitricity","maxPowerKw":11,"isMegawatt":false,"status":"CHARGING","source":"ndw","priceKwh":0.388}},{"type":"Feature","geometry":{"type":"Point","coordinates":[4.78261,52.28706]},"properties":{"type":"charge","layer":"passenger","locationId":"447","name":"Shell Recharge NL2378 - Shell Fokkerweg","address":"Fokkerweg 185","city":"Oude Meer","operatorName":"Shell Recharge","maxPowerKw":300,"isMegawatt":false,"status":"AVAILABLE","source":"ndw","priceKwh":0.7025}},{"type":"Feature","geometry":{"type":"Point","coordinates":[4.6635,52.30736]},"properties":{"type":"charge","layer":"passenger","locationId":"3ebdb09e-cd5c-11e8-9d26-42010a840002","name":"Shell Recharge NL Sonderholm 147 Hoofddorp","address":"Sonderholm 147","city":"Hoofddorp","operatorName":"Ubitricity","maxPowerKw":11,"isMegawatt":false,"status":"AVAILABLE","source":"ndw","priceKwh":0.39}},{"type":"Feature","geometry":{"type":"Point","coordinates":[4.708,52.30591]},"properties":{"type":"charge","layer":"passenger","locationId":"7ab7c076-8f31-11e8-aa06-42010a840002","name":"Shell Recharge NL Bernard Zweershof 1 Hoofddorp","address":"Bernard Zweershof 1","city":"Hoofddorp","operatorName":"Ubitricity","maxPowerKw":11,"isMegawatt":false,"status":"AVAILABLE","source":"ndw","priceKwh":0.39}},{"type":"Feature","geometry":{"type":"Point","coordinates":[4.64816,52.30501]},"properties":{"type":"charge","layer":"passenger","locationId":"9e4a2ed4-d546-11ec-b20d-42010a840003","name":"Shell Recharge NL Atletiekstraat 34 Hoofddorp","address":"Atletiekstraat 34","city":"Hoofddorp","operatorName":"Ubitricity","maxPowerKw":11,"isMegawatt":false,"status":"AVAILABLE","source":"ndw","priceKwh":0.39}},{"type":"Feature","geometry":{"type":"Point","coordinates":[4.63596,52.27222]},"properties":{"type":"charge","layer":"passenger","locationId":"a69a256a-4f3c-11e8-87f3-42010a840002","name":"Shell Recharge NL Marskramer 22 Haarlemmermeer","address":"Marskramer 22","city":"Haarlemmermeer","operatorName":"Ubitricity","maxPowerKw":11,"isMegawatt":false,"status":"AVAILABLE","source":"ndw","priceKwh":0.39}},{"type":"Feature","geometry":{"type":"Point","coordinates":[4.57333,52.25966]},"properties":{"type":"charge","layer":"passenger","locationId":"c41bebe8-8630-11e8-af96-42010a840002","name":"Shell Recharge NL Wolgrasstraat 2 Lisserbroek","address":"Wolgrasstraat 2","city":"Lisserbroek","operatorName":"Ubitricity","maxPowerKw":11,"isMegawatt":false,"status":"AVAILABLE","source":"ndw","priceKwh":0.39}},{"type":"Feature","geometry":{"type":"Point","coordinates":[4.630568,52.271972]},"properties":{"type":"charge","layer":"passenger","locationId":"547bc2c058a2de6ef5621e23bf973261","name":"Lucas Bolsstraat 2","address":"Lucas Bolsstraat 2","city":"Nieuw-Vennep","operatorName":"Vattenfall InCharge","maxPowerKw":11,"isMegawatt":false,"status":"AVAILABLE","source":"ndw"}},{"type":"Feature","geometry":{"type":"Point","coordinates":[4.761966,52.341571]},"properties":{"type":"charge","layer":"passenger","locationId":"80f8ccf4-627f-11f0-bca4-42010aa400b8","name":"Eneco eMobility ASR Dutch Core Residential Fund Rivage","address":"Oleanderlaan 176","city":"Badhoevedorp","operatorName":"Eneco","maxPowerKw":22,"isMegawatt":false,"status":"AVAILABLE","source":"ndw","priceKwh":0.32}},{"type":"Feature","geometry":{"type":"Point","coordinates":[4.624727,52.280771]},"properties":{"type":"charge","layer":"passenger","locationId":"00b2efba-e31a-11ee-8037-42010aa400b8","name":"TNLP008877","address":"Siciliano 76","city":"Nieuw-Vennep","operatorName":"TotalEnergies","maxPowerKw":14,"isMegawatt":false,"status":"UNAVAILABLE","source":"ndw","priceKwh":0.4}},{"type":"Feature","geometry":{"type":"Point","coordinates":[4.633106,52.309467]},"properties":{"type":"charge","layer":"passenger","locationId":"13932620-b1f1-11f0-a9a9-42010aa400b8","name":"PP005056","address":"Oosterschelde 34","city":"Hoofddorp","operatorName":"TotalEnergies","maxPowerKw":0,"isMegawatt":false,"status":"AVAILABLE","source":"ndw","priceKwh":0.4}},{"type":"Feature","geometry":{"type":"Point","coordinates":[4.684239,52.313319]},"properties":{"type":"charge","layer":"passenger","locationId":"317e7ac4-6ef7-11ef-81d4-42010aa400b8","name":"TNLP015460","address":"Legmeerstraat 60","city":"Hoofddorp","operatorName":"TotalEnergies","maxPowerKw":17,"isMegawatt":false,"status":"AVAILABLE","source":"ndw","priceKwh":0.3}},{"type":"Feature","geometry":{"type":"Point","coordinates":[4.685694,52.297215]},"properties":{"type":"charge","layer":"passenger","locationId":"5ca11b38-9cc0-11f0-91f5-42010aa400b8","name":"TNLP009902","address":"Graan voor Visch 17801","city":"Hoofddorp","operatorName":"TotalEnergies","maxPowerKw":17,"isMegawatt":false,"status":"AVAILABLE","source":"ndw","priceKwh":0.4}},{"type":"Feature","geometry":{"type":"Point","coordinates":[4.691995,52.413625]},"properties":{"type":"charge","layer":"passenger","locationId":"b3a7a8da-a9c1-11eb-a1ae-42010a840073","name":"TNLP005711","address":"Westhoff 95","city":"Spaarndam","operatorName":"TotalEnergies","maxPowerKw":17,"isMegawatt":false,"status":"AVAILABLE","source":"ndw","priceKwh":0.4}},{"type":"Feature","geometry":{"type":"Point","coordinates":[4.620711,52.313426]},"properties":{"type":"charge","layer":"passenger","locationId":"e6183266-f465-11ee-8b42-42010aa400b8","name":"TNLP007108","address":"Noppenstraat 18","city":"Zwaanshoek","operatorName":"TotalEnergies","maxPowerKw":17,"isMegawatt":false,"status":"AVAILABLE","source":"ndw","priceKwh":0.4}},{"type":"Feature","geometry":{"type":"Point","coordinates":[4.68057,52.295704]},"properties":{"type":"charge","layer":"passenger","locationId":"5a27819c-c9f6-11ee-84f8-42010aa40fc0","name":"Opaallaan 1180 Hoofddorp (PowerGo)","address":"Opaallaan 1180","city":"Hoofddorp","operatorName":"PowerGo","maxPowerKw":0,"isMegawatt":false,"status":"AVAILABLE","source":"ndw","priceKwh":0.53}},{"type":"Feature","geometry":{"type":"Point","coordinates":[4.707999,52.293179]},"properties":{"type":"charge","layer":"passenger","locationId":"a60cb876-309e-11ee-a530-42010aa40fc0","name":"Basic-Fit Nederland HQ Hoofddorp (PowerGo)","address":"Wegalaan 60","city":"Hoofddorp","operatorName":"PowerGo","maxPowerKw":0,"isMegawatt":false,"status":"AVAILABLE","source":"ndw"}},{"type":"Feature","geometry":{"type":"Point","coordinates":[4.728911,52.281222]},"properties":{"type":"charge","layer":"passenger","locationId":"9DE2172D-1D13-44B6-BA28-65E90A6C9820","name":"Eneco eMobility Transdev - Rozenburg - Mactanweg","address":"mactanweg 1","city":"Rozenburg","operatorName":"Eneco","maxPowerKw":11,"isMegawatt":false,"status":"AVAILABLE","source":"ndw","priceKwh":0.45}},{"type":"Feature","geometry":{"type":"Point","coordinates":[4.680003,52.345427]},"properties":{"type":"charge","layer":"passenger","locationId":"0e8918d6-c1c5-49dd-87f3-aec251589bca","name":"Vesting","address":"Vesting 19","city":"Vijfhuizen","operatorName":"Vattenfall InCharge","maxPowerKw":11,"isMegawatt":false,"status":"AVAILABLE","source":"ndw"}},{"type":"Feature","geometry":{"type":"Point","coordinates":[4.72392,52.289325]},"properties":{"type":"charge","layer":"passenger","locationId":"8f9d7d95-f797-406d-b986-a99abf23615d","name":"Vuursteen","address":"Vuursteen 5","city":"Hoofddorp","operatorName":"Vattenfall InCharge","maxPowerKw":50,"isMegawatt":false,"status":"AVAILABLE","source":"ndw"}},{"type":"Feature","geometry":{"type":"Point","coordinates":[4.61739,52.31323]},"properties":{"type":"charge","layer":"passenger","locationId":"66e406ae-8f31-11e8-8dad-42010a840002","name":"Shell Recharge NL Waltmanstraat 12 Zwaanshoek","address":"Waltmanstraat 12","city":"Zwaanshoek","operatorName":"Ubitricity","maxPowerKw":11,"isMegawatt":false,"status":"AVAILABLE","source":"ndw","priceKwh":0.39}},{"type":"Feature","geometry":{"type":"Point","coordinates":[4.671241,52.301077]},"properties":{"type":"charge","layer":"passenger","locationId":"b49256bc-dad3-11f0-8f2d-42010aa400b8","name":"Shell Recharge NL Hannie Schafstraat 114, Hoofddorp","address":"Hannie Schafstraat 114","city":"Hoofddorp","operatorName":"Ubitricity","maxPowerKw":22,"isMegawatt":false,"status":"AVAILABLE","source":"ndw","priceKwh":0.29}},{"type":"Feature","geometry":{"type":"Point","coordinates":[4.63528,52.30527]},"properties":{"type":"charge","layer":"passenger","locationId":"c20e39d2-8630-11e8-870e-42010a840002","name":"Shell Recharge NL Colijnstraat 2 Hoofddorp","address":"Colijnstraat 2","city":"Hoofddorp","operatorName":"Ubitricity","maxPowerKw":11,"isMegawatt":false,"status":"CHARGING","source":"ndw","priceKwh":0.39}},{"type":"Feature","geometry":{"type":"Point","coordinates":[4.703837,52.289047]},"properties":{"type":"charge","layer":"passenger","locationId":"922984","name":"P31 DAE_NL_2000451","address":"Taurusavenue 133","city":"Hoofddorp","operatorName":"DAEN Mobility","maxPowerKw":22,"isMegawatt":false,"status":"AVAILABLE","source":"ndw","priceKwh":0.36}},{"type":"Feature","geometry":{"type":"Point","coordinates":[4.703837,52.289047]},"properties":{"type":"charge","layer":"passenger","locationId":"923015","name":"P53 DAE_NL_2000471","address":"Taurusavenue 133","city":"Hoofddorp","operatorName":"DAEN Mobility","maxPowerKw":22,"isMegawatt":false,"status":"AVAILABLE","source":"ndw","priceKwh":0.36}},{"type":"Feature","geometry":{"type":"Point","coordinates":[4.788307,52.292426]},"properties":{"type":"charge","layer":"passenger","locationId":"923109","name":"DAE_NL_2000909","address":"Fokkerpark 300 Gebouw 7B","city":"Oude Meer","operatorName":"DAEN Mobility","maxPowerKw":11,"isMegawatt":false,"status":"AVAILABLE","source":"ndw","priceKwh":0.2}},{"type":"Feature","geometry":{"type":"Point","coordinates":[4.6320376,52.3072257]},"properties":{"type":"charge","layer":"passenger","locationId":"1169","name":"Shell Recharge NL Westerschelde 10","address":"Westerschelde 10","city":"Hoofddorp","operatorName":"Ubitricity","maxPowerKw":22,"isMegawatt":false,"status":"CHARGING","source":"ndw","priceKwh":0.266}},{"type":"Feature","geometry":{"type":"Point","coordinates":[4.708671,52.294466]},"properties":{"type":"charge","layer":"passenger","locationId":"7c048512-2fc2-11ef-9600-42010aa400b8","name":"Eneco eMobility Abbott B.V. - Hoofddorp","address":"Wegalaan 9","city":"Hoofddorp","operatorName":"Eneco","maxPowerKw":0,"isMegawatt":false,"status":"UNAVAILABLE","source":"ndw","priceKwh":0.32}},{"type":"Feature","geometry":{"type":"Point","coordinates":[4.746454,52.280117]},"properties":{"type":"charge","layer":"passenger","locationId":"eddfb444-8512-11f0-a8b2-42010aa400b8","name":"Eneco eMobility Lodewijck Groep BV","address":"Beechavenue 139","city":"Schiphol-Rijk","operatorName":"Eneco","maxPowerKw":22,"isMegawatt":false,"status":"AVAILABLE","source":"ndw","priceKwh":0.45}},{"type":"Feature","geometry":{"type":"Point","coordinates":[4.617639,52.276663]},"properties":{"type":"charge","layer":"passenger","locationId":"16a8cb0e-6100-11f0-b913-42010aa400b8","name":"TNLP008798","address":"Bolwerksepoort 48","city":"Nieuw-Vennep","operatorName":"TotalEnergies","maxPowerKw":14,"isMegawatt":false,"status":"CHARGING","source":"ndw","priceKwh":0.4}},{"type":"Feature","geometry":{"type":"Point","coordinates":[4.655342,52.315375]},"properties":{"type":"charge","layer":"passenger","locationId":"1bc6e92e-7bb6-11f0-a3fa-42010aa400b8","name":"PP005580","address":"Wallebos 102","city":"Hoofddorp","operatorName":"TotalEnergies","maxPowerKw":14,"isMegawatt":false,"status":"UNAVAILABLE","source":"ndw","priceKwh":0.4}},{"type":"Feature","geometry":{"type":"Point","coordinates":[4.756335,52.373258]},"properties":{"type":"charge","layer":"passenger","locationId":"25c01d04-f0fd-11ea-80e2-42010a84002e","name":"PP005271","address":"Wilgenlaan 3","city":"Zwanenburg","operatorName":"TotalEnergies","maxPowerKw":0,"isMegawatt":false,"status":"AVAILABLE","source":"ndw","priceKwh":0.4}},{"type":"Feature","geometry":{"type":"Point","coordinates":[4.606181,52.25974]},"properties":{"type":"charge","layer":"passenger","locationId":"588ddc5e-d215-11f0-8bdd-42010aa400b8","name":"Eneco eMobility Transdev - Nieuw Vennep - Getsewoudweg","address":"Getsewoudweg 4","city":"Nieuw Vennep","operatorName":"Eneco","maxPowerKw":22,"isMegawatt":false,"status":"AVAILABLE","source":"ndw"}},{"type":"Feature","geometry":{"type":"Point","coordinates":[4.67996,52.285678]},"properties":{"type":"charge","layer":"passenger","locationId":"c0fa87e0-b8ef-11f0-8f08-42010aa400b8","name":"Eneco eMobility Somfy Nederland - Hoofddorp","address":"Jacobus Ahrendlaan 1","city":"Hoofddorp","operatorName":"Eneco","maxPowerKw":11,"isMegawatt":false,"status":"AVAILABLE","source":"ndw","priceKwh":0.32}},{"type":"Feature","geometry":{"type":"Point","coordinates":[4.626848,52.261689]},"properties":{"type":"charge","layer":"passenger","locationId":"22795a16-8851-11f0-ba1c-42010aa400b8","name":"Shell Recharge NL Zuiderdreef 5, Nieuw-Vennep","address":"Zuiderdreef 5","city":"Nieuw-Vennep","operatorName":"Ubitricity","maxPowerKw":22,"isMegawatt":false,"status":"AVAILABLE","source":"ndw","priceKwh":0.29}},{"type":"Feature","geometry":{"type":"Point","coordinates":[4.57307,52.25586]},"properties":{"type":"charge","layer":"passenger","locationId":"225","name":"Shell Recharge NL Muntstraat 78","address":"Muntstraat 78","city":"Lisserbroek","operatorName":"Ubitricity","maxPowerKw":11,"isMegawatt":false,"status":"CHARGING","source":"ndw","priceKwh":0.388}},{"type":"Feature","geometry":{"type":"Point","coordinates":[4.63651,52.31019]},"properties":{"type":"charge","layer":"passenger","locationId":"72db76ae-8f31-11e8-a22d-42010a840002","name":"Shell Recharge NL Schelphoek 1 Hoofddorp","address":"Schelphoek 1","city":"Hoofddorp","operatorName":"Ubitricity","maxPowerKw":11,"isMegawatt":false,"status":"AVAILABLE","source":"ndw","priceKwh":0.39}},{"type":"Feature","geometry":{"type":"Point","coordinates":[4.696032,52.307435]},"properties":{"type":"charge","layer":"passenger","locationId":"855edfb2-8b49-11ef-8efe-42010aa400b8","name":"Shell Recharge NL Dokter van Dorstensstraat 1 Hoofddorp","address":"Dokter van Dorstensstraat 1","city":"Hoofddorp","operatorName":"Ubitricity","maxPowerKw":22,"isMegawatt":false,"status":"AVAILABLE","source":"ndw","priceKwh":0.29}},{"type":"Feature","geometry":{"type":"Point","coordinates":[4.69818,52.29348]},"properties":{"type":"charge","layer":"passenger","locationId":"df652bdd9a664bb48a88e27c95ecdb41","name":"Hoofddorp Square Four","address":"Mercuriusplein","city":"Hoofddorp","operatorName":"Opcharge","maxPowerKw":22,"isMegawatt":false,"status":"AVAILABLE","source":"ndw","priceKwh":0.49}},{"type":"Feature","geometry":{"type":"Point","coordinates":[4.751261,52.346966]},"properties":{"type":"charge","layer":"passenger","locationId":"4175084","name":"Laadnet Spicy Soda Hoofdweg","address":"Hoofdweg 121","city":"Lijnden","operatorName":"Laadnet","maxPowerKw":22,"isMegawatt":false,"status":"AVAILABLE","source":"ndw"}},{"type":"Feature","geometry":{"type":"Point","coordinates":[4.721771,52.290293]},"properties":{"type":"charge","layer":"passenger","locationId":"33891a36-fc35-11ec-942c-42010aa4000d","name":"Eneco eMobility Kruisweg 577 Hoofddorp","address":"Kruisweg 577","city":"Hoofddorp","operatorName":"Eneco","maxPowerKw":0,"isMegawatt":false,"status":"CHARGING","source":"ndw","priceKwh":0.32}},{"type":"Feature","geometry":{"type":"Point","coordinates":[4.72906,52.28]},"properties":{"type":"charge","layer":"passenger","locationId":"88bd5304-fc36-11ec-9ee3-42010aa40014","name":"Eneco eMobility Neele-Vat Services B.V. - Rozenburg","address":"Hanedaweg 16 18","city":"Rozenburg","operatorName":"Eneco","maxPowerKw":22,"isMegawatt":false,"status":"AVAILABLE","source":"ndw","priceKwh":0.35}},{"type":"Feature","geometry":{"type":"Point","coordinates":[4.68057,52.295704]},"properties":{"type":"charge","layer":"passenger","locationId":"5a27819c-c9f6-11ee-84f8-42010aa40fc0","name":"Opaallaan 1180 Hoofddorp (PowerGo)","address":"Opaallaan 1180","city":"Hoofddorp","operatorName":"PowerGo","maxPowerKw":0,"isMegawatt":false,"status":"AVAILABLE","source":"ndw","priceKwh":0.53}},{"type":"Feature","geometry":{"type":"Point","coordinates":[4.66171,52.313256]},"properties":{"type":"charge","layer":"passenger","locationId":"1c940728-98cc-11f0-9389-42010aa400b8","name":"TNLP015097","address":"Mastbos 491","city":"Hoofddorp","operatorName":"TotalEnergies","maxPowerKw":17,"isMegawatt":false,"status":"AVAILABLE","source":"ndw","priceKwh":0.4}},{"type":"Feature","geometry":{"type":"Point","coordinates":[4.692262,52.299091]},"properties":{"type":"charge","layer":"passenger","locationId":"5a47536e-c9f6-11ee-905e-42010aa40fc0","name":"Binnenweg 2-18 Hoofddorp (PowerGo)","address":"Binnenweg 2-18","city":"Hoofddorp","operatorName":"PowerGo","maxPowerKw":0,"isMegawatt":false,"status":"AVAILABLE","source":"ndw","priceKwh":0.53}},{"type":"Feature","geometry":{"type":"Point","coordinates":[4.706594,52.299612]},"properties":{"type":"charge","layer":"passenger","locationId":"af48844a-b451-11f0-b916-42010aa400b8","name":"TNLP008068","address":"Kalorama 101","city":"Hoofddorp","operatorName":"TotalEnergies","maxPowerKw":17,"isMegawatt":false,"status":"CHARGING","source":"ndw","priceKwh":0.4}},{"type":"Feature","geometry":{"type":"Point","coordinates":[4.771781,52.334549]},"properties":{"type":"charge","layer":"passenger","locationId":"d7d545b2-da76-11ee-b055-42010aa40fc0","name":"Basic-Fit 1241 Badhoevedorp Sloterweg (PowerGo)","address":"Sloterweg 301","city":"Badhoevedorp","operatorName":"PowerGo","maxPowerKw":0,"isMegawatt":false,"status":"AVAILABLE","source":"ndw"}},{"type":"Feature","geometry":{"type":"Point","coordinates":[4.65828,52.29643]},"properties":{"type":"charge","layer":"passenger","locationId":"340","name":"Shell Recharge NL Ridderburgpark 137","address":"Ridderburgpark 137","city":"Hoofddorp","operatorName":"Ubitricity","maxPowerKw":11,"isMegawatt":false,"status":"AVAILABLE","source":"ndw","priceKwh":0.388}},{"type":"Feature","geometry":{"type":"Point","coordinates":[4.707042,52.289234]},"properties":{"type":"charge","layer":"passenger","locationId":"9DE6C1C8-7A88-422B-A184-0F990F76C3E0","name":"Eneco eMobility Taurusavenue 60 Hoofddorp","address":"Taurusavenue 60","city":"Hoofddorp","operatorName":"Eneco","maxPowerKw":0,"isMegawatt":false,"status":"UNAVAILABLE","source":"ndw","priceKwh":0.51}},{"type":"Feature","geometry":{"type":"Point","coordinates":[4.70036,52.30745]},"properties":{"type":"charge","layer":"passenger","locationId":"5009b942-8f31-11e8-a0e8-42010a840002","name":"Shell Recharge NL Wieger Bruinlaan 78 Hoofddorp","address":"Wieger Bruinlaan 78","city":"Hoofddorp","operatorName":"Ubitricity","maxPowerKw":11,"isMegawatt":false,"status":"AVAILABLE","source":"ndw","priceKwh":0.39}},{"type":"Feature","geometry":{"type":"Point","coordinates":[4.77097,52.34712]},"properties":{"type":"charge","layer":"passenger","locationId":"5bc62990-7a28-11e9-8b82-42010a840fc7","name":"Shell Recharge NL Irislaan 113 Badhoevedorp","address":"Irislaan 113","city":"Badhoevedorp","operatorName":"Ubitricity","maxPowerKw":11,"isMegawatt":false,"status":"AVAILABLE","source":"ndw","priceKwh":0.39}},{"type":"Feature","geometry":{"type":"Point","coordinates":[4.678888,52.296661]},"properties":{"type":"charge","layer":"passenger","locationId":"6f298214-852c-11f0-bc19-42010aa400b8","name":"Shell Recharge NL Irene Vorrinkstraat 2, Hoofddorp","address":"Irene Vorrinkstraat 2","city":"Hoofddorp","operatorName":"Ubitricity","maxPowerKw":22,"isMegawatt":false,"status":"AVAILABLE","source":"ndw","priceKwh":0.29}},{"type":"Feature","geometry":{"type":"Point","coordinates":[4.63737,52.26064]},"properties":{"type":"charge","layer":"passenger","locationId":"8d53690c-d545-11ec-b45f-42010a840003","name":"Shell Recharge NL Ridderspoorstraat 22 Nieuw-Vennep","address":"Ridderspoorstraat 22","city":"Nieuw-Vennep","operatorName":"Ubitricity","maxPowerKw":11,"isMegawatt":false,"status":"AVAILABLE","source":"ndw","priceKwh":0.39}},{"type":"Feature","geometry":{"type":"Point","coordinates":[4.688296,52.34375]},"properties":{"type":"charge","layer":"passenger","locationId":"c7371712-d82c-11ef-b711-42010aa400b8","name":"EG RETAIL VIJFHUIZEN 1","address":"400 Vijfhuizerweg","city":"Vijfhuizen","operatorName":"ChargePoint","maxPowerKw":300,"isMegawatt":false,"status":"UNAVAILABLE","source":"ndw"}},{"type":"Feature","geometry":{"type":"Point","coordinates":[4.693527,52.305067]},"properties":{"type":"charge","layer":"passenger","locationId":"OST20P0044_0012_0","name":"OST20P0044_0012_0","address":"Marktplein 92","city":"Hoofddorp","operatorName":"e-VOLTT","maxPowerKw":0,"isMegawatt":false,"status":"AVAILABLE","source":"ndw","priceKwh":0.47}},{"type":"Feature","geometry":{"type":"Point","coordinates":[4.65435,52.2667]},"properties":{"type":"charge","layer":"passenger","locationId":"6ea4ffee-fc36-11ec-8e1b-42010aa4001d","name":"Eneco eMobility Verlaan Holding B.V. -Vennep","address":"Luzernestraat 81","city":"Nieuw-Vennep","operatorName":"Eneco","maxPowerKw":22,"isMegawatt":false,"status":"AVAILABLE","source":"ndw","priceKwh":0.6}},{"type":"Feature","geometry":{"type":"Point","coordinates":[4.667195,52.28952]},"properties":{"type":"charge","layer":"passenger","locationId":"f0db9a22-8a33-11ee-b18b-42010aa40fc0","name":"Basic-Fit 1243 Hoofddorp Toolenburg (PowerGo)","address":"Hoofdweg 871","city":"Hoofddorp","operatorName":"PowerGo","maxPowerKw":0,"isMegawatt":false,"status":"AVAILABLE","source":"ndw"}},{"type":"Feature","geometry":{"type":"Point","coordinates":[4.642271,52.301004]},"properties":{"type":"charge","layer":"passenger","locationId":"e632f240-ad3c-11f0-9d6f-42010aa400b8","name":"PP005444","address":"Stanislas 27","city":"Hoofddorp","operatorName":"TotalEnergies","maxPowerKw":0,"isMegawatt":false,"status":"CHARGING","source":"ndw","priceKwh":0.4}},{"type":"Feature","geometry":{"type":"Point","coordinates":[4.728911,52.281222]},"properties":{"type":"charge","layer":"passenger","locationId":"4ee25328-d2de-11f0-a810-42010aa400b8","name":"Eneco eMobility Transdev - Rozenburg - Mactanweg","address":"mactanweg 1","city":"Rozenburg","operatorName":"Eneco","maxPowerKw":11,"isMegawatt":false,"status":"AVAILABLE","source":"ndw","priceKwh":0.45}},{"type":"Feature","geometry":{"type":"Point","coordinates":[4.64303,52.33537]},"properties":{"type":"charge","layer":"passenger","locationId":"f0bd6588fa3424520aaa0ca074eed46b","name":"Ligusterweg 3","address":"Ligusterweg 3","city":"Cruquius","operatorName":"Vattenfall InCharge","maxPowerKw":11,"isMegawatt":false,"status":"AVAILABLE","source":"ndw"}},{"type":"Feature","geometry":{"type":"Point","coordinates":[4.63328,52.33573]},"properties":{"type":"charge","layer":"passenger","locationId":"5cc7c82e-7737-11e9-9e82-42010a840fc6","name":"Shell Recharge NL Oude Spaarneweg 75 Cruquius","address":"Oude Spaarneweg 75","city":"Cruquius","operatorName":"Ubitricity","maxPowerKw":11,"isMegawatt":false,"status":"AVAILABLE","source":"ndw","priceKwh":0.39}},{"type":"Feature","geometry":{"type":"Point","coordinates":[4.64363,52.31528]},"properties":{"type":"charge","layer":"passenger","locationId":"61a0840c-d3d1-11e9-aacc-42010a840022","name":"Shell Recharge NL Vliehors 46 Hoofddorp","address":"Vliehors 46","city":"Hoofddorp","operatorName":"Ubitricity","maxPowerKw":11,"isMegawatt":false,"status":"AVAILABLE","source":"ndw","priceKwh":0.39}},{"type":"Feature","geometry":{"type":"Point","coordinates":[4.68327,52.31432]},"properties":{"type":"charge","layer":"passenger","locationId":"6887b1a8-d547-11ec-be06-42010a840003","name":"Shell Recharge NL Landleeuw 5 Haarlemmermeer","address":"Landleeuw 5","city":"Haarlemmermeer","operatorName":"Ubitricity","maxPowerKw":11,"isMegawatt":false,"status":"AVAILABLE","source":"ndw","priceKwh":0.39}},{"type":"Feature","geometry":{"type":"Point","coordinates":[4.699688,52.300884]},"properties":{"type":"charge","layer":"passenger","locationId":"7f84eb90-a2dc-11ef-b255-42010aa400b8","name":"Shell Recharge NL Wilhelminalaan 48, Hoofddorp","address":"Wilhelminalaan 48","city":"Hoofddorp","operatorName":"Ubitricity","maxPowerKw":22,"isMegawatt":false,"status":"AVAILABLE","source":"ndw","priceKwh":0.29}},{"type":"Feature","geometry":{"type":"Point","coordinates":[4.701439,52.302308]},"properties":{"type":"charge","layer":"passenger","locationId":"a9a64076-a3a5-11ef-bb56-42010aa400b8","name":"Shell Recharge NL Leeghwaterstraat 59, Hoofddorp","address":"Leeghwaterstraat 59","city":"Hoofddorp","operatorName":"Ubitricity","maxPowerKw":22,"isMegawatt":false,"status":"CHARGING","source":"ndw","priceKwh":0.29}},{"type":"Feature","geometry":{"type":"Point","coordinates":[4.61667,52.26777]},"properties":{"type":"charge","layer":"passenger","locationId":"cecf8b1c-d9db-11e9-8d02-42010a840021","name":"Shell Recharge NL Beethovenlaan 81 Nieuw-Vennep","address":"Beethovenlaan 81","city":"Nieuw-Vennep","operatorName":"Ubitricity","maxPowerKw":11,"isMegawatt":false,"status":"AVAILABLE","source":"ndw","priceKwh":0.39}},{"type":"Feature","geometry":{"type":"Point","coordinates":[4.712875,52.291723]},"properties":{"type":"charge","layer":"passenger","locationId":"3214999","name":"Laadnet Boerderij Rijnlanderweg","address":"Rijnlanderweg 820","city":"Hoofddorp","operatorName":"Laadnet","maxPowerKw":22,"isMegawatt":false,"status":"CHARGING","source":"ndw"}},{"type":"Feature","geometry":{"type":"Point","coordinates":[4.685032,52.258607]},"properties":{"type":"charge","layer":"passenger","locationId":"71","name":"Shell Recharge NL7974 - Shell Den Ruygenhoek","address":"Rijksweg A4 Oz 1, 2132 MA","city":"Rijsenhout","operatorName":"Shell Recharge","maxPowerKw":175,"isMegawatt":false,"status":"AVAILABLE","source":"ndw","priceKwh":0.7025}},{"type":"Feature","geometry":{"type":"Point","coordinates":[4.772465,52.296814]},"properties":{"type":"charge","layer":"passenger","locationId":"89825110","name":"EQUANS 89825110","address":"Anchoragelaan 2","city":"Schiphol","operatorName":"EQUANS","maxPowerKw":0,"isMegawatt":false,"status":"AVAILABLE","source":"ndw"}},{"type":"Feature","geometry":{"type":"Point","coordinates":[4.68258,52.29756]},"properties":{"type":"charge","layer":"passenger","locationId":"164","name":"Shell Recharge NL Graan voor Visch 17201","address":"Graan voor Visch 17201","city":"Hoofddorp","operatorName":"Ubitricity","maxPowerKw":11,"isMegawatt":false,"status":"AVAILABLE","source":"ndw","priceKwh":0.388}},{"type":"Feature","geometry":{"type":"Point","coordinates":[4.63959,52.30669]},"properties":{"type":"charge","layer":"passenger","locationId":"699","name":"Shell Recharge NL Aalburgplein 57","address":"Aalburgplein 57","city":"Hoofddorp","operatorName":"Ubitricity","maxPowerKw":11,"isMegawatt":false,"status":"CHARGING","source":"ndw","priceKwh":0.388}},{"type":"Feature","geometry":{"type":"Point","coordinates":[4.716215,52.259594]},"properties":{"type":"charge","layer":"passenger","locationId":"852c70ca-7825-45e2-b073-bc6d08c1bdb7","name":"Boeierstraat","address":"Boeierstraat 1","city":"Rijsenhout","operatorName":"Vattenfall InCharge","maxPowerKw":11,"isMegawatt":false,"status":"AVAILABLE","source":"ndw"}},{"type":"Feature","geometry":{"type":"Point","coordinates":[4.709562,52.293684]},"properties":{"type":"charge","layer":"passenger","locationId":"69b3f80e23f2940636887919","name":"Wegalaan 14–28","address":"Wegalaan 14-28","city":"Hoofddorp","operatorName":"Pluq","maxPowerKw":22,"isMegawatt":false,"status":"AVAILABLE","source":"ndw","priceKwh":0.4}},{"type":"Feature","geometry":{"type":"Point","coordinates":[4.746423,52.298016]},"properties":{"type":"charge","layer":"passenger","locationId":"DA3A60E6-0706-4A9D-850C-CA1665DA5652","name":"Eneco eMobility dnata BV - Pelikaanweg 1 - Schiphol-Rijk","address":"Pelikaanweg 1","city":"Amsterdam Airport Schiphol","operatorName":"Eneco","maxPowerKw":22,"isMegawatt":false,"status":"UNAVAILABLE","source":"ndw","priceKwh":0.32}},{"type":"Feature","geometry":{"type":"Point","coordinates":[4.708,52.30591]},"properties":{"type":"charge","layer":"passenger","locationId":"237","name":"Shell Recharge NL Bernard Zweershof 1","address":"Bernard Zweershof 1","city":"Hoofddorp","operatorName":"Ubitricity","maxPowerKw":11,"isMegawatt":false,"status":"CHARGING","source":"ndw","priceKwh":0.388}},{"type":"Feature","geometry":{"type":"Point","coordinates":[4.771232,52.345567]},"properties":{"type":"charge","layer":"passenger","locationId":"7cd3e4d6-90a9-4614-96e9-f0db77bdf0cc","name":"Fresiastraat","address":"Fresiastraat 27","city":"Badhoevedorp","operatorName":"Vattenfall InCharge","maxPowerKw":11,"isMegawatt":false,"status":"AVAILABLE","source":"ndw"}},{"type":"Feature","geometry":{"type":"Point","coordinates":[4.740189,52.386734]},"properties":{"type":"charge","layer":"passenger","locationId":"8f92f883-b858-4c5b-a9ee-b1c1f3262230","name":"bp pulse Halfweg","address":"N200","city":"Halfweg","operatorName":"bp pulse","maxPowerKw":150,"isMegawatt":false,"status":"AVAILABLE","source":"ndw","priceKwh":0.7}},{"type":"Feature","geometry":{"type":"Point","coordinates":[4.756335,52.373258]},"properties":{"type":"charge","layer":"passenger","locationId":"7beef2f9-a7d9-4d63-95f7-9c40898ac9a8","name":"PP005271","address":"Wilgenlaan 3","city":"Zwanenburg","operatorName":"TotalEnergies","maxPowerKw":0,"isMegawatt":false,"status":"AVAILABLE","source":"ndw"}},{"type":"Feature","geometry":{"type":"Point","coordinates":[4.696852,52.30042]},"properties":{"type":"charge","layer":"passenger","locationId":"NLLOC001219","name":"NLD, Hoofddorp, Raadhuisplein 3","address":"Raadhuisplein 3","city":"Hoofddorp","operatorName":"Allego","maxPowerKw":0,"isMegawatt":false,"status":"AVAILABLE","source":"ndw","priceKwh":0.511}},{"type":"Feature","geometry":{"type":"Point","coordinates":[4.654858,52.290831]},"properties":{"type":"charge","layer":"passenger","locationId":"507c1322-d09a-11f0-8623-42010aa400b8","name":"TNLP034107","address":"Laan van York 2","city":"Hoofddorp","operatorName":"TotalEnergies","maxPowerKw":14,"isMegawatt":false,"status":"AVAILABLE","source":"ndw","priceKwh":0.3}},{"type":"Feature","geometry":{"type":"Point","coordinates":[4.754971,52.375572]},"properties":{"type":"charge","layer":"passenger","locationId":"6f0b9b28-1715-11ee-a633-42010aa40069","name":"TNLP009200","address":"Wilgenlaan 84","city":"Zwanenburg","operatorName":"TotalEnergies","maxPowerKw":17,"isMegawatt":false,"status":"AVAILABLE","source":"ndw","priceKwh":0.39}},{"type":"Feature","geometry":{"type":"Point","coordinates":[4.64257,52.30351]},"properties":{"type":"charge","layer":"passenger","locationId":"488","name":"Shell Recharge NL Hermitage 148-196","address":"Hermitage 148-196","city":"Hoofddorp","operatorName":"Ubitricity","maxPowerKw":11,"isMegawatt":false,"status":"AVAILABLE","source":"ndw","priceKwh":0.388}},{"type":"Feature","geometry":{"type":"Point","coordinates":[4.788307,52.292426]},"properties":{"type":"charge","layer":"passenger","locationId":"923127","name":"DAE_NL_2000905_7A","address":"Fokkerpark 300 Gebouw 7B","city":"Oude Meer","operatorName":"DAEN Mobility","maxPowerKw":11,"isMegawatt":false,"status":"AVAILABLE","source":"ndw","priceKwh":0.2}},{"type":"Feature","geometry":{"type":"Point","coordinates":[4.680945,52.30502]},"properties":{"type":"charge","layer":"passenger","locationId":"f992f850-105b-498e-98f4-551299ca9cd3","name":"Wilsonstraat","address":"Wilsonstraat 215","city":"Hoofddorp","operatorName":"Vattenfall InCharge","maxPowerKw":11,"isMegawatt":false,"status":"AVAILABLE","source":"ndw"}},{"type":"Feature","geometry":{"type":"Point","coordinates":[4.715203,52.258827]},"properties":{"type":"charge","layer":"passenger","locationId":"0facae70-23fb-11eb-8afa-42010a840fd1","name":"PP004224","address":"Werf 15","city":"Rijsenhout","operatorName":"TotalEnergies","maxPowerKw":0,"isMegawatt":false,"status":"AVAILABLE","source":"ndw","priceKwh":0.4}},{"type":"Feature","geometry":{"type":"Point","coordinates":[4.682635,52.302713]},"properties":{"type":"charge","layer":"passenger","locationId":"3b1032bc-7248-11f0-a05c-42010aa400b8","name":"TNLP034093","address":"Gandhistraat 125","city":"Hoofddorp","operatorName":"TotalEnergies","maxPowerKw":14,"isMegawatt":false,"status":"CHARGING","source":"ndw","priceKwh":0.3}},{"type":"Feature","geometry":{"type":"Point","coordinates":[4.781659,52.285852]},"properties":{"type":"charge","layer":"passenger","locationId":"6855141b04407ae1f1b3d166","name":"AC lader (Bij snellader) (Nieuw)","address":"Fokkerweg 171","city":"Oude Meer","operatorName":"NXT Charging Solutions","maxPowerKw":11,"isMegawatt":false,"status":"AVAILABLE","source":"ndw","priceKwh":0.58}},{"type":"Feature","geometry":{"type":"Point","coordinates":[4.61667,52.26777]},"properties":{"type":"charge","layer":"passenger","locationId":"654","name":"Shell Recharge NL Beethovenlaan 81","address":"Beethovenlaan 81","city":"Nieuw-Vennep","operatorName":"Ubitricity","maxPowerKw":11,"isMegawatt":false,"status":"CHARGING","source":"ndw","priceKwh":0.388}},{"type":"Feature","geometry":{"type":"Point","coordinates":[4.781397,52.333904]},"properties":{"type":"charge","layer":"passenger","locationId":"4afeb26c-852a-11f0-930f-42010aa400b8","name":"TNLP015340","address":"Plesmanlaan 41","city":"Badhoevedorp","operatorName":"TotalEnergies","maxPowerKw":17,"isMegawatt":false,"status":"CHARGING","source":"ndw","priceKwh":0.4}},{"type":"Feature","geometry":{"type":"Point","coordinates":[4.67445,52.30515]},"properties":{"type":"charge","layer":"passenger","locationId":"7b5cab54-61ca-11f0-af6b-42010aa400b8","name":"PP004083","address":"Söderblomstraat 261","city":"Hoofddorp","operatorName":"TotalEnergies","maxPowerKw":0,"isMegawatt":false,"status":"AVAILABLE","source":"ndw","priceKwh":0.4}},{"type":"Feature","geometry":{"type":"Point","coordinates":[4.708647,52.29417]},"properties":{"type":"charge","layer":"passenger","locationId":"90dcdb74-bc9a-11ee-823f-42010aa40fc0","name":"Wegalaan 14-28 Hoofddorp (PowerGo)","address":"Wegalaan 14-28","city":"Hoofddorp","operatorName":"PowerGo","maxPowerKw":0,"isMegawatt":false,"status":"AVAILABLE","source":"ndw","priceKwh":0.53}},{"type":"Feature","geometry":{"type":"Point","coordinates":[4.709311,52.292675]},"properties":{"type":"charge","layer":"passenger","locationId":"ace3d942-cb88-11ee-8dd7-42010aa40fc0","name":"Polarisavenue 151 P&C Hoofddorp (PowerGo)","address":"Polarisavenue 151","city":"Hoofddorp","operatorName":"PowerGo","maxPowerKw":0,"isMegawatt":false,"status":"AVAILABLE","source":"ndw","priceKwh":0.53}},{"type":"Feature","geometry":{"type":"Point","coordinates":[4.69903,52.291708]},"properties":{"type":"charge","layer":"passenger","locationId":"e4d70c96-4e72-11e8-a92b-42010a840002","name":"Eneco eMobility LITEON Technology - Taurusavenue - Hoofddorp","address":"Taurusavenue 33A","city":"Hoofddorp","operatorName":"Eneco","maxPowerKw":11,"isMegawatt":false,"status":"AVAILABLE","source":"ndw","priceKwh":0.32}},{"type":"Feature","geometry":{"type":"Point","coordinates":[4.662557,52.293378]},"properties":{"type":"charge","layer":"passenger","locationId":"1562f177-b94c-4031-87ae-7b97b1a61a75","name":"Rosa Spierstraat 48","address":"Rosa Spierstraat 48","city":"Hoofddorp","operatorName":"Vattenfall InCharge","maxPowerKw":11,"isMegawatt":false,"status":"AVAILABLE","source":"ndw"}},{"type":"Feature","geometry":{"type":"Point","coordinates":[4.79518,52.33323]},"properties":{"type":"charge","layer":"passenger","locationId":"56a4619e-8f31-11e8-88c5-42010a840002","name":"Shell Recharge NL Egelantierstraat 60 Badhoevedorp","address":"Egelantierstraat 60","city":"Badhoevedorp","operatorName":"Ubitricity","maxPowerKw":11,"isMegawatt":false,"status":"AVAILABLE","source":"ndw","priceKwh":0.39}},{"type":"Feature","geometry":{"type":"Point","coordinates":[4.67917,52.24027]},"properties":{"type":"charge","layer":"passenger","locationId":"5ca950c4-7737-11e9-8367-42010a840fd3","name":"Shell Recharge NL Oude Venneperweg 24 Burgerveen","address":"Oude Venneperweg 24","city":"Burgerveen","operatorName":"Ubitricity","maxPowerKw":11,"isMegawatt":false,"status":"AVAILABLE","source":"ndw","priceKwh":0.39}},{"type":"Feature","geometry":{"type":"Point","coordinates":[4.70977,52.30242]},"properties":{"type":"charge","layer":"passenger","locationId":"5dd2bcbe-d545-11ec-8930-42010a840003","name":"Shell Recharge NL Bolstralaan 1 Hoofddorp","address":"Bolstralaan 1","city":"Hoofddorp","operatorName":"Ubitricity","maxPowerKw":11,"isMegawatt":false,"status":"AVAILABLE","source":"ndw","priceKwh":0.39}},{"type":"Feature","geometry":{"type":"Point","coordinates":[4.79216,52.33608]},"properties":{"type":"charge","layer":"passenger","locationId":"8c87bd56-8f31-11e8-8306-42010a840002","name":"Shell Recharge NL Zwaluwstraat 28 Badhoevedorp","address":"Zwaluwstraat 28","city":"Badhoevedorp","operatorName":"Ubitricity","maxPowerKw":11,"isMegawatt":false,"status":"CHARGING","source":"ndw","priceKwh":0.39}},{"type":"Feature","geometry":{"type":"Point","coordinates":[4.62846,52.27864]},"properties":{"type":"charge","layer":"passenger","locationId":"c4a621a0-8630-11e8-af45-42010a840002","name":"Shell Recharge NL Jive 5 Nieuw-Vennep","address":"Jive 5","city":"Nieuw-Vennep","operatorName":"Ubitricity","maxPowerKw":11,"isMegawatt":false,"status":"AVAILABLE","source":"ndw","priceKwh":0.39}},{"type":"Feature","geometry":{"type":"Point","coordinates":[4.755196,52.386395]},"properties":{"type":"charge","layer":"passenger","locationId":"8F0427F0-559A-47A3-B2DB-E7BC2F58174F","name":"TNLP009081","address":"Wethouder Rijkeboerweg 69","city":"Halfweg","operatorName":"TotalEnergies","maxPowerKw":17,"isMegawatt":false,"status":"AVAILABLE","source":"ndw"}},{"type":"Feature","geometry":{"type":"Point","coordinates":[4.749892,52.375648]},"properties":{"type":"charge","layer":"passenger","locationId":"2cb91728-24d5-11ee-b24e-42010aa40fc0","name":"Hotel Zwanenburg (PowerGo)","address":"Olmenlaan 52","city":"Zwanenburg","operatorName":"PowerGo","maxPowerKw":0,"isMegawatt":false,"status":"AVAILABLE","source":"ndw"}},{"type":"Feature","geometry":{"type":"Point","coordinates":[4.686601,52.310655]},"properties":{"type":"charge","layer":"passenger","locationId":"fc66c0aa-b453-11f0-8333-42010aa400b8","name":"PP005343","address":"Oranjestraat 14","city":"Hoofddorp","operatorName":"TotalEnergies","maxPowerKw":0,"isMegawatt":false,"status":"CHARGING","source":"ndw","priceKwh":0.4}},{"type":"Feature","geometry":{"type":"Point","coordinates":[4.709311,52.292675]},"properties":{"type":"charge","layer":"passenger","locationId":"ace3d942-cb88-11ee-8dd7-42010aa40fc0","name":"Polarisavenue 151 P&C Hoofddorp (PowerGo)","address":"Polarisavenue 151","city":"Hoofddorp","operatorName":"PowerGo","maxPowerKw":0,"isMegawatt":false,"status":"AVAILABLE","source":"ndw","priceKwh":0.53}},{"type":"Feature","geometry":{"type":"Point","coordinates":[4.771781,52.334549]},"properties":{"type":"charge","layer":"passenger","locationId":"d7d545b2-da76-11ee-b055-42010aa40fc0","name":"Basic-Fit 1241 Badhoevedorp Sloterweg (PowerGo)","address":"Sloterweg 301","city":"Badhoevedorp","operatorName":"PowerGo","maxPowerKw":0,"isMegawatt":false,"status":"AVAILABLE","source":"ndw"}},{"type":"Feature","geometry":{"type":"Point","coordinates":[4.655274,52.324124]},"properties":{"type":"charge","layer":"passenger","locationId":"481c1616-005a-11f0-b400-42010aa400b8","name":"Q-Park Hoofddorp Spaarne Gasthuis","address":"Spaarnepoort 2","city":"Hoofddorp","operatorName":"Q-Park Netherlands","maxPowerKw":11,"isMegawatt":false,"status":"AVAILABLE","source":"ndw","priceKwh":0.55}},{"type":"Feature","geometry":{"type":"Point","coordinates":[4.685032,52.258607]},"properties":{"type":"charge","layer":"passenger","locationId":"13449132-e6dc-11e8-8f73-42010a840002","name":"Shell Recharge Rijksweg A4 Oz 1, 2132 MA","address":"Rijksweg A4 Oz 1, 2132 MA","city":"Rijsenhout","operatorName":"Shell Recharge","maxPowerKw":175,"isMegawatt":false,"status":"AVAILABLE","source":"ndw"}},{"type":"Feature","geometry":{"type":"Point","coordinates":[4.78261,52.28706]},"properties":{"type":"charge","layer":"passenger","locationId":"be302470-1d3c-11ea-a345-42010a840003","name":"Shell Recharge Fokkerweg 185","address":"Fokkerweg 185","city":"Oude Meer","operatorName":"Shell Recharge","maxPowerKw":300,"isMegawatt":false,"status":"CHARGING","source":"ndw"}},{"type":"Feature","geometry":{"type":"Point","coordinates":[4.667098,52.292222]},"properties":{"type":"charge","layer":"passenger","locationId":"b392dbb8-9441-4342-afd8-707844b9bcf3","name":"TNLP034064","address":"Koningin Maximalaan 7","city":"Hoofddorp","operatorName":"TotalEnergies","maxPowerKw":14,"isMegawatt":false,"status":"AVAILABLE","source":"ndw"}},{"type":"Feature","geometry":{"type":"Point","coordinates":[4.6996883,52.3008844]},"properties":{"type":"charge","layer":"passenger","locationId":"856","name":"Shell Recharge NL Wilhelminalaan 48","address":"Wilhelminalaan 48","city":"Hoofddorp","operatorName":"Ubitricity","maxPowerKw":22,"isMegawatt":false,"status":"AVAILABLE","source":"ndw","priceKwh":0.266}},{"type":"Feature","geometry":{"type":"Point","coordinates":[4.66562,52.30973]},"properties":{"type":"charge","layer":"passenger","locationId":"678","name":"Shell Recharge NL Sparresholm 32","address":"Sparresholm 32","city":"Hoofddorp","operatorName":"Ubitricity","maxPowerKw":11,"isMegawatt":false,"status":"CHARGING","source":"ndw","priceKwh":0.388}},{"type":"Feature","geometry":{"type":"Point","coordinates":[4.77341,52.34716]},"properties":{"type":"charge","layer":"passenger","locationId":"2430293a-4f3c-11e8-b142-42010a840002","name":"Shell Recharge NL Orchideelaan 186 Badhoevedorp","address":"Orchideelaan 186","city":"Badhoevedorp","operatorName":"Ubitricity","maxPowerKw":11,"isMegawatt":false,"status":"AVAILABLE","source":"ndw","priceKwh":0.39}},{"type":"Feature","geometry":{"type":"Point","coordinates":[4.67681,52.31181]},"properties":{"type":"charge","layer":"passenger","locationId":"6a01d6d0-d547-11ec-9ad1-42010a840003","name":"Shell Recharge NL Engelsholm 140 Haarlemmermeer","address":"Engelsholm 140","city":"Haarlemmermeer","operatorName":"Ubitricity","maxPowerKw":11,"isMegawatt":false,"status":"CHARGING","source":"ndw","priceKwh":0.39}},{"type":"Feature","geometry":{"type":"Point","coordinates":[4.65658,52.32274]},"properties":{"type":"charge","layer":"passenger","locationId":"6a672562-d547-11ec-9dc2-42010a840003","name":"Shell Recharge NL Waddenweg 293 Haarlemmermeer","address":"Waddenweg 293","city":"Haarlemmermeer","operatorName":"Ubitricity","maxPowerKw":11,"isMegawatt":false,"status":"AVAILABLE","source":"ndw","priceKwh":0.39}},{"type":"Feature","geometry":{"type":"Point","coordinates":[4.6567,52.30674]},"properties":{"type":"charge","layer":"passenger","locationId":"b366dbd0-4f3c-11e8-940c-42010a840002","name":"Shell Recharge NL Doornburg 50 Hoofddorp","address":"Doornburg 50","city":"Hoofddorp","operatorName":"Ubitricity","maxPowerKw":11,"isMegawatt":false,"status":"UNAVAILABLE","source":"ndw","priceKwh":0.39}},{"type":"Feature","geometry":{"type":"Point","coordinates":[4.766457,52.343043]},"properties":{"type":"charge","layer":"passenger","locationId":"c4213f50-0c28-11f0-8f8b-42010aa400b8","name":"Shell Recharge NL dr. Henriette Boasstraat 2, Badhoevedorp","address":"dr. Henriette Boasstraat 2","city":"Badhoevedorp","operatorName":"Ubitricity","maxPowerKw":22,"isMegawatt":false,"status":"CHARGING","source":"ndw","priceKwh":0.29}},{"type":"Feature","geometry":{"type":"Point","coordinates":[4.771781,52.3345489]},"properties":{"type":"charge","layer":"passenger","locationId":"25818","name":"Basic-Fit 1241 Badhoevedorp Sloterweg (PowerGo)","address":"Sloterweg 301","city":"Badhoevedorp","operatorName":"PowerGo","maxPowerKw":0,"isMegawatt":false,"status":"AVAILABLE","source":"ndw"}},{"type":"Feature","geometry":{"type":"Point","coordinates":[4.781659,52.285852]},"properties":{"type":"charge","layer":"passenger","locationId":"68551318283e1cd66fe7a6cd","name":"Lader 10 (50 kW) - T54HV-IT3-0624-001","address":"Fokkerweg 171","city":"Oude Meer","operatorName":"NXT Charging Solutions","maxPowerKw":63,"isMegawatt":false,"status":"AVAILABLE","source":"ndw","priceKwh":0.57}},{"type":"Feature","geometry":{"type":"Point","coordinates":[4.6178432,52.2685954]},"properties":{"type":"charge","layer":"passenger","locationId":"1698","name":"Shell Recharge NL Beethovenlaan 43","address":"Beethovenlaan 43","city":"Nieuw-Vennep","operatorName":"Ubitricity","maxPowerKw":22,"isMegawatt":false,"status":"CHARGING","source":"ndw","priceKwh":0.266}},{"type":"Feature","geometry":{"type":"Point","coordinates":[4.704308,52.292635]},"properties":{"type":"charge","layer":"passenger","locationId":"66e6feab48d64952a599","name":"NL Asset Management l Hoofddorp l Capellalaan","address":"Capellalaan 65","city":"Hoofddorp","operatorName":"Opcharge","maxPowerKw":22,"isMegawatt":false,"status":"AVAILABLE","source":"ndw","priceKwh":0.48}},{"type":"Feature","geometry":{"type":"Point","coordinates":[4.658184,52.299889]},"properties":{"type":"charge","layer":"passenger","locationId":"77caccec-d28b-409e-a0ff-4bb82181856a","name":"Rondenburglaan","address":"Rondenburglaan 28","city":"Hoofddorp","operatorName":"Vattenfall InCharge","maxPowerKw":11,"isMegawatt":false,"status":"CHARGING","source":"ndw"}},{"type":"Feature","geometry":{"type":"Point","coordinates":[4.656116,52.318685]},"properties":{"type":"charge","layer":"passenger","locationId":"c8a7fd32-5135-40b9-9242-dbf10fdc4256","name":"Roekenbos","address":"Roekenbos 86","city":"Hoofddorp","operatorName":"Vattenfall InCharge","maxPowerKw":11,"isMegawatt":false,"status":"AVAILABLE","source":"ndw"}},{"type":"Feature","geometry":{"type":"Point","coordinates":[4.70904,52.29132]},"properties":{"type":"charge","layer":"passenger","locationId":"FAF434CB-CBF3-48F8-A89F-40B17E8E9F43","name":"Eneco eMobility Consolid - Hoofddorp","address":"Siriusdreef 49","city":"Hoofddorp","operatorName":"Eneco","maxPowerKw":22,"isMegawatt":false,"status":"AVAILABLE","source":"ndw","priceKwh":0.32}},{"type":"Feature","geometry":{"type":"Point","coordinates":[4.693527,52.305067]},"properties":{"type":"charge","layer":"passenger","locationId":"OST20P0044_0012_4","name":"OST20P0044_0012_4","address":"Marktplein 92","city":"Hoofddorp","operatorName":"e-VOLTT","maxPowerKw":0,"isMegawatt":false,"status":"AVAILABLE","source":"ndw","priceKwh":0.47}},{"type":"Feature","geometry":{"type":"Point","coordinates":[4.69204,52.29448]},"properties":{"type":"charge","layer":"passenger","locationId":"1ec104e0-fe9c-11ee-8fb4-42010aa400b8","name":"TNLP008764","address":"Graan voor Visch 14501","city":"Hoofddorp","operatorName":"TotalEnergies","maxPowerKw":14,"isMegawatt":false,"status":"UNAVAILABLE","source":"ndw","priceKwh":0.4}},{"type":"Feature","geometry":{"type":"Point","coordinates":[4.667195,52.28952]},"properties":{"type":"charge","layer":"passenger","locationId":"f0db9a22-8a33-11ee-b18b-42010aa40fc0","name":"Basic-Fit 1243 Hoofddorp Toolenburg (PowerGo)","address":"Hoofdweg 871","city":"Hoofddorp","operatorName":"PowerGo","maxPowerKw":0,"isMegawatt":false,"status":"AVAILABLE","source":"ndw"}},{"type":"Feature","geometry":{"type":"Point","coordinates":[4.628648,52.333084]},"properties":{"type":"charge","layer":"passenger","locationId":"0b24cf66-bd96-11ef-a484-42010aa400b8","name":"Shell Recharge Spaarneweg 26","address":"Spaarneweg 26","city":"Cruiquius","operatorName":"Shell Recharge","maxPowerKw":7,"isMegawatt":false,"status":"AVAILABLE","source":"ndw"}},{"type":"Feature","geometry":{"type":"Point","coordinates":[4.688296,52.34375]},"properties":{"type":"charge","layer":"passenger","locationId":"NLCPIL7095635","name":"EG RETAIL VIJFHUIZEN 1","address":"400 Vijfhuizerweg","city":"Vijfhuizen","operatorName":"ChargePoint","maxPowerKw":300,"isMegawatt":false,"status":"UNAVAILABLE","source":"ndw","priceKwh":0.496}},{"type":"Feature","geometry":{"type":"Point","coordinates":[4.716737,52.292793]},"properties":{"type":"charge","layer":"passenger","locationId":"7966e6725fdf421994e9","name":"Hoofddorp Bechtle","address":"Kruisweg 661","city":"Hoofddorp","operatorName":"Opcharge","maxPowerKw":22,"isMegawatt":false,"status":"AVAILABLE","source":"ndw","priceKwh":0.49}},{"type":"Feature","geometry":{"type":"Point","coordinates":[4.63959,52.30669]},"properties":{"type":"charge","layer":"passenger","locationId":"5facfd34-d605-11e9-8a4a-42010a84001e","name":"Shell Recharge NL Aalburgplein 57 Hoofddorp","address":"Aalburgplein 57","city":"Hoofddorp","operatorName":"Ubitricity","maxPowerKw":11,"isMegawatt":false,"status":"CHARGING","source":"ndw","priceKwh":0.39}},{"type":"Feature","geometry":{"type":"Point","coordinates":[4.666053,52.293656]},"properties":{"type":"charge","layer":"passenger","locationId":"600dd3fe-03b0-11f1-829e-42010aa400b8","name":"Shell Recharge NL Maria Tesselschadelaan 147, Hoofddorp","address":"Maria Tesselschadelaan 147","city":"Hoofddorp","operatorName":"Ubitricity","maxPowerKw":22,"isMegawatt":false,"status":"AVAILABLE","source":"ndw","priceKwh":0.29}},{"type":"Feature","geometry":{"type":"Point","coordinates":[4.67111,52.29521]},"properties":{"type":"charge","layer":"passenger","locationId":"b722f152-d546-11ec-8ed8-42010a840003","name":"Shell Recharge NL Mathilde Wibautstraat 23 Hoofddorp","address":"Mathilde Wibautstraat 23","city":"Hoofddorp","operatorName":"Ubitricity","maxPowerKw":11,"isMegawatt":false,"status":"AVAILABLE","source":"ndw","priceKwh":0.39}},{"type":"Feature","geometry":{"type":"Point","coordinates":[4.60841,52.27162]},"properties":{"type":"charge","layer":"passenger","locationId":"c23713d4-d546-11ec-bffc-42010a840003","name":"Shell Recharge NL Laan van Loevestein 20 Nieuw-Vennep","address":"Laan van Loevestein 20","city":"Nieuw-Vennep","operatorName":"Ubitricity","maxPowerKw":11,"isMegawatt":false,"status":"AVAILABLE","source":"ndw","priceKwh":0.39}},{"type":"Feature","geometry":{"type":"Point","coordinates":[4.646717,52.257576]},"properties":{"type":"charge","layer":"passenger","locationId":"667e60aec8294d001cad4aa2","name":"Stal 't Kabel","address":"'t Kabel 107 A","city":"Nieuw-Vennep","operatorName":"Pluq","maxPowerKw":22,"isMegawatt":false,"status":"AVAILABLE","source":"ndw","priceKwh":0.49}},{"type":"Feature","geometry":{"type":"Point","coordinates":[4.693527,52.305067]},"properties":{"type":"charge","layer":"passenger","locationId":"OST20P0044_0012_3","name":"OST20P0044_0012_3","address":"Marktplein 92","city":"Hoofddorp","operatorName":"e-VOLTT","maxPowerKw":0,"isMegawatt":false,"status":"AVAILABLE","source":"ndw","priceKwh":0.47}},{"type":"Feature","geometry":{"type":"Point","coordinates":[4.6409144,52.2623561]},"properties":{"type":"charge","layer":"passenger","locationId":"1196","name":"Shell Recharge NL Bosstraat 138","address":"Bosstraat 138","city":"Nieuw-Vennep","operatorName":"Ubitricity","maxPowerKw":22,"isMegawatt":false,"status":"AVAILABLE","source":"ndw","priceKwh":0.266}},{"type":"Feature","geometry":{"type":"Point","coordinates":[4.631276,52.278169]},"properties":{"type":"charge","layer":"passenger","locationId":"2de56b12-eaf8-11ee-92d5-42010aa400b8","name":"TNLP008836","address":"Bolero 2","city":"Nieuw-Vennep","operatorName":"TotalEnergies","maxPowerKw":14,"isMegawatt":false,"status":"UNAVAILABLE","source":"ndw","priceKwh":0.4}},{"type":"Feature","geometry":{"type":"Point","coordinates":[4.725565,52.28972]},"properties":{"type":"charge","layer":"passenger","locationId":"6d7bb5e6-4f3c-11e8-863c-42010a840002","name":"Eneco eMobility Hotel NH Schiphol Airport","address":"Kruisweg 495","city":"Hoofddorp","operatorName":"Eneco","maxPowerKw":11,"isMegawatt":false,"status":"AVAILABLE","source":"ndw","priceKwh":0.45}},{"type":"Feature","geometry":{"type":"Point","coordinates":[4.751681,52.303985]},"properties":{"type":"charge","layer":"passenger","locationId":"32403","name":"Circle K Schiphol","address":"Westelijke Randweg 1","city":"Schiphol","operatorName":"Spirii","maxPowerKw":0,"isMegawatt":false,"status":"AVAILABLE","source":"ndw","priceKwh":0.65}},{"type":"Feature","geometry":{"type":"Point","coordinates":[4.633499,52.311611]},"properties":{"type":"charge","layer":"passenger","locationId":"602104918bb83a68a064061f","name":"Schelphoek 72 Hoofddorp","address":"Schelphoek 72","city":"Hoofddorp","operatorName":"E-Flux by Road","maxPowerKw":22,"isMegawatt":false,"status":"AVAILABLE","source":"ndw","priceKwh":0.4}},{"type":"Feature","geometry":{"type":"Point","coordinates":[4.703837,52.289047]},"properties":{"type":"charge","layer":"passenger","locationId":"923014","name":"P50 DAE_NL_2000470","address":"Taurusavenue 133","city":"Hoofddorp","operatorName":"DAEN Mobility","maxPowerKw":22,"isMegawatt":false,"status":"AVAILABLE","source":"ndw","priceKwh":0.36}},{"type":"Feature","geometry":{"type":"Point","coordinates":[4.66273,52.30249]},"properties":{"type":"charge","layer":"passenger","locationId":"0584d870-d546-11ec-8acf-42010a840003","name":"Shell Recharge NL Lemenburg 69 Hoofddorp","address":"Lemenburg 69","city":"Hoofddorp","operatorName":"Ubitricity","maxPowerKw":11,"isMegawatt":false,"status":"AVAILABLE","source":"ndw","priceKwh":0.39}},{"type":"Feature","geometry":{"type":"Point","coordinates":[4.61441,52.26612]},"properties":{"type":"charge","layer":"passenger","locationId":"62957554-4f3c-11e8-b9a3-42010a840002","name":"Shell Recharge NL Schubertlaan 44 Nieuw-Vennep","address":"Schubertlaan 44","city":"Nieuw-Vennep","operatorName":"Ubitricity","maxPowerKw":11,"isMegawatt":false,"status":"AVAILABLE","source":"ndw","priceKwh":0.39}},{"type":"Feature","geometry":{"type":"Point","coordinates":[4.74006,52.3784]},"properties":{"type":"charge","layer":"passenger","locationId":"837b3e90-8f31-11e8-8344-42010a840002","name":"Shell Recharge NL Kuyperlaan 30 Zwanenburg","address":"Kuyperlaan 30","city":"Zwanenburg","operatorName":"Ubitricity","maxPowerKw":11,"isMegawatt":false,"status":"AVAILABLE","source":"ndw","priceKwh":0.39}},{"type":"Feature","geometry":{"type":"Point","coordinates":[4.63355,52.312242]},"properties":{"type":"charge","layer":"passenger","locationId":"dc2c3ffa-addc-11ef-8f9f-42010aa400b8","name":"Shell Recharge NL Banjaard 1, Hoofddorp, [AN null]","address":"Banjaard 1","city":"Hoofddorp","operatorName":"Ubitricity","maxPowerKw":22,"isMegawatt":false,"status":"AVAILABLE","source":"ndw","priceKwh":0.29}},{"type":"Feature","geometry":{"type":"Point","coordinates":[4.656309,52.289891]},"properties":{"type":"charge","layer":"passenger","locationId":"ea4bd730-8207-11f0-bfa8-42010aa400b8","name":"Shell Recharge NL Laan van Norfolk 56, Hoofddorp","address":"Laan van Norfolk 56","city":"Hoofddorp","operatorName":"Ubitricity","maxPowerKw":22,"isMegawatt":false,"status":"CHARGING","source":"ndw","priceKwh":0.29}},{"type":"Feature","geometry":{"type":"Point","coordinates":[4.66562,52.30973]},"properties":{"type":"charge","layer":"passenger","locationId":"f0084d86-fc82-11e9-be36-42010a840027","name":"Shell Recharge NL Sparresholm 32 Hoofddorp","address":"Sparresholm 32","city":"Hoofddorp","operatorName":"Ubitricity","maxPowerKw":11,"isMegawatt":false,"status":"AVAILABLE","source":"ndw","priceKwh":0.39}},{"type":"Feature","geometry":{"type":"Point","coordinates":[4.61997,52.27095]},"properties":{"type":"charge","layer":"passenger","locationId":"f01f609a-d545-11ec-82a0-42010a840003","name":"Shell Recharge NL Handelplein 3 Nieuw-Vennep","address":"Handelplein 3","city":"Nieuw-Vennep","operatorName":"Ubitricity","maxPowerKw":11,"isMegawatt":false,"status":"CHARGING","source":"ndw","priceKwh":0.39}},{"type":"Feature","geometry":{"type":"Point","coordinates":[4.740189,52.386734]},"properties":{"type":"charge","layer":"passenger","locationId":"98a86abe-7db9-11ee-a552-42010aa40fc0","name":"bp pulse Halfweg","address":"N200","city":"Halfweg","operatorName":"bp pulse","maxPowerKw":150,"isMegawatt":false,"status":"AVAILABLE","source":"ndw","priceKwh":0.7}},{"type":"Feature","geometry":{"type":"Point","coordinates":[4.763941,52.34263]},"properties":{"type":"charge","layer":"passenger","locationId":"668D3F02-B50E-4774-9FD8-9A680124F434","name":"Eneco eMobility ASR Dutch Core Residential Fund Bienvenue","address":"Professor Johanna Westerdijkstraat 126","city":"Badhoevedorp","operatorName":"Eneco","maxPowerKw":11,"isMegawatt":false,"status":"UNAVAILABLE","source":"ndw","priceKwh":0.32}},{"type":"Feature","geometry":{"type":"Point","coordinates":[4.701218,52.279996]},"properties":{"type":"charge","layer":"passenger","locationId":"AF3CFA0A-1BCE-47A1-8252-64B961928612","name":"Eneco eMobility SELP Hoofddorp 3 B.V. - Hoofddorp","address":"Contour Avenue 51","city":"Hoofddorp","operatorName":"Eneco","maxPowerKw":22,"isMegawatt":false,"status":"AVAILABLE","source":"ndw","priceKwh":0.32}},{"type":"Feature","geometry":{"type":"Point","coordinates":[4.707999,52.293179]},"properties":{"type":"charge","layer":"passenger","locationId":"a60cb876-309e-11ee-a530-42010aa40fc0","name":"Basic-Fit Nederland HQ Hoofddorp (PowerGo)","address":"Wegalaan 60","city":"Hoofddorp","operatorName":"PowerGo","maxPowerKw":0,"isMegawatt":false,"status":"AVAILABLE","source":"ndw"}},{"type":"Feature","geometry":{"type":"Point","coordinates":[4.64769,52.301645]},"properties":{"type":"charge","layer":"passenger","locationId":"6183e43e-3342-11ef-8d6f-42010aa400b8","name":"TNLP015312","address":"IJweg 1242","city":"Hoofddorp","operatorName":"TotalEnergies","maxPowerKw":17,"isMegawatt":false,"status":"AVAILABLE","source":"ndw","priceKwh":0.4}},{"type":"Feature","geometry":{"type":"Point","coordinates":[4.616579,52.261876]},"properties":{"type":"charge","layer":"passenger","locationId":"aa19f720-1100-11ee-ab09-42010aa4006f","name":"TNLP009189","address":"Houtrijk 54","city":"Nieuw-Vennep","operatorName":"TotalEnergies","maxPowerKw":17,"isMegawatt":false,"status":"AVAILABLE","source":"ndw","priceKwh":0.4}},{"type":"Feature","geometry":{"type":"Point","coordinates":[4.683619,52.352271]},"properties":{"type":"charge","layer":"passenger","locationId":"7eadd162-e103-11f0-a792-42010aa400b8","name":"Eneco eMobility Tandartsenpraktijk Vijfhuizen","address":"Mient 55","city":"Vijfhuizen","operatorName":"Eneco","maxPowerKw":22,"isMegawatt":false,"status":"CHARGING","source":"ndw","priceKwh":0.63}},{"type":"Feature","geometry":{"type":"Point","coordinates":[4.618554,52.254627]},"properties":{"type":"charge","layer":"passenger","locationId":"3967030","name":"Laadnet Herbergier Nieuw-Vennep","address":"Hoofdweg 1327","city":"Nieuw-Vennep","operatorName":"Laadnet","maxPowerKw":22,"isMegawatt":false,"status":"AVAILABLE","source":"ndw"}},{"type":"Feature","geometry":{"type":"Point","coordinates":[4.63625,52.31448]},"properties":{"type":"charge","layer":"passenger","locationId":"48adda2a-8f31-11e8-9dbe-42010a840002","name":"Shell Recharge NL Kranenhout 16 Hoofddorp","address":"Kranenhout 16","city":"Hoofddorp","operatorName":"Ubitricity","maxPowerKw":11,"isMegawatt":false,"status":"AVAILABLE","source":"ndw","priceKwh":0.39}},{"type":"Feature","geometry":{"type":"Point","coordinates":[4.73097,52.38007]},"properties":{"type":"charge","layer":"passenger","locationId":"68073dbc-8f31-11e8-a537-42010a840002","name":"Shell Recharge NL Amestelle 27 Zwanenburg","address":"Amestelle 27","city":"Zwanenburg","operatorName":"Ubitricity","maxPowerKw":11,"isMegawatt":false,"status":"AVAILABLE","source":"ndw","priceKwh":0.39}},{"type":"Feature","geometry":{"type":"Point","coordinates":[4.628648,52.333084]},"properties":{"type":"charge","layer":"passenger","locationId":"5098","name":"Shell Recharge NL9338 - Shell Retail Cruquius","address":"Spaarneweg 26","city":"Cruiquius","operatorName":"Shell Recharge","maxPowerKw":7,"isMegawatt":false,"status":"AVAILABLE","source":"ndw","priceKwh":0.4545}},{"type":"Feature","geometry":{"type":"Point","coordinates":[4.69903,52.291708]},"properties":{"type":"charge","layer":"passenger","locationId":"9107aa8a-2da5-11ef-abd9-42010aa400b8","name":"Eneco eMobility LITEON Technology - Taurusavenue - Hoofddorp","address":"Taurusavenue 33A","city":"Hoofddorp","operatorName":"Eneco","maxPowerKw":11,"isMegawatt":false,"status":"AVAILABLE","source":"ndw","priceKwh":0.32}},{"type":"Feature","geometry":{"type":"Point","coordinates":[4.646115,52.302643]},"properties":{"type":"charge","layer":"passenger","locationId":"2a3d856a-d77b-11ef-8d03-42010aa400b8","name":"TNLP015425","address":"Navona 44","city":"Hoofdddorp","operatorName":"TotalEnergies","maxPowerKw":17,"isMegawatt":false,"status":"AVAILABLE","source":"ndw","priceKwh":0.3}},{"type":"Feature","geometry":{"type":"Point","coordinates":[4.682734,52.295383]},"properties":{"type":"charge","layer":"passenger","locationId":"5a01bcaa-c9f6-11ee-af55-42010aa40fc0","name":"Opaallaan 1206-1212 Hoofddorp (PowerGo)","address":"Opaallaan 1206-1212","city":"Hoofddorp","operatorName":"PowerGo","maxPowerKw":0,"isMegawatt":false,"status":"AVAILABLE","source":"ndw","priceKwh":0.53}},{"type":"Feature","geometry":{"type":"Point","coordinates":[4.692262,52.299091]},"properties":{"type":"charge","layer":"passenger","locationId":"5a47536e-c9f6-11ee-905e-42010aa40fc0","name":"Binnenweg 2-18 Hoofddorp (PowerGo)","address":"Binnenweg 2-18","city":"Hoofddorp","operatorName":"PowerGo","maxPowerKw":0,"isMegawatt":false,"status":"AVAILABLE","source":"ndw","priceKwh":0.53}},{"type":"Feature","geometry":{"type":"Point","coordinates":[4.750873,52.278917]},"properties":{"type":"charge","layer":"passenger","locationId":"1076e288-909e-11ec-8b75-42010a84001a","name":"Eneco eMobility AAVest B.V.","address":"Boeing Avenue 8","city":"Schiphol-Rijk","operatorName":"Eneco","maxPowerKw":11,"isMegawatt":false,"status":"AVAILABLE","source":"ndw","priceKwh":0.43}},{"type":"Feature","geometry":{"type":"Point","coordinates":[4.693514,52.376869]},"properties":{"type":"charge","layer":"passenger","locationId":"8a35a9c2-eff1-11f0-a2d4-42010aa400b8","name":"Eneco eMobility Wilchem Vijfhuizen","address":"Spaarnwouderweg 52","city":"Vijfhuizen","operatorName":"Eneco","maxPowerKw":22,"isMegawatt":false,"status":"AVAILABLE","source":"ndw","priceKwh":0.33}},{"type":"Feature","geometry":{"type":"Point","coordinates":[4.66612,52.29722]},"properties":{"type":"charge","layer":"passenger","locationId":"173addf8-d546-11ec-a82a-42010a840003","name":"Shell Recharge NL Carry Pothuisstraat 68 Hoofddorp","address":"Carry Pothuisstraat 68","city":"Hoofddorp","operatorName":"Ubitricity","maxPowerKw":11,"isMegawatt":false,"status":"AVAILABLE","source":"ndw","priceKwh":0.39}},{"type":"Feature","geometry":{"type":"Point","coordinates":[4.785,52.336893]},"properties":{"type":"charge","layer":"passenger","locationId":"0ab2eccc-77f9-11ee-b074-42010aa40fc0","name":"Shell Recharge NL Groenezoom 2 Badhoevedorp","address":"Groenezoom 2","city":"Badhoevedorp","operatorName":"Ubitricity","maxPowerKw":11,"isMegawatt":false,"status":"AVAILABLE","source":"ndw","priceKwh":0.39}},{"type":"Feature","geometry":{"type":"Point","coordinates":[4.670176,52.31046]},"properties":{"type":"charge","layer":"passenger","locationId":"26dceea6-4198-11f0-bf22-42010aa400b8","name":"Shell Recharge NL Skagerrak 384, Hoofddorp","address":"Skagerrak 384","city":"Hoofddorp","operatorName":"Ubitricity","maxPowerKw":22,"isMegawatt":false,"status":"AVAILABLE","source":"ndw","priceKwh":0.29}},{"type":"Feature","geometry":{"type":"Point","coordinates":[4.6603,52.29787]},"properties":{"type":"charge","layer":"passenger","locationId":"8581b386-8f31-11e8-89c0-42010a840002","name":"Shell Recharge NL Ridderburgpark 5 Hoofddorp","address":"Ridderburgpark 5","city":"Hoofddorp","operatorName":"Ubitricity","maxPowerKw":11,"isMegawatt":false,"status":"AVAILABLE","source":"ndw","priceKwh":0.39}},{"type":"Feature","geometry":{"type":"Point","coordinates":[4.643385,52.318216]},"properties":{"type":"charge","layer":"passenger","locationId":"8707e9ec-a793-11ef-be15-42010aa400b8","name":"Shell Recharge NL Brandaris 101, Hoofddorp","address":"Brandaris 101","city":"Hoofddorp","operatorName":"Ubitricity","maxPowerKw":22,"isMegawatt":false,"status":"AVAILABLE","source":"ndw","priceKwh":0.29}},{"type":"Feature","geometry":{"type":"Point","coordinates":[4.63516,52.26357]},"properties":{"type":"charge","layer":"passenger","locationId":"acc4402a-fc82-11e9-a4c2-42010a840027","name":"Shell Recharge NL St. Anthoniusstraat 5 Nieuw-Vennep","address":"St. Anthoniusstraat 5","city":"Nieuw-Vennep","operatorName":"Ubitricity","maxPowerKw":11,"isMegawatt":false,"status":"AVAILABLE","source":"ndw","priceKwh":0.39}},{"type":"Feature","geometry":{"type":"Point","coordinates":[4.66299,52.30219]},"properties":{"type":"charge","layer":"passenger","locationId":"afe2c214-d546-11ec-bf0c-42010a840003","name":"Shell Recharge NL Markenburg 113 Hoofddorp","address":"Markenburg 113","city":"Hoofddorp","operatorName":"Ubitricity","maxPowerKw":11,"isMegawatt":false,"status":"AVAILABLE","source":"ndw","priceKwh":0.39}},{"type":"Feature","geometry":{"type":"Point","coordinates":[4.632038,52.307226]},"properties":{"type":"charge","layer":"passenger","locationId":"b28a0bdc-8c12-11ef-b0e3-42010aa400b8","name":"Shell Recharge NL Westerschelde 10, Hoofddorp","address":"Westerschelde 10","city":"Hoofddorp","operatorName":"Ubitricity","maxPowerKw":22,"isMegawatt":false,"status":"AVAILABLE","source":"ndw","priceKwh":0.29}},{"type":"Feature","geometry":{"type":"Point","coordinates":[4.63234,52.26753]},"properties":{"type":"charge","layer":"passenger","locationId":"b2efdbcc-d546-11ec-98c8-42010a840003","name":"Shell Recharge NL Van Bemmelenstraat 4 Nieuw-Vennep","address":"Van Bemmelenstraat 4","city":"Nieuw-Vennep","operatorName":"Ubitricity","maxPowerKw":11,"isMegawatt":false,"status":"AVAILABLE","source":"ndw","priceKwh":0.39}},{"type":"Feature","geometry":{"type":"Point","coordinates":[4.692695,52.310638]},"properties":{"type":"charge","layer":"passenger","locationId":"d5983886-b293-11ef-9f1d-42010aa400b8","name":"Shell Recharge NL Beemsterstraat 68, Hoofddorp","address":"Beemsterstraat 68","city":"Hoofddorp","operatorName":"Ubitricity","maxPowerKw":22,"isMegawatt":false,"status":"AVAILABLE","source":"ndw","priceKwh":0.29}},{"type":"Feature","geometry":{"type":"Point","coordinates":[4.652945,52.316522]},"properties":{"type":"charge","layer":"passenger","locationId":"ef2b0d14-3b34-11e9-8e24-42010a840fde","name":"Shell Recharge NL Tolheksbos 77 Hoofddorp","address":"Tolheksbos 77","city":"Hoofddorp","operatorName":"Ubitricity","maxPowerKw":11,"isMegawatt":false,"status":"AVAILABLE","source":"ndw","priceKwh":0.39}},{"type":"Feature","geometry":{"type":"Point","coordinates":[4.740189,52.386734]},"properties":{"type":"charge","layer":"passenger","locationId":"98a86abe-7db9-11ee-a552-42010aa40fc0","name":"bp pulse Halfweg","address":"N200","city":"Halfweg","operatorName":"bp pulse","maxPowerKw":150,"isMegawatt":false,"status":"AVAILABLE","source":"ndw","priceKwh":0.7}},{"type":"Feature","geometry":{"type":"Point","coordinates":[4.686932,52.261585]},"properties":{"type":"charge","layer":"passenger","locationId":"4e242c06-e67d-11f0-abd8-42010aa400b8","name":"Circle K Den Ruygen Hoek","address":"Rijksweg A4 1","city":"Hoofddorp","operatorName":"Spirii","maxPowerKw":0,"isMegawatt":false,"status":"AVAILABLE","source":"ndw"}},{"type":"Feature","geometry":{"type":"Point","coordinates":[4.6500877,52.3127793]},"properties":{"type":"charge","layer":"passenger","locationId":"957","name":"Shell Recharge NL Willemsbos 32","address":"Willemsbos 32","city":"Hoofddorp","operatorName":"Ubitricity","maxPowerKw":22,"isMegawatt":false,"status":"CHARGING","source":"ndw","priceKwh":0.266}},{"type":"Feature","geometry":{"type":"Point","coordinates":[4.660652,52.316221]},"properties":{"type":"charge","layer":"passenger","locationId":"52f5342c-ad3f-11f0-ac83-42010aa400b8","name":"PP005387","address":"Albergerbos 3","city":"Hoofddorp","operatorName":"TotalEnergies","maxPowerKw":0,"isMegawatt":false,"status":"AVAILABLE","source":"ndw","priceKwh":0.4}},{"type":"Feature","geometry":{"type":"Point","coordinates":[4.667098,52.292222]},"properties":{"type":"charge","layer":"passenger","locationId":"c1fbfd4a-9fe5-11f0-897e-42010aa400b8","name":"TNLP034064","address":"Koningin Maximalaan 7","city":"Hoofddorp","operatorName":"TotalEnergies","maxPowerKw":14,"isMegawatt":false,"status":"CHARGING","source":"ndw","priceKwh":0.3}},{"type":"Feature","geometry":{"type":"Point","coordinates":[4.618282,52.253251]},"properties":{"type":"charge","layer":"passenger","locationId":"d1bddfd3f1c14cb4ab033cba2bfb42ea","name":"Uneti Labs","address":"Hoofdweg 1490","city":"Nieuw-Vennep","operatorName":"","maxPowerKw":11,"isMegawatt":false,"status":"AVAILABLE","source":"ndw","priceKwh":0.35}},{"type":"Feature","geometry":{"type":"Point","coordinates":[4.70904,52.29132]},"properties":{"type":"charge","layer":"passenger","locationId":"8dc1a690-2fc2-11ef-8fb6-42010aa400b8","name":"Eneco eMobility Consolid - Hoofddorp","address":"Siriusdreef 49","city":"Hoofddorp","operatorName":"Eneco","maxPowerKw":22,"isMegawatt":false,"status":"AVAILABLE","source":"ndw","priceKwh":0.32}},{"type":"Feature","geometry":{"type":"Point","coordinates":[4.667653,52.306712]},"properties":{"type":"charge","layer":"passenger","locationId":"7a30c4de-0c30-4fa0-94b0-dd367420ba88","name":"TNLP034010","address":"Birkholm 22","city":"Hoofddorp","operatorName":"TotalEnergies","maxPowerKw":14,"isMegawatt":false,"status":"AVAILABLE","source":"ndw"}},{"type":"Feature","geometry":{"type":"Point","coordinates":[4.68014,52.40989]},"properties":{"type":"charge","layer":"passenger","locationId":"649","name":"Shell Recharge NL Rijnland 45","address":"Rijnland 45","city":"Spaarndam","operatorName":"Ubitricity","maxPowerKw":11,"isMegawatt":false,"status":"CHARGING","source":"ndw","priceKwh":0.388}},{"type":"Feature","geometry":{"type":"Point","coordinates":[4.683619,52.352271]},"properties":{"type":"charge","layer":"passenger","locationId":"F81C2BE4-BF46-4DF9-BBF8-0B127EB8D73A","name":"Eneco eMobility Tandartsenpraktijk Vijfhuizen","address":"Mient 55","city":"Vijfhuizen","operatorName":"Eneco","maxPowerKw":22,"isMegawatt":false,"status":"AVAILABLE","source":"ndw","priceKwh":0.52}},{"type":"Feature","geometry":{"type":"Point","coordinates":[4.6712409,52.3010767]},"properties":{"type":"charge","layer":"passenger","locationId":"1254","name":"Shell Recharge NL Hannie Schafstraat 114","address":"Hannie Schafstraat 114","city":"Hoofddorp","operatorName":"Ubitricity","maxPowerKw":22,"isMegawatt":false,"status":"AVAILABLE","source":"ndw","priceKwh":0.266}},{"type":"Feature","geometry":{"type":"Point","coordinates":[4.650088,52.312779]},"properties":{"type":"charge","layer":"passenger","locationId":"010c9aea-b814-11ef-9799-42010aa400b8","name":"Shell Recharge NL Willemsbos 32, Hoofddorp","address":"Willemsbos 32","city":"Hoofddorp","operatorName":"Ubitricity","maxPowerKw":22,"isMegawatt":false,"status":"AVAILABLE","source":"ndw","priceKwh":0.29}},{"type":"Feature","geometry":{"type":"Point","coordinates":[4.64986,52.31951]},"properties":{"type":"charge","layer":"passenger","locationId":"a3ed68cc-4f3c-11e8-9e55-42010a840002","name":"Shell Recharge NL Banckspolder 7 Haarlemmermeer","address":"Banckspolder 7","city":"Haarlemmermeer","operatorName":"Ubitricity","maxPowerKw":11,"isMegawatt":false,"status":"AVAILABLE","source":"ndw","priceKwh":0.39}},{"type":"Feature","geometry":{"type":"Point","coordinates":[4.6427,52.30879]},"properties":{"type":"charge","layer":"passenger","locationId":"a4f8aa88-4f3c-11e8-a556-42010a840002","name":"Shell Recharge NL Ard Schenkstraat 26 Haarlemmermeer","address":"Ard Schenkstraat 26","city":"Haarlemmermeer","operatorName":"Ubitricity","maxPowerKw":11,"isMegawatt":false,"status":"AVAILABLE","source":"ndw","priceKwh":0.39}},{"type":"Feature","geometry":{"type":"Point","coordinates":[4.64514,52.30219]},"properties":{"type":"charge","layer":"passenger","locationId":"c270c1f0-f7ce-11e8-8217-42010a840002","name":"Shell Recharge NL Belvedere 106 Hoofddorp","address":"Belvedere 106","city":"Hoofddorp","operatorName":"Ubitricity","maxPowerKw":11,"isMegawatt":false,"status":"AVAILABLE","source":"ndw","priceKwh":0.39}},{"type":"Feature","geometry":{"type":"Point","coordinates":[4.746454,52.280117]},"properties":{"type":"charge","layer":"passenger","locationId":"9EBBE36B-99FC-440E-A1CC-4E2744F97515","name":"Eneco eMobility Lodewijck Groep BV","address":"Beechavenue 139","city":"Schiphol-Rijk","operatorName":"Eneco","maxPowerKw":22,"isMegawatt":false,"status":"AVAILABLE","source":"ndw","priceKwh":0.45}},{"type":"Feature","geometry":{"type":"Point","coordinates":[4.693527,52.305067]},"properties":{"type":"charge","layer":"passenger","locationId":"OST20P0044_0012_1","name":"OST20P0044_0012_1","address":"Markplein 92","city":"Hoofddorp","operatorName":"e-VOLTT","maxPowerKw":0,"isMegawatt":false,"status":"AVAILABLE","source":"ndw","priceKwh":0.47}},{"type":"Feature","geometry":{"type":"Point","coordinates":[4.762054,52.348278]},"properties":{"type":"charge","layer":"passenger","locationId":"6752f1f026783c8eb60b1c0a","name":"New Yorkstraat 16","address":"New Yorkstraat 16","city":"Lijnden","operatorName":"E-Flux by Road","maxPowerKw":22,"isMegawatt":false,"status":"UNAVAILABLE","source":"ndw"}},{"type":"Feature","geometry":{"type":"Point","coordinates":[4.6098756,52.2637123]},"properties":{"type":"charge","layer":"passenger","locationId":"1699","name":"Shell Recharge NL Bramerveld 13","address":"Bramerveld 13","city":"Nieuw-Vennep","operatorName":"Ubitricity","maxPowerKw":22,"isMegawatt":false,"status":"AVAILABLE","source":"ndw","priceKwh":0.266}},{"type":"Feature","geometry":{"type":"Point","coordinates":[4.77971,52.34063]},"properties":{"type":"charge","layer":"passenger","locationId":"1f7e1c0f4819f0dafbf627573dbb0de2","name":"Einsteinlaan 3","address":"Einsteinlaan 3","city":"Badhoevedorp","operatorName":"Vattenfall InCharge","maxPowerKw":11,"isMegawatt":false,"status":"AVAILABLE","source":"ndw"}},{"type":"Feature","geometry":{"type":"Point","coordinates":[4.721771,52.290293]},"properties":{"type":"charge","layer":"passenger","locationId":"07D6B6B5-1833-4182-B970-75DBF2328E66","name":"Eneco eMobility Kruisweg 577 Hoofddorp","address":"Kruisweg 577","city":"Hoofddorp","operatorName":"Eneco","maxPowerKw":11,"isMegawatt":false,"status":"AVAILABLE","source":"ndw","priceKwh":0.28}},{"type":"Feature","geometry":{"type":"Point","coordinates":[4.6895,52.30591]},"properties":{"type":"charge","layer":"passenger","locationId":"2400571","name":"Laadnet Stroet laadpaal Fortweg 21!","address":"Fortweg 21","city":"Hoofddorp","operatorName":"Laadnet","maxPowerKw":22,"isMegawatt":false,"status":"AVAILABLE","source":"ndw"}},{"type":"Feature","geometry":{"type":"Point","coordinates":[4.767959,52.344723]},"properties":{"type":"charge","layer":"passenger","locationId":"563FEC01-F2A0-4001-95A3-79AF238BF506","name":"TNLP007734","address":"Silenestraat 5","city":"Badhoevedorp","operatorName":"TotalEnergies","maxPowerKw":14,"isMegawatt":false,"status":"AVAILABLE","source":"ndw"}},{"type":"Feature","geometry":{"type":"Point","coordinates":[4.667653,52.306712]},"properties":{"type":"charge","layer":"passenger","locationId":"5792d87a-d2f3-11f0-af83-42010aa400b8","name":"TNLP034010","address":"Birkholm 22","city":"Hoofddorp","operatorName":"TotalEnergies","maxPowerKw":14,"isMegawatt":false,"status":"CHARGING","source":"ndw","priceKwh":0.3}},{"type":"Feature","geometry":{"type":"Point","coordinates":[4.697133,52.298276]},"properties":{"type":"charge","layer":"passenger","locationId":"a0661412-bf22-11ef-ba6d-42010aa400b8","name":"TNLP015180","address":"De Fruittuinen 49","city":"Hoofddorp","operatorName":"TotalEnergies","maxPowerKw":17,"isMegawatt":false,"status":"AVAILABLE","source":"ndw","priceKwh":0.3}},{"type":"Feature","geometry":{"type":"Point","coordinates":[4.768319,52.345622]},"properties":{"type":"charge","layer":"passenger","locationId":"d8652854-795c-11f0-b7f2-42010aa400b8","name":"TNLP005836","address":"Lupinesingel 25","city":"Badhoevedorp","operatorName":"TotalEnergies","maxPowerKw":0,"isMegawatt":false,"status":"AVAILABLE","source":"ndw","priceKwh":0.39}},{"type":"Feature","geometry":{"type":"Point","coordinates":[4.661045,52.294271]},"properties":{"type":"charge","layer":"passenger","locationId":"fa769912-cf03-11f0-81c5-42010aa400b8","name":"TNLP034011","address":"Albertje Onosplantsoen 38","city":"Hoofddorp","operatorName":"TotalEnergies","maxPowerKw":14,"isMegawatt":false,"status":"AVAILABLE","source":"ndw","priceKwh":0.3}},{"type":"Feature","geometry":{"type":"Point","coordinates":[4.693514,52.376869]},"properties":{"type":"charge","layer":"passenger","locationId":"C5ABAFCF-C3C1-4A9D-88F8-60674F25F41D","name":"Eneco eMobility Wilchem Vijfhuizen","address":"Spaarnwouderweg 52","city":"Vijfhuizen","operatorName":"Eneco","maxPowerKw":22,"isMegawatt":false,"status":"AVAILABLE","source":"ndw","priceKwh":0.33}},{"type":"Feature","geometry":{"type":"Point","coordinates":[4.732281,52.285246]},"properties":{"type":"charge","layer":"passenger","locationId":"1debf8e2-0892-4ce7-aeda-a037ea0d99f5","name":"Kruisweg 397","address":"Kruisweg 397","city":"Rozenburg","operatorName":"Vattenfall InCharge","maxPowerKw":22,"isMegawatt":false,"status":"UNAVAILABLE","source":"ndw"}},{"type":"Feature","geometry":{"type":"Point","coordinates":[4.7042637,52.3042335]},"properties":{"type":"charge","layer":"passenger","locationId":"407","name":"Shell Recharge NL van den Berghlaan 259","address":"van den Berghlaan 259","city":"Hoofddorp","operatorName":"Ubitricity","maxPowerKw":11,"isMegawatt":false,"status":"AVAILABLE","source":"ndw","priceKwh":0.388}},{"type":"Feature","geometry":{"type":"Point","coordinates":[4.679356,52.409114]},"properties":{"type":"charge","layer":"passenger","locationId":"f8c71885c17b5926376ebf40887d31c4","name":"Ingeland 4","address":"Ingeland 4","city":"Spaarndam","operatorName":"Vattenfall InCharge","maxPowerKw":11,"isMegawatt":false,"status":"AVAILABLE","source":"ndw"}},{"type":"Feature","geometry":{"type":"Point","coordinates":[4.684505,52.412955]},"properties":{"type":"charge","layer":"passenger","locationId":"28733118-bd94-11ef-8b4c-42010aa400b8","name":"Shell Recharge NL Dr. W. Nijestraat 8, Spaarndam","address":"Dr. W. Nijestraat 8","city":"Spaarndam","operatorName":"Ubitricity","maxPowerKw":22,"isMegawatt":false,"status":"AVAILABLE","source":"ndw","priceKwh":0.29}},{"type":"Feature","geometry":{"type":"Point","coordinates":[4.57307,52.25586]},"properties":{"type":"charge","layer":"passenger","locationId":"b3889bbc-4f3c-11e8-902f-42010a840002","name":"Shell Recharge NL Muntstraat 78, Lisserbroek, [AN null]","address":"Muntstraat 78","city":"Lisserbroek","operatorName":"Ubitricity","maxPowerKw":11,"isMegawatt":false,"status":"AVAILABLE","source":"ndw","priceKwh":0.39}},{"type":"Feature","geometry":{"type":"Point","coordinates":[4.674922,52.294464]},"properties":{"type":"charge","layer":"passenger","locationId":"dba62070-7d50-11f0-a03f-42010aa400b8","name":"Shell Recharge NL Elisa van Calcarstraat 33, Hoofddorp, [AN null]","address":"Elisa van Calcarstraat 33","city":"Hoofddorp","operatorName":"Ubitricity","maxPowerKw":22,"isMegawatt":false,"status":"AVAILABLE","source":"ndw","priceKwh":0.29}},{"type":"Feature","geometry":{"type":"Point","coordinates":[4.778781,52.33856]},"properties":{"type":"charge","layer":"passenger","locationId":"8d02f587-e7ae-4604-886a-959b463282ad","name":"BADHOEVEDORP-Lorentzplein","address":"Lorentzplein","city":"Badhoevedorp","operatorName":"Lidl","maxPowerKw":22,"isMegawatt":false,"status":"UNAVAILABLE","source":"ndw"}},{"type":"Feature","geometry":{"type":"Point","coordinates":[4.6749224,52.294464]},"properties":{"type":"charge","layer":"passenger","locationId":"1233","name":"Shell Recharge NL Elisa van Calcarstraat 33","address":"Elisa van Calcarstraat 33","city":"Hoofddorp","operatorName":"Ubitricity","maxPowerKw":22,"isMegawatt":false,"status":"AVAILABLE","source":"ndw","priceKwh":0.266}},{"type":"Feature","geometry":{"type":"Point","coordinates":[4.747369,52.355957]},"properties":{"type":"charge","layer":"passenger","locationId":"63e4beab7013f70012003c5f","name":"Lijnden 180 Kwh lader 2","address":"Raasdorperweg 86","city":"Lijnden","operatorName":"E-Flux by Road","maxPowerKw":180,"isMegawatt":false,"status":"UNAVAILABLE","source":"ndw","priceKwh":0.62}},{"type":"Feature","geometry":{"type":"Point","coordinates":[4.646475,52.266008]},"properties":{"type":"charge","layer":"passenger","locationId":"4295893","name":"Laadnet Gersteweg","address":"Gersteweg 21","city":"Nieuw-Vennep","operatorName":"Laadnet","maxPowerKw":22,"isMegawatt":false,"status":"AVAILABLE","source":"ndw"}},{"type":"Feature","geometry":{"type":"Point","coordinates":[4.632994,52.331343]},"properties":{"type":"charge","layer":"passenger","locationId":"2daff535558c4518b5328bd16c76a9bf","name":" Zwaanshoek Mijn Veranda","address":"Crommelinbaan 16","city":"Cruquius","operatorName":"Opcharge","maxPowerKw":22,"isMegawatt":false,"status":"AVAILABLE","source":"ndw","priceKwh":0.54}},{"type":"Feature","geometry":{"type":"Point","coordinates":[4.750844,52.346833]},"properties":{"type":"charge","layer":"passenger","locationId":"4175083","name":"Laadnet Spicy Soda Schipholweg","address":"Schipholweg 641","city":"Lijnden","operatorName":"Laadnet","maxPowerKw":22,"isMegawatt":false,"status":"AVAILABLE","source":"ndw"}},{"type":"Feature","geometry":{"type":"Point","coordinates":[4.639077,52.274522]},"properties":{"type":"charge","layer":"passenger","locationId":"3966704","name":"Laadnet Athenelaan","address":"Athenelaan 191","city":"Nieuw-Vennep","operatorName":"Laadnet","maxPowerKw":11,"isMegawatt":false,"status":"AVAILABLE","source":"ndw"}},{"type":"Feature","geometry":{"type":"Point","coordinates":[4.63651,52.31019]},"properties":{"type":"charge","layer":"passenger","locationId":"228","name":"Shell Recharge NL Schelphoek 1","address":"Schelphoek 1","city":"Hoofddorp","operatorName":"Ubitricity","maxPowerKw":11,"isMegawatt":false,"status":"AVAILABLE","source":"ndw","priceKwh":0.388}},{"type":"Feature","geometry":{"type":"Point","coordinates":[4.73537,52.38352]},"properties":{"type":"charge","layer":"passenger","locationId":"b16c45c8-2fc2-11ef-a09a-42010aa400b8","name":"Eneco eMobility TSN Amsterdam - Zwanenburg","address":"Weerenweg 25","city":"Zwanenburg","operatorName":"Eneco","maxPowerKw":22,"isMegawatt":false,"status":"AVAILABLE","source":"ndw","priceKwh":0.32}},{"type":"Feature","geometry":{"type":"Point","coordinates":[4.619052,52.263474]},"properties":{"type":"charge","layer":"passenger","locationId":"5726e46c-7f4e-11ee-885e-42010aa40fc0","name":"TNLP009792","address":"Kalslagerring 511","city":"Nieuw-Vennep","operatorName":"TotalEnergies","maxPowerKw":17,"isMegawatt":false,"status":"AVAILABLE","source":"ndw","priceKwh":0.4}},{"type":"Feature","geometry":{"type":"Point","coordinates":[4.615289,52.313369]},"properties":{"type":"charge","layer":"passenger","locationId":"58a60a5e-973c-11f0-aea6-42010aa400b8","name":"PP005055","address":"Waterschaplaan","city":"Zwaanshoek","operatorName":"TotalEnergies","maxPowerKw":0,"isMegawatt":false,"status":"AVAILABLE","source":"ndw","priceKwh":0.4}},{"type":"Feature","geometry":{"type":"Point","coordinates":[4.682734,52.295383]},"properties":{"type":"charge","layer":"passenger","locationId":"5a01bcaa-c9f6-11ee-af55-42010aa40fc0","name":"Opaallaan 1206-1212 Hoofddorp (PowerGo)","address":"Opaallaan 1206-1212","city":"Hoofddorp","operatorName":"PowerGo","maxPowerKw":0,"isMegawatt":false,"status":"AVAILABLE","source":"ndw","priceKwh":0.53}},{"type":"Feature","geometry":{"type":"Point","coordinates":[4.74006,52.3784]},"properties":{"type":"charge","layer":"passenger","locationId":"249","name":"Shell Recharge NL Kuyperlaan 30","address":"Kuyperlaan 30","city":"Zwanenburg","operatorName":"Ubitricity","maxPowerKw":11,"isMegawatt":false,"status":"CHARGING","source":"ndw","priceKwh":0.388}},{"type":"Feature","geometry":{"type":"Point","coordinates":[4.763941,52.34263]},"properties":{"type":"charge","layer":"passenger","locationId":"c46bd804-6348-11f0-943d-42010aa400b8","name":"Eneco eMobility ASR Dutch Core Residential Fund Bienvenue","address":"Professor Johanna Westerdijkstraat 126","city":"Badhoevedorp","operatorName":"Eneco","maxPowerKw":11,"isMegawatt":false,"status":"AVAILABLE","source":"ndw","priceKwh":0.32}},{"type":"Feature","geometry":{"type":"Point","coordinates":[4.766111,52.284056]},"properties":{"type":"charge","layer":"passenger","locationId":"499F71D2-CC43-492B-B6D5-C510431F3A77","name":"Eneco eMobility EdgeConnex - Schiphol-Rijk","address":"Koolhovenlaan 12","city":"SCHIPHOL-RIJK","operatorName":"Eneco","maxPowerKw":11,"isMegawatt":false,"status":"UNAVAILABLE","source":"ndw","priceKwh":0.33}},{"type":"Feature","geometry":{"type":"Point","coordinates":[4.704264,52.304234]},"properties":{"type":"charge","layer":"passenger","locationId":"22f57eac-5f77-11e9-b597-42010a840004","name":"Shell Recharge NL van den Berghlaan 259 Hoofddorp","address":"van den Berghlaan 259","city":"Hoofddorp","operatorName":"Ubitricity","maxPowerKw":11,"isMegawatt":false,"status":"AVAILABLE","source":"ndw","priceKwh":0.39}},{"type":"Feature","geometry":{"type":"Point","coordinates":[4.674573,52.243014]},"properties":{"type":"charge","layer":"passenger","locationId":"3289933","name":"Laadnet Looye Kwekers Burgerveen","address":"Venneperweg 63","city":"Burgerveen","operatorName":"Laadnet","maxPowerKw":22,"isMegawatt":false,"status":"AVAILABLE","source":"ndw"}},{"type":"Feature","geometry":{"type":"Point","coordinates":[4.6471,52.31752]},"properties":{"type":"charge","layer":"passenger","locationId":"4a669712-8f31-11e8-a37e-42010a840002","name":"Shell Recharge NL Boschplaat 18 Hoofddorp","address":"Boschplaat 18","city":"Hoofddorp","operatorName":"Ubitricity","maxPowerKw":11,"isMegawatt":false,"status":"AVAILABLE","source":"ndw","priceKwh":0.39}},{"type":"Feature","geometry":{"type":"Point","coordinates":[4.57174,52.25734]},"properties":{"type":"charge","layer":"passenger","locationId":"5011b8fe-bce4-11e9-a3ab-42010a840fea","name":"Shell Recharge NL Muntstraat 149 Lisserbroek","address":"Muntstraat 149","city":"Lisserbroek","operatorName":"Ubitricity","maxPowerKw":11,"isMegawatt":false,"status":"AVAILABLE","source":"ndw","priceKwh":0.39}},{"type":"Feature","geometry":{"type":"Point","coordinates":[4.68258,52.29756]},"properties":{"type":"charge","layer":"passenger","locationId":"5c4513d8-d545-11ec-b744-42010a840003","name":"Shell Recharge NL Graan voor Visch 17201 Hoofddorp","address":"Graan voor Visch 17201","city":"Hoofddorp","operatorName":"Ubitricity","maxPowerKw":11,"isMegawatt":false,"status":"AVAILABLE","source":"ndw","priceKwh":0.39}},{"type":"Feature","geometry":{"type":"Point","coordinates":[4.68014,52.40989]},"properties":{"type":"charge","layer":"passenger","locationId":"66b199f2-cafa-11e9-bf62-42010a840fc3","name":"Shell Recharge NL Rijnland 45 Spaarndam","address":"Rijnland 45","city":"Spaarndam","operatorName":"Ubitricity","maxPowerKw":11,"isMegawatt":false,"status":"CHARGING","source":"ndw","priceKwh":0.39}},{"type":"Feature","geometry":{"type":"Point","coordinates":[4.70601,52.30965]},"properties":{"type":"charge","layer":"passenger","locationId":"84b12450-8f31-11e8-9993-42010a840002","name":"Shell Recharge NL Arnolduspark 13 Hoofddorp","address":"Arnolduspark 13","city":"Hoofddorp","operatorName":"Ubitricity","maxPowerKw":11,"isMegawatt":false,"status":"AVAILABLE","source":"ndw","priceKwh":0.39}},{"type":"Feature","geometry":{"type":"Point","coordinates":[4.6204,52.27912]},"properties":{"type":"charge","layer":"passenger","locationId":"c40c468e-8630-11e8-81a0-42010a840002","name":"Shell Recharge NL Velperpoort 43 Nieuw-Vennep","address":"Velperpoort 43","city":"Nieuw-Vennep","operatorName":"Ubitricity","maxPowerKw":11,"isMegawatt":false,"status":"AVAILABLE","source":"ndw","priceKwh":0.39}},{"type":"Feature","geometry":{"type":"Point","coordinates":[4.63971,52.27057]},"properties":{"type":"charge","layer":"passenger","locationId":"c4254e0e-8630-11e8-86b6-42010a840002","name":"Shell Recharge NL Beurtschipper 69 Nieuw-Vennep","address":"Beurtschipper 69","city":"Nieuw-Vennep","operatorName":"Ubitricity","maxPowerKw":11,"isMegawatt":false,"status":"AVAILABLE","source":"ndw","priceKwh":0.39}},{"type":"Feature","geometry":{"type":"Point","coordinates":[4.714819,52.292356]},"properties":{"type":"charge","layer":"passenger","locationId":"cfd5ad60-5d75-11f0-a77d-42010aa400b8","name":"bp pulse Hoofddorp","address":"Kruisweg 450","city":"Hoofddorp","operatorName":"bp pulse","maxPowerKw":150,"isMegawatt":false,"status":"AVAILABLE","source":"ndw","priceKwh":0.7}},{"type":"Feature","geometry":{"type":"Point","coordinates":[4.650442,52.323178]},"properties":{"type":"charge","layer":"passenger","locationId":"f85c52b8-a464-4f64-ac7d-f6b95acf1446","name":"Simonszand","address":"Simonszand 52","city":"Hoofddorp","operatorName":"Vattenfall InCharge","maxPowerKw":11,"isMegawatt":false,"status":"CHARGING","source":"ndw"}},{"type":"Feature","geometry":{"type":"Point","coordinates":[4.67681,52.31181]},"properties":{"type":"charge","layer":"passenger","locationId":"1496","name":"Shell Recharge NL Engelsholm 140","address":"Engelsholm 140","city":"Haarlemmermeer","operatorName":"Ubitricity","maxPowerKw":11,"isMegawatt":false,"status":"UNAVAILABLE","source":"ndw","priceKwh":0.388}},{"type":"Feature","geometry":{"type":"Point","coordinates":[4.664585,52.305021]},"properties":{"type":"charge","layer":"passenger","locationId":"4309716","name":"Laadnet VvE Sterkenburg","address":"Assumburg 59-93","city":"Hoofddorp","operatorName":"Laadnet","maxPowerKw":22,"isMegawatt":false,"status":"AVAILABLE","source":"ndw"}},{"type":"Feature","geometry":{"type":"Point","coordinates":[4.63155,52.33332]},"properties":{"type":"charge","layer":"passenger","locationId":"1605835","name":"Laadnet De Ruijtermeubel","address":"Spaarneweg 24","city":"Cruquius","operatorName":"Laadnet","maxPowerKw":22,"isMegawatt":false,"status":"AVAILABLE","source":"ndw"}},{"type":"Feature","geometry":{"type":"Point","coordinates":[4.746423,52.298016]},"properties":{"type":"charge","layer":"passenger","locationId":"53b9ee76-2fc2-11ef-9390-42010aa400b8","name":"Eneco eMobility dnata BV - Pelikaanweg 1 - Schiphol-Rijk","address":"Pelikaanweg 1","city":"Amsterdam Airport Schiphol","operatorName":"Eneco","maxPowerKw":22,"isMegawatt":false,"status":"UNAVAILABLE","source":"ndw","priceKwh":0.32}},{"type":"Feature","geometry":{"type":"Point","coordinates":[4.749892,52.375648]},"properties":{"type":"charge","layer":"passenger","locationId":"2cb91728-24d5-11ee-b24e-42010aa40fc0","name":"Hotel Zwanenburg (PowerGo)","address":"Olmenlaan 52","city":"Zwanenburg","operatorName":"PowerGo","maxPowerKw":0,"isMegawatt":false,"status":"AVAILABLE","source":"ndw"}},{"type":"Feature","geometry":{"type":"Point","coordinates":[4.591018,52.234186]},"properties":{"type":"charge","layer":"passenger","locationId":"4fd6cf16-6e04-11ee-9722-42010aa40fc0","name":"TNLP008292","address":"Hoofdweg 1764","city":"Abbenes","operatorName":"TotalEnergies","maxPowerKw":14,"isMegawatt":false,"status":"AVAILABLE","source":"ndw","priceKwh":0.4}},{"type":"Feature","geometry":{"type":"Point","coordinates":[4.677878,52.353545]},"properties":{"type":"charge","layer":"passenger","locationId":"b793fb22-08d4-11ef-b212-42010aa400b8","name":"TNLP015337","address":"d'Yserinckweg 122","city":"Vijfhuizen","operatorName":"TotalEnergies","maxPowerKw":17,"isMegawatt":false,"status":"AVAILABLE","source":"ndw","priceKwh":0.4}},{"type":"Feature","geometry":{"type":"Point","coordinates":[4.604465,52.269035]},"properties":{"type":"charge","layer":"passenger","locationId":"4f306f90-eefc-46bc-9cf0-86525356e14c","name":"Laapersveld 15","address":"Laapersveld 15","city":"NIEUW-VENNEP","operatorName":"Vattenfall InCharge","maxPowerKw":11,"isMegawatt":false,"status":"AVAILABLE","source":"ndw"}},{"type":"Feature","geometry":{"type":"Point","coordinates":[4.6268479,52.2616888]},"properties":{"type":"charge","layer":"passenger","locationId":"1421","name":"Shell Recharge NL Zuiderdreef 5","address":"Zuiderdreef 5","city":"Nieuw-Vennep","operatorName":"Ubitricity","maxPowerKw":22,"isMegawatt":false,"status":"AVAILABLE","source":"ndw","priceKwh":0.266}},{"type":"Feature","geometry":{"type":"Point","coordinates":[4.656727,52.311439]},"properties":{"type":"charge","layer":"passenger","locationId":"03b1bff2-b35d-11ef-8587-42010aa400b8","name":"Shell Recharge NL Ommerbos 99, Hoofddorp","address":"Ommerbos 99","city":"Hoofddorp","operatorName":"Ubitricity","maxPowerKw":22,"isMegawatt":false,"status":"AVAILABLE","source":"ndw","priceKwh":0.29}},{"type":"Feature","geometry":{"type":"Point","coordinates":[4.64257,52.30351]},"properties":{"type":"charge","layer":"passenger","locationId":"355f19ca-d546-11ec-82f6-42010a840003","name":"Shell Recharge NL Hermitage 148-196 Hoofddorp","address":"Hermitage 148-196","city":"Hoofddorp","operatorName":"Ubitricity","maxPowerKw":11,"isMegawatt":false,"status":"AVAILABLE","source":"ndw","priceKwh":0.39}},{"type":"Feature","geometry":{"type":"Point","coordinates":[4.66492,52.31858]},"properties":{"type":"charge","layer":"passenger","locationId":"c22f690e-8630-11e8-9fab-42010a840002","name":"Shell Recharge NL Dassenbos 87 Hoofddorp","address":"Dassenbos 87","city":"Hoofddorp","operatorName":"Ubitricity","maxPowerKw":11,"isMegawatt":false,"status":"AVAILABLE","source":"ndw","priceKwh":0.39}},{"type":"Feature","geometry":{"type":"Point","coordinates":[4.66612,52.29722]},"properties":{"type":"charge","layer":"passenger","locationId":"434","name":"Shell Recharge NL Carry Pothuisstraat 68","address":"Carry Pothuisstraat 68","city":"Hoofddorp","operatorName":"Ubitricity","maxPowerKw":11,"isMegawatt":false,"status":"AVAILABLE","source":"ndw","priceKwh":0.388}},{"type":"Feature","geometry":{"type":"Point","coordinates":[4.67996,52.285678]},"properties":{"type":"charge","layer":"passenger","locationId":"F9FFD21F-9D77-43FD-923F-F12F661DB468","name":"Eneco eMobility Somfy Nederland - Hoofddorp","address":"Jacobus Ahrendlaan 1","city":"Hoofddorp","operatorName":"Eneco","maxPowerKw":11,"isMegawatt":false,"status":"AVAILABLE","source":"ndw","priceKwh":0.38}},{"type":"Feature","geometry":{"type":"Point","coordinates":[4.652945,52.316522]},"properties":{"type":"charge","layer":"passenger","locationId":"471","name":"Shell Recharge NL Tolheksbos 77","address":"Tolheksbos 77","city":"Hoofddorp","operatorName":"Ubitricity","maxPowerKw":11,"isMegawatt":false,"status":"CHARGING","source":"ndw","priceKwh":0.388}},{"type":"Feature","geometry":{"type":"Point","coordinates":[4.767542,52.349624]},"properties":{"type":"charge","layer":"passenger","locationId":"4219089","name":"Laadnet Dex Corporation","address":"Melbournestraat 7","city":"Lijnden","operatorName":"Laadnet","maxPowerKw":22,"isMegawatt":false,"status":"AVAILABLE","source":"ndw"}},{"type":"Feature","geometry":{"type":"Point","coordinates":[4.809174,52.307209]},"properties":{"type":"charge","layer":"passenger","locationId":"69aecf40f3ef2f87603f8a3d","name":"Toren Centrum","address":"Stationsplein-ZW 1001","city":"Schiphol","operatorName":"E-Flux by Road","maxPowerKw":22,"isMegawatt":false,"status":"AVAILABLE","source":"ndw","priceKwh":0.2584}},{"type":"Feature","geometry":{"type":"Point","coordinates":[4.6614,52.29989]},"properties":{"type":"charge","layer":"passenger","locationId":"22f2c1a8-1732-11ea-a44b-42010a840fe3","name":"PP004228","address":"Nijenburg 81","city":"Hoofddorp","operatorName":"TotalEnergies","maxPowerKw":0,"isMegawatt":false,"status":"AVAILABLE","source":"ndw","priceKwh":0.4}},{"type":"Feature","geometry":{"type":"Point","coordinates":[4.663211,52.316537]},