{"type":"FeatureCollection","metadata":{"gemeente":"Harderwijk","slug":"harderwijk","code":"GM0243","generated_at":"2026-06-07T19:22:09.578Z","total_passenger":182,"total_freight":0,"bounds":[5.575754618318856,52.30149264786745,5.712803952050868,52.37884155260163],"operators":["Allego","Alva Charging Services","ChargePoint","DAEN Mobility","E-Flux by Road","Eneco","Fastned","Laadnet","PowerGo","PureCharged","Tango electric","Tesla","Valk Energy","Vattenfall InCharge"]},"features":[{"type":"Feature","geometry":{"type":"Point","coordinates":[5.61643,52.356827]},"properties":{"type":"charge","layer":"passenger","locationId":"923480","name":"EVB-P1922245","address":"Langezand 59","city":"Harderwijk","operatorName":"DAEN Mobility","maxPowerKw":11,"isMegawatt":false,"status":"AVAILABLE","source":"ndw","priceKwh":0.243}},{"type":"Feature","geometry":{"type":"Point","coordinates":[5.647195,52.344551]},"properties":{"type":"charge","layer":"passenger","locationId":"923324","name":"PBLR-0001668","address":"Geitekamp 4","city":"Harderwijk","operatorName":"DAEN Mobility","maxPowerKw":11,"isMegawatt":false,"status":"AVAILABLE","source":"ndw","priceKwh":0.34}},{"type":"Feature","geometry":{"type":"Point","coordinates":[5.616341,52.326623]},"properties":{"type":"charge","layer":"passenger","locationId":"a614a1fe-9c2f-11eb-bc72-42010a840021","name":"Eneco eMobility Pouw Harderwijk Audi - Audi Sport","address":"Zuiderbreedte 46","city":"Harderwijk","operatorName":"Eneco","maxPowerKw":50,"isMegawatt":false,"status":"AVAILABLE","source":"ndw","priceKwh":0.32}},{"type":"Feature","geometry":{"type":"Point","coordinates":[5.591243,52.331715]},"properties":{"type":"charge","layer":"passenger","locationId":"50604","name":"Fastned Drielander","address":"Drielander A28","city":"Harderwijk","operatorName":"Fastned","maxPowerKw":300,"isMegawatt":false,"status":"CHARGING","source":"ndw","priceKwh":0.6364}},{"type":"Feature","geometry":{"type":"Point","coordinates":[5.628805,52.345793]},"properties":{"type":"charge","layer":"passenger","locationId":"NLLOC013103","name":"NL, Martinus Nijhoffstraat 1, 3842LM, Harderwijk","address":"Martinus Nijhoffstraat 1","city":"Harderwijk","operatorName":"Allego","maxPowerKw":0,"isMegawatt":false,"status":"CHARGING","source":"ndw","priceKwh":0.511}},{"type":"Feature","geometry":{"type":"Point","coordinates":[5.647136,52.362123]},"properties":{"type":"charge","layer":"passenger","locationId":"727704c4-ea1c-11ef-ad2b-42010aa400b8","name":"Eneco eMobility IQOUNT - Daltonstraat 22 - Harderwijk","address":"Daltonstraat 22","city":"Harderwijk","operatorName":"Eneco","maxPowerKw":22,"isMegawatt":false,"status":"AVAILABLE","source":"ndw","priceKwh":0.32}},{"type":"Feature","geometry":{"type":"Point","coordinates":[5.643574,52.335913]},"properties":{"type":"charge","layer":"passenger","locationId":"0ea38bff-de03-4b94-9530-9e1fa456b6d1","name":"Harderwijk, Netherlands","address":"4, Boekhorstlaan","city":"Harderwijk","operatorName":"Tesla","maxPowerKw":250,"isMegawatt":false,"status":"AVAILABLE","source":"ndw","priceKwh":0.54}},{"type":"Feature","geometry":{"type":"Point","coordinates":[5.58865,52.324723]},"properties":{"type":"charge","layer":"passenger","locationId":"7cd11a2a-54d3-11e9-b53f-42010a840003","name":"NLD, Harderwijk, Madeliefdreef 1","address":"Madeliefdreef 1","city":"Harderwijk","operatorName":"Allego","maxPowerKw":0,"isMegawatt":false,"status":"AVAILABLE","source":"ndw"}},{"type":"Feature","geometry":{"type":"Point","coordinates":[5.647133,52.366171]},"properties":{"type":"charge","layer":"passenger","locationId":"3844470","name":"Laadnet Qimarox","address":"Nobelstraat 43","city":"Harderwijk","operatorName":"Laadnet","maxPowerKw":22,"isMegawatt":false,"status":"AVAILABLE","source":"ndw"}},{"type":"Feature","geometry":{"type":"Point","coordinates":[5.591462,52.323838]},"properties":{"type":"charge","layer":"passenger","locationId":"NLLOC015856","name":"NL, Paardenbloemdreef 12, 3845KC, Harderwijk","address":"Paardenbloemdreef 12","city":"Harderwijk","operatorName":"Allego","maxPowerKw":0,"isMegawatt":false,"status":"CHARGING","source":"ndw","priceKwh":0.511}},{"type":"Feature","geometry":{"type":"Point","coordinates":[5.614733,52.347834]},"properties":{"type":"charge","layer":"passenger","locationId":"4daf1528-dbef-11ee-b0dd-42010aa400b8","name":"NL, Plantage 18, 3841 EL Harderwijk","address":"Plantage 18","city":"Harderwijk","operatorName":"Allego","maxPowerKw":0,"isMegawatt":false,"status":"AVAILABLE","source":"ndw"}},{"type":"Feature","geometry":{"type":"Point","coordinates":[5.609008,52.325634]},"properties":{"type":"charge","layer":"passenger","locationId":"9fc77d8a-c33a-11eb-a3da-42010a840003","name":"NL, Belcantodreef 24, 3845GX, Harderwijk","address":"Belcantodreef 24","city":"Harderwijk","operatorName":"Allego","maxPowerKw":0,"isMegawatt":false,"status":"AVAILABLE","source":"ndw"}},{"type":"Feature","geometry":{"type":"Point","coordinates":[5.622163,52.34942]},"properties":{"type":"charge","layer":"passenger","locationId":"9fa3fb30-c33a-11eb-ba88-42010a840003","name":"NL, Waltorenstraat 3, 3841 KN Harderwijk","address":"Waltorenstraat 3","city":"Harderwijk","operatorName":"Allego","maxPowerKw":0,"isMegawatt":false,"status":"CHARGING","source":"ndw"}},{"type":"Feature","geometry":{"type":"Point","coordinates":[5.61798,52.32749]},"properties":{"type":"charge","layer":"passenger","locationId":"0ABD080B-9C03-48A7-8094-6922072892A9","name":"Eneco eMobility Broekhuis Volvo Ford Harderwijk","address":"Zuiderbreedte 40-42","city":"Harderwijk","operatorName":"Eneco","maxPowerKw":25,"isMegawatt":false,"status":"AVAILABLE","source":"ndw","priceKwh":0.38}},{"type":"Feature","geometry":{"type":"Point","coordinates":[5.643089,52.335729]},"properties":{"type":"charge","layer":"passenger","locationId":"f6d3f8f4-ee89-11eb-acf9-42010a840003","name":"Tango Harderwijk 4-5-6","address":"Boekhorstlaan 4","city":"Harderwijk","operatorName":"Tango electric","maxPowerKw":300,"isMegawatt":false,"status":"AVAILABLE","source":"ndw","priceKwh":0.57}},{"type":"Feature","geometry":{"type":"Point","coordinates":[5.630385,52.353818]},"properties":{"type":"charge","layer":"passenger","locationId":"d697d3a602dd0bfac0a297debce550cd","name":"Knardijk West 4","address":"Knardijk West 4","city":"Harderwijk","operatorName":"Vattenfall InCharge","maxPowerKw":50,"isMegawatt":false,"status":"AVAILABLE","source":"ndw"}},{"type":"Feature","geometry":{"type":"Point","coordinates":[5.635491,52.35284]},"properties":{"type":"charge","layer":"passenger","locationId":"4233597","name":"Laadnet Enviem","address":"Stephensonstraat 25","city":"Harderwijk","operatorName":"Laadnet","maxPowerKw":22,"isMegawatt":false,"status":"UNAVAILABLE","source":"ndw"}},{"type":"Feature","geometry":{"type":"Point","coordinates":[5.61743,52.32695]},"properties":{"type":"charge","layer":"passenger","locationId":"07253386-63b2-11ee-ab81-42010aa40fc0","name":"Eneco eMobility Broekhuis Lease Harderwijk","address":"Zuiderbreedte 36","city":"Harderwijk","operatorName":"Eneco","maxPowerKw":22,"isMegawatt":false,"status":"CHARGING","source":"ndw","priceKwh":0.45}},{"type":"Feature","geometry":{"type":"Point","coordinates":[5.64494,52.3606]},"properties":{"type":"charge","layer":"passenger","locationId":"00b7a45c-84b4-11ee-9210-42010aa40fc0","name":"Eneco eMobility Broekhuis Autoschade Harderwijk","address":"Fahrenheitstraat 30","city":"Harderwijk","operatorName":"Eneco","maxPowerKw":22,"isMegawatt":false,"status":"AVAILABLE","source":"ndw","priceKwh":0.32}},{"type":"Feature","geometry":{"type":"Point","coordinates":[5.642203,52.359926]},"properties":{"type":"charge","layer":"passenger","locationId":"5af11fce-ea1c-11ef-b25a-42010aa400b8","name":"Eneco eMobility Broekhuis Hyundai Harderwijk","address":"Snelliusstraat 2","city":"Harderwijk","operatorName":"Eneco","maxPowerKw":22,"isMegawatt":false,"status":"AVAILABLE","source":"ndw","priceKwh":0.45}},{"type":"Feature","geometry":{"type":"Point","coordinates":[5.601372,52.323365]},"properties":{"type":"charge","layer":"passenger","locationId":"NLLOC024377","name":"NL, Tonselsedreef 124, 3845 DT Harderwijk","address":"Tonselsedreef 124","city":"Harderwijk","operatorName":"Allego","maxPowerKw":0,"isMegawatt":false,"status":"AVAILABLE","source":"ndw","priceKwh":0.511}},{"type":"Feature","geometry":{"type":"Point","coordinates":[5.622652,52.356476]},"properties":{"type":"charge","layer":"passenger","locationId":"aa998225ed5049fcb7b36429b1c56247","name":" Koopmans Bouw B.V. Kop Stadswerven Waterfront te Harderwijk","address":"Waterstadboulevard 1 BIJ (Koopmans 4779)","city":"Harderwijk","operatorName":"","maxPowerKw":11,"isMegawatt":false,"status":"AVAILABLE","source":"ndw","priceKwh":0.53}},{"type":"Feature","geometry":{"type":"Point","coordinates":[5.643089,52.335729]},"properties":{"type":"charge","layer":"passenger","locationId":"eea6c65d-83b7-4e25-bd9c-3d63e04b980d","name":"Tango Harderwijk 4-5-6","address":"Boekhorstlaan 4","city":"Harderwijk","operatorName":"Tango electric","maxPowerKw":300,"isMegawatt":false,"status":"AVAILABLE","source":"ndw","priceKwh":0.6}},{"type":"Feature","geometry":{"type":"Point","coordinates":[5.613699,52.325798]},"properties":{"type":"charge","layer":"passenger","locationId":"NLCPIL7302245","name":"FOURCE BV HARDERWIJK 5","address":"16a Zuiderbreedte","city":"Harderwijk","operatorName":"ChargePoint","maxPowerKw":22,"isMegawatt":false,"status":"AVAILABLE","source":"ndw","priceKwh":0.5}},{"type":"Feature","geometry":{"type":"Point","coordinates":[5.618708,52.341853]},"properties":{"type":"charge","layer":"passenger","locationId":"49c1787a-dbef-11ee-bfd1-42010aa400b8","name":"NL, Sint Janshof 41, 3844GE, Harderwijk","address":"Sint Janshof 41","city":"Harderwijk","operatorName":"Allego","maxPowerKw":0,"isMegawatt":false,"status":"AVAILABLE","source":"ndw"}},{"type":"Feature","geometry":{"type":"Point","coordinates":[5.628805,52.345793]},"properties":{"type":"charge","layer":"passenger","locationId":"623720ac-a16f-11eb-8237-42010a840003","name":"NL, Martinus Nijhoffstraat 1, 3842LM, Harderwijk","address":"Martinus Nijhoffstraat 1","city":"Harderwijk","operatorName":"Allego","maxPowerKw":0,"isMegawatt":false,"status":"AVAILABLE","source":"ndw"}},{"type":"Feature","geometry":{"type":"Point","coordinates":[5.602865,52.333459]},"properties":{"type":"charge","layer":"passenger","locationId":"7aaeaed0-4f3c-11e8-9b75-42010a840002","name":"NLD, Harderwijk, Gruttomeen 2","address":"Gruttomeen 2","city":"Harderwijk","operatorName":"Allego","maxPowerKw":0,"isMegawatt":false,"status":"AVAILABLE","source":"ndw"}},{"type":"Feature","geometry":{"type":"Point","coordinates":[5.591462,52.323838]},"properties":{"type":"charge","layer":"passenger","locationId":"c3a6dc4c-060a-11ec-83c6-42010a840003","name":"NL, Paardenbloemdreef 12, 3845KC, Harderwijk","address":"Paardenbloemdreef 12","city":"Harderwijk","operatorName":"Allego","maxPowerKw":0,"isMegawatt":false,"status":"AVAILABLE","source":"ndw"}},{"type":"Feature","geometry":{"type":"Point","coordinates":[5.630908,52.349403]},"properties":{"type":"charge","layer":"passenger","locationId":"NLLOC001365","name":"NLD, Harderwijk, Ingenieur P. Calandstraat 22","address":"Ingenieur P. Calandstraat 22","city":"Harderwijk","operatorName":"Allego","maxPowerKw":0,"isMegawatt":false,"status":"AVAILABLE","source":"ndw","priceKwh":0.511}},{"type":"Feature","geometry":{"type":"Point","coordinates":[5.636924,52.347858]},"properties":{"type":"charge","layer":"passenger","locationId":"NLLOC005644","name":"NLD Queridostraat 28 3842 CE Harderwijk","address":"Queridostraat 28","city":"Harderwijk","operatorName":"Allego","maxPowerKw":0,"isMegawatt":false,"status":"AVAILABLE","source":"ndw","priceKwh":0.511}},{"type":"Feature","geometry":{"type":"Point","coordinates":[5.60888,52.325237]},"properties":{"type":"charge","layer":"passenger","locationId":"66f877066cbcca001c2cadfa","name":"Sebastiaan Rakhorst 's station","address":"Belcantodreef  41","city":"Harderwijk","operatorName":"E-Flux by Road","maxPowerKw":22,"isMegawatt":false,"status":"AVAILABLE","source":"ndw","priceKwh":0.5}},{"type":"Feature","geometry":{"type":"Point","coordinates":[5.61798,52.32749]},"properties":{"type":"charge","layer":"passenger","locationId":"a626ba64-63b1-11ee-8a57-42010aa40fc0","name":"Eneco eMobility Broekhuis Volvo Ford Harderwijk","address":"Zuiderbreedte 40-42","city":"Harderwijk","operatorName":"Eneco","maxPowerKw":25,"isMegawatt":false,"status":"AVAILABLE","source":"ndw","priceKwh":0.38}},{"type":"Feature","geometry":{"type":"Point","coordinates":[5.617388,52.340569]},"properties":{"type":"charge","layer":"passenger","locationId":"4351063","name":"Laadnet Stichting Careander","address":"Westeinde 27A","city":"Harderwijk","operatorName":"Laadnet","maxPowerKw":22,"isMegawatt":false,"status":"AVAILABLE","source":"ndw"}},{"type":"Feature","geometry":{"type":"Point","coordinates":[5.621055,52.340379]},"properties":{"type":"charge","layer":"passenger","locationId":"3778671","name":"Laadnet Christelijk College Nassau Veluwe","address":"Stationslaan 26","city":"Harderwijk","operatorName":"Laadnet","maxPowerKw":22,"isMegawatt":false,"status":"AVAILABLE","source":"ndw"}},{"type":"Feature","geometry":{"type":"Point","coordinates":[5.678162,52.358913]},"properties":{"type":"charge","layer":"passenger","locationId":"NLLOC024209","name":"NL, Wouterskampen 52, 3849 BC Hierden","address":"Wouterskampen 52","city":"Hierden","operatorName":"Allego","maxPowerKw":0,"isMegawatt":false,"status":"AVAILABLE","source":"ndw","priceKwh":0.511}},{"type":"Feature","geometry":{"type":"Point","coordinates":[5.622098,52.334811]},"properties":{"type":"charge","layer":"passenger","locationId":"1483d482-fc35-11ec-b6ad-42010aa40003","name":"Eneco eMobility Mecklenburglaan 4 Harderwijk","address":"Mecklenburglaan 4","city":"Harderwijk","operatorName":"Eneco","maxPowerKw":0,"isMegawatt":false,"status":"CHARGING","source":"ndw","priceKwh":0.32}},{"type":"Feature","geometry":{"type":"Point","coordinates":[5.591243,52.331715]},"properties":{"type":"charge","layer":"passenger","locationId":"5c298446-6426-11ec-b4ba-42010a840003","name":"Fastned Drielander","address":"Drielander A28","city":"Harderwijk","operatorName":"Fastned","maxPowerKw":300,"isMegawatt":false,"status":"CHARGING","source":"ndw"}},{"type":"Feature","geometry":{"type":"Point","coordinates":[5.622098,52.334811]},"properties":{"type":"charge","layer":"passenger","locationId":"FB2A5D13-4B74-4F5B-827D-BEA5D21BB9CD","name":"Eneco eMobility Mecklenburglaan 4 Harderwijk","address":"Mecklenburglaan 4","city":"Harderwijk","operatorName":"Eneco","maxPowerKw":0,"isMegawatt":false,"status":"AVAILABLE","source":"ndw","priceKwh":0.32}},{"type":"Feature","geometry":{"type":"Point","coordinates":[5.61743,52.32695]},"properties":{"type":"charge","layer":"passenger","locationId":"31A5C06E-B232-449F-8AF0-872A67414F50","name":"Eneco eMobility Broekhuis Lease Harderwijk","address":"Zuiderbreedte 36","city":"Harderwijk","operatorName":"Eneco","maxPowerKw":22,"isMegawatt":false,"status":"AVAILABLE","source":"ndw","priceKwh":0.45}},{"type":"Feature","geometry":{"type":"Point","coordinates":[5.613748,52.325637]},"properties":{"type":"charge","layer":"passenger","locationId":"NLCPIL7371425","name":"FOURCE BV HARDERWIJK 6","address":"16a Zuiderbreedte","city":"Harderwijk","operatorName":"ChargePoint","maxPowerKw":22,"isMegawatt":false,"status":"AVAILABLE","source":"ndw","priceKwh":0.5}},{"type":"Feature","geometry":{"type":"Point","coordinates":[5.64379,52.363203]},"properties":{"type":"charge","layer":"passenger","locationId":"771309e2-dc4c-11f0-a973-42010aa400b8","name":"Eneco eMobility Ploeger Logistics Holding B.V. - Harderwijk","address":"Daltonstraat 13","city":"Harderwijk","operatorName":"Eneco","maxPowerKw":11,"isMegawatt":false,"status":"AVAILABLE","source":"ndw","priceKwh":0.32}},{"type":"Feature","geometry":{"type":"Point","coordinates":[5.657816,52.356928]},"properties":{"type":"charge","layer":"passenger","locationId":"2332298","name":"Laadnet Van Beekum","address":"Morsestraat 16","city":"Harderwijk","operatorName":"Laadnet","maxPowerKw":11,"isMegawatt":false,"status":"AVAILABLE","source":"ndw"}},{"type":"Feature","geometry":{"type":"Point","coordinates":[5.58865,52.324723]},"properties":{"type":"charge","layer":"passenger","locationId":"NLLOC002638","name":"NLD, Harderwijk, Madeliefdreef 1","address":"Madeliefdreef 1","city":"Harderwijk","operatorName":"Allego","maxPowerKw":0,"isMegawatt":false,"status":"AVAILABLE","source":"ndw","priceKwh":0.511}},{"type":"Feature","geometry":{"type":"Point","coordinates":[5.628691,52.347867]},"properties":{"type":"charge","layer":"passenger","locationId":"3806590","name":"Laadnet Thuis","address":"Kampweg 14","city":"Harderwijk","operatorName":"Laadnet","maxPowerKw":22,"isMegawatt":false,"status":"CHARGING","source":"ndw"}},{"type":"Feature","geometry":{"type":"Point","coordinates":[5.616054,52.349924]},"properties":{"type":"charge","layer":"passenger","locationId":"NLLOC001639","name":"NLD, Harderwijk, Fraterhuishof 7","address":"Fraterhuishof 7","city":"Harderwijk","operatorName":"Allego","maxPowerKw":0,"isMegawatt":false,"status":"AVAILABLE","source":"ndw","priceKwh":0.511}},{"type":"Feature","geometry":{"type":"Point","coordinates":[5.621287,52.338766]},"properties":{"type":"charge","layer":"passenger","locationId":"NLLOC003955","name":"NL, Stationslaan 9, 3844GA, Harderwijk","address":"Stationslaan 9","city":"Harderwijk","operatorName":"Allego","maxPowerKw":0,"isMegawatt":false,"status":"AVAILABLE","source":"ndw","priceKwh":0.511}},{"type":"Feature","geometry":{"type":"Point","coordinates":[5.647136,52.362123]},"properties":{"type":"charge","layer":"passenger","locationId":"3B69F9B3-BA57-40C9-A0D3-181F1912B72E","name":"Eneco eMobility IQOUNT - Daltonstraat 22 - Harderwijk","address":"Daltonstraat 22","city":"Harderwijk","operatorName":"Eneco","maxPowerKw":22,"isMegawatt":false,"status":"AVAILABLE","source":"ndw","priceKwh":0.32}},{"type":"Feature","geometry":{"type":"Point","coordinates":[5.6343122,52.3356476]},"properties":{"type":"charge","layer":"passenger","locationId":"27164","name":"Jumbo 6355 Harderwijk Nassaulaan (PowerGo)","address":"Nassaulaan 10","city":"Harderwijk","operatorName":"PowerGo","maxPowerKw":0,"isMegawatt":false,"status":"AVAILABLE","source":"ndw"}},{"type":"Feature","geometry":{"type":"Point","coordinates":[5.63811,52.35989]},"properties":{"type":"charge","layer":"passenger","locationId":"4A0CED9E-0712-495D-9B9A-D1F971A5DFB2","name":"Eneco eMobility Broekhuis Carplus Harderwijk","address":"Einsteinstraat 2A","city":"Harderwijk","operatorName":"Eneco","maxPowerKw":11,"isMegawatt":false,"status":"AVAILABLE","source":"ndw","priceKwh":0.45}},{"type":"Feature","geometry":{"type":"Point","coordinates":[5.598846,52.325479]},"properties":{"type":"charge","layer":"passenger","locationId":"f1b8ab76-dbee-11ee-81ab-42010aa400b8","name":"NL, Tonselsedreef 60A, 3845 CT Harderwijk","address":"Tonselsedreef 60A","city":"Harderwijk","operatorName":"Allego","maxPowerKw":0,"isMegawatt":false,"status":"AVAILABLE","source":"ndw"}},{"type":"Feature","geometry":{"type":"Point","coordinates":[5.647,52.3355]},"properties":{"type":"charge","layer":"passenger","locationId":"1528090","name":"Laadnet RvB Infra Harderwijk BV","address":"Nobelstraat 18","city":"Harderwijk","operatorName":"Laadnet","maxPowerKw":22,"isMegawatt":false,"status":"UNAVAILABLE","source":"ndw"}},{"type":"Feature","geometry":{"type":"Point","coordinates":[5.616054,52.349924]},"properties":{"type":"charge","layer":"passenger","locationId":"7f4ab244-4d8b-11ec-8ff3-42010a840003","name":"NLD, Harderwijk, Fraterhuishof 7","address":"Fraterhuishof 7","city":"Harderwijk","operatorName":"Allego","maxPowerKw":0,"isMegawatt":false,"status":"CHARGING","source":"ndw"}},{"type":"Feature","geometry":{"type":"Point","coordinates":[5.643231,52.360467]},"properties":{"type":"charge","layer":"passenger","locationId":"4271857","name":"Laadnet Bouwman Groep","address":"Fahrenheitstraat 18-20","city":"Harderwijk","operatorName":"Laadnet","maxPowerKw":22,"isMegawatt":false,"status":"AVAILABLE","source":"ndw"}},{"type":"Feature","geometry":{"type":"Point","coordinates":[5.625477,52.349742]},"properties":{"type":"charge","layer":"passenger","locationId":"7a82c338-4f3c-11e8-b494-42010a840002","name":"NLD, Harderwijk, Eibert den Herderstraat 31","address":"Eibert den Herderstraat 31","city":"Harderwijk","operatorName":"Allego","maxPowerKw":0,"isMegawatt":false,"status":"AVAILABLE","source":"ndw"}},{"type":"Feature","geometry":{"type":"Point","coordinates":[5.604736,52.336001]},"properties":{"type":"charge","layer":"passenger","locationId":"a6f73f2c-73a5-11ea-a711-42010a840003","name":"NL, Blokzijlmeen 21, 3844 HB, Harderwijk","address":"Blokzijlmeen 21","city":"Harderwijk","operatorName":"Allego","maxPowerKw":0,"isMegawatt":false,"status":"AVAILABLE","source":"ndw"}},{"type":"Feature","geometry":{"type":"Point","coordinates":[5.60067,52.324565]},"properties":{"type":"charge","layer":"passenger","locationId":"194aa476-d4e9-11e9-a46f-42010a840003","name":"NLD, Horsterhout 17 3845DW Harderwijk","address":"Horsterhout 17","city":"Harderwijk","operatorName":"Allego","maxPowerKw":0,"isMegawatt":false,"status":"AVAILABLE","source":"ndw"}},{"type":"Feature","geometry":{"type":"Point","coordinates":[5.603851,52.324283]},"properties":{"type":"charge","layer":"passenger","locationId":"537eb696-4163-11ea-922b-42010a840003","name":"NL, Tonnenbergerhout 2, 3845HD, Harderwijk","address":"Tonnenbergerhout 2","city":"Harderwijk","operatorName":"Allego","maxPowerKw":0,"isMegawatt":false,"status":"AVAILABLE","source":"ndw"}},{"type":"Feature","geometry":{"type":"Point","coordinates":[5.622427,52.347589]},"properties":{"type":"charge","layer":"passenger","locationId":"2f75312a-ec48-11ec-947a-42010aa40fc0","name":"NL, Selhorstweg 2, 3841 GL Harderwijk","address":"Selhorstweg 2","city":"Harderwijk","operatorName":"Allego","maxPowerKw":0,"isMegawatt":false,"status":"AVAILABLE","source":"ndw"}},{"type":"Feature","geometry":{"type":"Point","coordinates":[5.598459,52.324059]},"properties":{"type":"charge","layer":"passenger","locationId":"39ac9742-67dd-11ef-9609-42010aa400b8","name":"NLD, Gemeente Harderwijk, Vosbergerhout 39 3845EN Harderwijk","address":"Vosbergerhout 39","city":"Harderwijk","operatorName":"Allego","maxPowerKw":0,"isMegawatt":false,"status":"AVAILABLE","source":"ndw"}},{"type":"Feature","geometry":{"type":"Point","coordinates":[5.606779,52.333189]},"properties":{"type":"charge","layer":"passenger","locationId":"4d4500ca-b57a-11e9-afca-42010a840003","name":"NLD Zeggemeen 88 3844 RP Harderwijk","address":"Zeggemeen 80","city":"Harderwijk","operatorName":"Allego","maxPowerKw":0,"isMegawatt":false,"status":"CHARGING","source":"ndw"}},{"type":"Feature","geometry":{"type":"Point","coordinates":[5.62547,52.352003]},"properties":{"type":"charge","layer":"passenger","locationId":"57fb1e8c-4f3c-11e8-8c64-42010a840002","name":"NLD, Harderwijk, Havendijk 9","address":"Havendijk 9","city":"Harderwijk","operatorName":"Allego","maxPowerKw":0,"isMegawatt":false,"status":"CHARGING","source":"ndw"}},{"type":"Feature","geometry":{"type":"Point","coordinates":[5.641929,52.337158]},"properties":{"type":"charge","layer":"passenger","locationId":"6893fe76-934a-11eb-a4e6-42010a840003","name":"NL, De Savornin Lohmanlaan 27, 3843 VA Harderwijk","address":"De Savornin Lohmanlaan 27","city":"Harderwijk","operatorName":"Allego","maxPowerKw":0,"isMegawatt":false,"status":"AVAILABLE","source":"ndw"}},{"type":"Feature","geometry":{"type":"Point","coordinates":[5.622652,52.356476]},"properties":{"type":"charge","layer":"passenger","locationId":"8afadaf113ec4011a3eb","name":" Koopmans Bouw B.V. Kop Stadswerven Waterfront te Harderwijk","address":"Waterstadboulevard 1 BIJ (Koopmans 4779)","city":"Harderwijk","operatorName":"","maxPowerKw":11,"isMegawatt":false,"status":"UNAVAILABLE","source":"ndw","priceKwh":0.53}},{"type":"Feature","geometry":{"type":"Point","coordinates":[5.59392,52.32704]},"properties":{"type":"charge","layer":"passenger","locationId":"7a91950c-4f3c-11e8-bd14-42010a840002","name":"NLD, Harderwijk, Saxofoondreef 1","address":"Saxofoondreef 1","city":"Harderwijk","operatorName":"Allego","maxPowerKw":0,"isMegawatt":false,"status":"AVAILABLE","source":"ndw"}},{"type":"Feature","geometry":{"type":"Point","coordinates":[5.606126,52.327993]},"properties":{"type":"charge","layer":"passenger","locationId":"7bce74bc-4f3c-11e8-babf-42010a840002","name":"NLD, Harderwijk, Bachdreef 52","address":"Bachdreef 52","city":"Harderwijk","operatorName":"Allego","maxPowerKw":0,"isMegawatt":false,"status":"AVAILABLE","source":"ndw"}},{"type":"Feature","geometry":{"type":"Point","coordinates":[5.689907,52.35081]},"properties":{"type":"charge","layer":"passenger","locationId":"4327311","name":"Laadnet Biesteweg","address":"Biesteweg 1","city":"Hierden","operatorName":"Laadnet","maxPowerKw":11,"isMegawatt":false,"status":"AVAILABLE","source":"ndw"}},{"type":"Feature","geometry":{"type":"Point","coordinates":[5.605027,52.322336]},"properties":{"type":"charge","layer":"passenger","locationId":"31bacf5a-18ad-11eb-92e1-42010a840033","name":"NL, Bakenberghout 61, 3845 HW, Harderwijk","address":"Bakenbergerhout 61","city":"Harderwijk","operatorName":"Allego","maxPowerKw":0,"isMegawatt":false,"status":"AVAILABLE","source":"ndw"}},{"type":"Feature","geometry":{"type":"Point","coordinates":[5.610724,52.334905]},"properties":{"type":"charge","layer":"passenger","locationId":"40f6328c-9930-11e9-8f0a-42010a840003","name":"NLD Klavermeen 46 3844 PS Harderwijk","address":"Klavermeen 46","city":"Harderwijk","operatorName":"Allego","maxPowerKw":0,"isMegawatt":false,"status":"AVAILABLE","source":"ndw"}},{"type":"Feature","geometry":{"type":"Point","coordinates":[5.620513,52.34042]},"properties":{"type":"charge","layer":"passenger","locationId":"7a98b9ae-4f3c-11e8-96a3-42010a840002","name":"NLD, Harderwijk, Stationslaan 43","address":"Stationslaan 43","city":"Harderwijk","operatorName":"Allego","maxPowerKw":0,"isMegawatt":false,"status":"AVAILABLE","source":"ndw"}},{"type":"Feature","geometry":{"type":"Point","coordinates":[5.627035,52.331114]},"properties":{"type":"charge","layer":"passenger","locationId":"a37ede56-efa0-11e9-841a-42010a840003","name":"NLD, Harderwijk, Berkenlaan 7","address":"Berkenlaan 7","city":"Harderwijk","operatorName":"Allego","maxPowerKw":0,"isMegawatt":false,"status":"AVAILABLE","source":"ndw"}},{"type":"Feature","geometry":{"type":"Point","coordinates":[5.621287,52.338766]},"properties":{"type":"charge","layer":"passenger","locationId":"4446dfbc-6df8-11e9-9244-42010a840003","name":"NL, Stationslaan 9, 3844GA, Harderwijk","address":"Stationslaan 9","city":"Harderwijk","operatorName":"Allego","maxPowerKw":0,"isMegawatt":false,"status":"AVAILABLE","source":"ndw"}},{"type":"Feature","geometry":{"type":"Point","coordinates":[5.632185,52.352632]},"properties":{"type":"charge","layer":"passenger","locationId":"515cc360-2ac6-11eb-9f27-42010a840003","name":"NL, Havenspoor, 163, 3841KZ, Harderwijk","address":"Havenspoor 163","city":"Harderwijk","operatorName":"Allego","maxPowerKw":0,"isMegawatt":false,"status":"CHARGING","source":"ndw"}},{"type":"Feature","geometry":{"type":"Point","coordinates":[5.618143,52.347853]},"properties":{"type":"charge","layer":"passenger","locationId":"7a8a32b2-4f3c-11e8-9db6-42010a840002","name":"NLD, Harderwijk, Klooster 1","address":"Klooster 1","city":"Harderwijk","operatorName":"Allego","maxPowerKw":0,"isMegawatt":false,"status":"AVAILABLE","source":"ndw"}},{"type":"Feature","geometry":{"type":"Point","coordinates":[5.628681,52.352077]},"properties":{"type":"charge","layer":"passenger","locationId":"9b65918c-7053-11e9-aa39-42010a840003","name":"NLD, Ir. Lelystraat 16 3841 JW Harderwijk","address":"Ir. Lelystraat 16","city":"Harderwijk","operatorName":"Allego","maxPowerKw":0,"isMegawatt":false,"status":"AVAILABLE","source":"ndw"}},{"type":"Feature","geometry":{"type":"Point","coordinates":[5.635145,52.344196]},"properties":{"type":"charge","layer":"passenger","locationId":"b0b74d56-6c65-11e9-84ad-42010a840003","name":"NLD Alberdingk Thijmlaan 244 3842 ZJ Harderwijk","address":"Alberdingk Thijmlaan 244","city":"Harderwijk","operatorName":"Allego","maxPowerKw":0,"isMegawatt":false,"status":"AVAILABLE","source":"ndw"}},{"type":"Feature","geometry":{"type":"Point","coordinates":[5.59699,52.323028]},"properties":{"type":"charge","layer":"passenger","locationId":"e3321406-d0cf-11ec-af12-42010a840003","name":"NL, Salentijnerhout 24, 3845 EV Harderwijk","address":"Salentijnerhout 24","city":"Harderwijk","operatorName":"Allego","maxPowerKw":0,"isMegawatt":false,"status":"AVAILABLE","source":"ndw"}},{"type":"Feature","geometry":{"type":"Point","coordinates":[5.636924,52.347858]},"properties":{"type":"charge","layer":"passenger","locationId":"3d38a2a0-10aa-11ea-9935-42010a840003","name":"NLD Queridostraat 28 3842 CE Harderwijk","address":"Queridostraat 28","city":"Harderwijk","operatorName":"Allego","maxPowerKw":0,"isMegawatt":false,"status":"AVAILABLE","source":"ndw"}},{"type":"Feature","geometry":{"type":"Point","coordinates":[5.648997,52.342709]},"properties":{"type":"charge","layer":"passenger","locationId":"444fc9ce-6df8-11e9-9197-42010a840003","name":"NLD, Hoenderkamp 41 3848 AS Harderwijk","address":"Hoenderkamp 41","city":"Harderwijk","operatorName":"Allego","maxPowerKw":0,"isMegawatt":false,"status":"AVAILABLE","source":"ndw"}},{"type":"Feature","geometry":{"type":"Point","coordinates":[5.651124,52.343273]},"properties":{"type":"charge","layer":"passenger","locationId":"51681a26-2ac6-11eb-be95-42010a840003","name":"NL, Nieuwe Grensweg 66, 3848BR, Harderwijk","address":"Nieuwe Grensweg 66","city":"Harderwijk","operatorName":"Allego","maxPowerKw":0,"isMegawatt":false,"status":"AVAILABLE","source":"ndw"}},{"type":"Feature","geometry":{"type":"Point","coordinates":[5.622695,52.358765]},"properties":{"type":"charge","layer":"passenger","locationId":"547f3610-4163-11ea-9a25-42010a840003","name":"NL, Noorderhoofd 37, 3846JV, Harderwijk","address":"Noorderhoofd 37","city":"Harderwijk","operatorName":"Allego","maxPowerKw":0,"isMegawatt":false,"status":"AVAILABLE","source":"ndw"}},{"type":"Feature","geometry":{"type":"Point","coordinates":[5.647121,52.345319]},"properties":{"type":"charge","layer":"passenger","locationId":"86c158c6-c11b-11ec-a48c-42010a840003","name":"NL, Vondellaan 454, 3848BH, Harderwijk","address":"Vondellaan 454","city":"Harderwijk","operatorName":"Allego","maxPowerKw":0,"isMegawatt":false,"status":"AVAILABLE","source":"ndw"}},{"type":"Feature","geometry":{"type":"Point","coordinates":[5.586994,52.324073]},"properties":{"type":"charge","layer":"passenger","locationId":"28ddc61c-267b-11ec-b2ee-42010a840003","name":"NL, Korenbloemdreef 25, 3845 KL Harderwijk","address":"Korenbloemdreef 25","city":"Harderwijk","operatorName":"Allego","maxPowerKw":0,"isMegawatt":false,"status":"AVAILABLE","source":"ndw"}},{"type":"Feature","geometry":{"type":"Point","coordinates":[5.587597,52.325355]},"properties":{"type":"charge","layer":"passenger","locationId":"ad8d5d6e-c1e4-11ec-9a2d-42010a840003","name":"NL, Madeliefdreef 21, 3845KN, Harderwijk","address":"Madeliefdreef 21","city":"Harderwijk","operatorName":"Allego","maxPowerKw":0,"isMegawatt":false,"status":"AVAILABLE","source":"ndw"}},{"type":"Feature","geometry":{"type":"Point","coordinates":[5.642898,52.344818]},"properties":{"type":"charge","layer":"passenger","locationId":"bf1eb9a8-185d-11e9-8905-42010a840003","name":"NLD, Anne Franklaan 8, 3842 GW, Harderwijk","address":"Anne Franklaan 8","city":"Harderwijk","operatorName":"Allego","maxPowerKw":0,"isMegawatt":false,"status":"AVAILABLE","source":"ndw"}},{"type":"Feature","geometry":{"type":"Point","coordinates":[5.607901,52.338308]},"properties":{"type":"charge","layer":"passenger","locationId":"1937ca7c-d4e9-11e9-9cc8-42010a840003","name":"NLD, Kajuitmeen 15 3844KB Harderwijk","address":"Kajuitmeen 15","city":"Harderwijk","operatorName":"Allego","maxPowerKw":0,"isMegawatt":false,"status":"AVAILABLE","source":"ndw"}},{"type":"Feature","geometry":{"type":"Point","coordinates":[5.601372,52.323365]},"properties":{"type":"charge","layer":"passenger","locationId":"f7c20c4a-e147-11ec-9769-42010aa40fc0","name":"NL, Tonselsedreef 124, 3845 DT Harderwijk","address":"Tonselsedreef 124","city":"Harderwijk","operatorName":"Allego","maxPowerKw":0,"isMegawatt":false,"status":"AVAILABLE","source":"ndw"}},{"type":"Feature","geometry":{"type":"Point","coordinates":[5.604209,52.320417]},"properties":{"type":"charge","layer":"passenger","locationId":"7a6c5012-4f3c-11e8-8b17-42010a840002","name":"NL, Stakenbergerhout 98, 3845 JG Harderwijk laadpaal 2","address":"Stakenbergerhout 98","city":"Harderwijk","operatorName":"Allego","maxPowerKw":0,"isMegawatt":false,"status":"AVAILABLE","source":"ndw"}},{"type":"Feature","geometry":{"type":"Point","coordinates":[5.598053,52.334916]},"properties":{"type":"charge","layer":"passenger","locationId":"da7d9858-5b1b-11e9-a73c-42010a840003","name":"NLD Gemeente Harderwijk Rietgorsmeen 101 3844 ZN Harderwijk","address":"Rietgorsmeen 101","city":"Harderwijk","operatorName":"Allego","maxPowerKw":0,"isMegawatt":false,"status":"AVAILABLE","source":"ndw"}},{"type":"Feature","geometry":{"type":"Point","coordinates":[5.610527,52.339755]},"properties":{"type":"charge","layer":"passenger","locationId":"6acfd4f6-c7b4-11ea-bd75-42010a840003","name":"NL, Westrak 83, 3844LE, Harderwijk","address":"Westrak 83","city":"Harderwijk","operatorName":"Allego","maxPowerKw":0,"isMegawatt":false,"status":"AVAILABLE","source":"ndw"}},{"type":"Feature","geometry":{"type":"Point","coordinates":[5.599043,52.327041]},"properties":{"type":"charge","layer":"passenger","locationId":"7a5d8f50-4f3c-11e8-9f55-42010a840002","name":"NLD, Harderwijk, Bazuinpad 1","address":"Bazuinpad 1","city":"Harderwijk","operatorName":"Allego","maxPowerKw":0,"isMegawatt":false,"status":"AVAILABLE","source":"ndw"}},{"type":"Feature","geometry":{"type":"Point","coordinates":[5.632901,52.341002]},"properties":{"type":"charge","layer":"passenger","locationId":"e460746a-6d2e-11e9-abcf-42010a840003","name":"NLD Gemeente Harderwijk Van Maerlantlaan 11 3842 JA Harderwijk","address":"Van Maerlantlaan 11","city":"Harderwijk","operatorName":"Allego","maxPowerKw":0,"isMegawatt":false,"status":"AVAILABLE","source":"ndw"}},{"type":"Feature","geometry":{"type":"Point","coordinates":[5.630153,52.347474]},"properties":{"type":"charge","layer":"passenger","locationId":"67d7e13e1cc48abea93db531","name":"HdeMan","address":"Herman de Manstraat 2","city":"Harderwijk","operatorName":"E-Flux by Road","maxPowerKw":22,"isMegawatt":false,"status":"AVAILABLE","source":"ndw","priceKwh":0.34}},{"type":"Feature","geometry":{"type":"Point","coordinates":[5.626949,52.338051]},"properties":{"type":"charge","layer":"passenger","locationId":"615bf79c-f8db-11ec-956e-42010aa40fc0","name":"NL, Graaf Ottolaan 22, 3843 AM Harderwijk","address":"Graaf Ottolaan 22","city":"Harderwijk","operatorName":"Allego","maxPowerKw":0,"isMegawatt":false,"status":"AVAILABLE","source":"ndw"}},{"type":"Feature","geometry":{"type":"Point","coordinates":[5.630908,52.349403]},"properties":{"type":"charge","layer":"passenger","locationId":"7aa01a3c-4f3c-11e8-9e62-42010a840002","name":"NLD, Harderwijk, Ingenieur P. Calandstraat 22","address":"Ingenieur P. Calandstraat 22","city":"Harderwijk","operatorName":"Allego","maxPowerKw":0,"isMegawatt":false,"status":"AVAILABLE","source":"ndw"}},{"type":"Feature","geometry":{"type":"Point","coordinates":[5.645311,52.361589]},"properties":{"type":"charge","layer":"passenger","locationId":"923176","name":"Outlet122_DAE_NL_2000923","address":"Fahrenheitstraat 23","city":"Harderwijk","operatorName":"DAEN Mobility","maxPowerKw":11,"isMegawatt":false,"status":"AVAILABLE","source":"ndw","priceKwh":0.4}},{"type":"Feature","geometry":{"type":"Point","coordinates":[5.604535,52.326261]},"properties":{"type":"charge","layer":"passenger","locationId":"7a7b0b5c-4f3c-11e8-b8b3-42010a840002","name":"NLD, Harderwijk, Musicaldreef 114","address":"Musicaldreef 114","city":"Harderwijk","operatorName":"Allego","maxPowerKw":0,"isMegawatt":false,"status":"AVAILABLE","source":"ndw"}},{"type":"Feature","geometry":{"type":"Point","coordinates":[5.678162,52.358913]},"properties":{"type":"charge","layer":"passenger","locationId":"e7ef60e4-3aaa-11ed-b35a-42010aa40fc0","name":"NL, Wouterskampen 52, 3849 BC Hierden","address":"Wouterskampen 52","city":"Hierden","operatorName":"Allego","maxPowerKw":0,"isMegawatt":false,"status":"AVAILABLE","source":"ndw"}},{"type":"Feature","geometry":{"type":"Point","coordinates":[5.625007,52.332923]},"properties":{"type":"charge","layer":"passenger","locationId":"1432ce78-9e4b-11eb-b070-42010a840003","name":"NL, Kranenburglaan 50, 3843 BS Harderwijk","address":"Kranenburglaan 50","city":"Harderwijk","operatorName":"Allego","maxPowerKw":0,"isMegawatt":false,"status":"CHARGING","source":"ndw"}},{"type":"Feature","geometry":{"type":"Point","coordinates":[5.60607,52.325482]},"properties":{"type":"charge","layer":"passenger","locationId":"632076c321274084a01862fe","name":"Marco Freriks 's station","address":"Operadreef 70","city":"Harderwijk","operatorName":"E-Flux by Road","maxPowerKw":22,"isMegawatt":false,"status":"UNAVAILABLE","source":"ndw","priceKwh":0.505}},{"type":"Feature","geometry":{"type":"Point","coordinates":[5.641477,52.331366]},"properties":{"type":"charge","layer":"passenger","locationId":"69afbdd5a59b7c858b2efee1","name":"Van der Valk - Harderwijk - Charging Stations","address":"Leuvenumseweg 7","city":"Harderwijk","operatorName":"Valk Energy","maxPowerKw":11,"isMegawatt":false,"status":"AVAILABLE","source":"ndw","priceKwh":0.62}},{"type":"Feature","geometry":{"type":"Point","coordinates":[5.63708,52.339465]},"properties":{"type":"charge","layer":"passenger","locationId":"5fe338d0-f8db-11ec-be14-42010aa40fc0","name":"NL, Admiraalshof 11, 3843 HD Harderwijk","address":"Admiraalshof 11","city":"Harderwijk","operatorName":"Allego","maxPowerKw":0,"isMegawatt":false,"status":"AVAILABLE","source":"ndw"}},{"type":"Feature","geometry":{"type":"Point","coordinates":[5.62377,52.350855]},"properties":{"type":"charge","layer":"passenger","locationId":"b070244e-6c65-11e9-a252-42010a840003","name":"NLD, Gemeente Harderwijk, Scheepssingel 2 3841KS Harderwijk","address":"Scheepssingel 2","city":"Harderwijk","operatorName":"Allego","maxPowerKw":0,"isMegawatt":false,"status":"AVAILABLE","source":"ndw"}},{"type":"Feature","geometry":{"type":"Point","coordinates":[5.596631,52.326595]},"properties":{"type":"charge","layer":"passenger","locationId":"e7a30374-4f3c-11e8-90d8-42010a840002","name":"NLD, Harderwijk, Klarinetdreef 1","address":"Klarinetdreef 1","city":"Harderwijk","operatorName":"Allego","maxPowerKw":0,"isMegawatt":false,"status":"AVAILABLE","source":"ndw"}},{"type":"Feature","geometry":{"type":"Point","coordinates":[5.615479,52.348888]},"properties":{"type":"charge","layer":"passenger","locationId":"6adb8ddc-c7b4-11ea-a524-42010a840003","name":"NL, Kerkplein 3, 3841 EC, Harderwijk","address":"Kerkplein 3","city":"Harderwijk","operatorName":"Allego","maxPowerKw":0,"isMegawatt":false,"status":"AVAILABLE","source":"ndw"}},{"type":"Feature","geometry":{"type":"Point","coordinates":[5.603598,52.328248]},"properties":{"type":"charge","layer":"passenger","locationId":"f148160e-dbee-11ee-ad95-42010aa400b8","name":"NL, Straussdreef 33, 3845 AT Harderwijk","address":"Straussdreef 33","city":"Harderwijk","operatorName":"Allego","maxPowerKw":0,"isMegawatt":false,"status":"CHARGING","source":"ndw"}},{"type":"Feature","geometry":{"type":"Point","coordinates":[5.623323,52.357824]},"properties":{"type":"charge","layer":"passenger","locationId":"697b6f437273133c5938e130","name":"Harderwijk/ Noorderhoofd 37","address":"Noorderhoofd 37","city":"Harderwijk","operatorName":"E-Flux by Road","maxPowerKw":14,"isMegawatt":false,"status":"AVAILABLE","source":"ndw","priceKwh":0.5217}},{"type":"Feature","geometry":{"type":"Point","coordinates":[5.625007,52.332923]},"properties":{"type":"charge","layer":"passenger","locationId":"NLLOC013816","name":"NL, Kranenburglaan 50, 3843 BS Harderwijk","address":"Kranenburglaan 50","city":"Harderwijk","operatorName":"Allego","maxPowerKw":0,"isMegawatt":false,"status":"AVAILABLE","source":"ndw","priceKwh":0.511}},{"type":"Feature","geometry":{"type":"Point","coordinates":[5.622695,52.358765]},"properties":{"type":"charge","layer":"passenger","locationId":"NLLOC007720","name":"NL, Noorderhoofd 37, 3846JV, Harderwijk","address":"Noorderhoofd 37","city":"Harderwijk","operatorName":"Allego","maxPowerKw":0,"isMegawatt":false,"status":"AVAILABLE","source":"ndw","priceKwh":0.511}},{"type":"Feature","geometry":{"type":"Point","coordinates":[5.618708,52.341853]},"properties":{"type":"charge","layer":"passenger","locationId":"NLLOC017490","name":"NL, Sint Janshof 41, 3844GE, Harderwijk","address":"Sint Janshof 41","city":"Harderwijk","operatorName":"Allego","maxPowerKw":0,"isMegawatt":false,"status":"AVAILABLE","source":"ndw","priceKwh":0.511}},{"type":"Feature","geometry":{"type":"Point","coordinates":[5.621307,52.357618]},"properties":{"type":"charge","layer":"passenger","locationId":"6981f778ea24b308d3e028c5","name":"Harderwijk/ Langezand 1","address":"Langezand 1","city":"Harderwijk","operatorName":"E-Flux by Road","maxPowerKw":14,"isMegawatt":false,"status":"CHARGING","source":"ndw","priceKwh":0.5217}},{"type":"Feature","geometry":{"type":"Point","coordinates":[5.687829,52.345572]},"properties":{"type":"charge","layer":"passenger","locationId":"64e5fb1b0701ad001cb20ec0","name":"De Berekuyl 's station","address":"Reighershofweg  5","city":"Hierden","operatorName":"E-Flux by Road","maxPowerKw":22,"isMegawatt":false,"status":"AVAILABLE","source":"ndw","priceKwh":0.66}},{"type":"Feature","geometry":{"type":"Point","coordinates":[5.62547,52.352003]},"properties":{"type":"charge","layer":"passenger","locationId":"NLLOC002171","name":"NLD, Harderwijk, Havendijk 9","address":"Havendijk 9","city":"Harderwijk","operatorName":"Allego","maxPowerKw":0,"isMegawatt":false,"status":"AVAILABLE","source":"ndw","priceKwh":0.511}},{"type":"Feature","geometry":{"type":"Point","coordinates":[5.631992,52.33782]},"properties":{"type":"charge","layer":"passenger","locationId":"61c98af79175b52a8d27c71c","name":"California1 (1)","address":"Deventerweg 2A","city":"Harderwijk","operatorName":"E-Flux by Road","maxPowerKw":22,"isMegawatt":false,"status":"AVAILABLE","source":"ndw","priceKwh":0.43}},{"type":"Feature","geometry":{"type":"Point","coordinates":[5.604209,52.320417]},"properties":{"type":"charge","layer":"passenger","locationId":"NLLOC001367","name":"NL, Stakenbergerhout 98, 3845 JG Harderwijk laadpaal 2","address":"Stakenbergerhout 98","city":"Harderwijk","operatorName":"Allego","maxPowerKw":0,"isMegawatt":false,"status":"AVAILABLE","source":"ndw","priceKwh":0.511}},{"type":"Feature","geometry":{"type":"Point","coordinates":[5.633704,52.352147]},"properties":{"type":"charge","layer":"passenger","locationId":"69834ca2e610730c5edad382","name":"Praxis Harderwijk","address":"Knardijk West 12","city":"Harderwijk","operatorName":"Alva Charging Services","maxPowerKw":22,"isMegawatt":false,"status":"AVAILABLE","source":"ndw","priceKwh":0.54}},{"type":"Feature","geometry":{"type":"Point","coordinates":[5.598053,52.334916]},"properties":{"type":"charge","layer":"passenger","locationId":"NLLOC003737","name":"NLD Gemeente Harderwijk Rietgorsmeen 101 3844 ZN Harderwijk","address":"Rietgorsmeen 101","city":"Harderwijk","operatorName":"Allego","maxPowerKw":0,"isMegawatt":false,"status":"AVAILABLE","source":"ndw","priceKwh":0.511}},{"type":"Feature","geometry":{"type":"Point","coordinates":[5.61531,52.32599]},"properties":{"type":"charge","layer":"passenger","locationId":"B49B27C0-7AA6-4EE8-B5AE-9438E2031852","name":"Eneco eMobility Bochane Harderwijk","address":"Zuiderbreedte 6","city":"Harderwijk","operatorName":"Eneco","maxPowerKw":22,"isMegawatt":false,"status":"UNAVAILABLE","source":"ndw","priceKwh":0.36}},{"type":"Feature","geometry":{"type":"Point","coordinates":[5.659161,52.357457]},"properties":{"type":"charge","layer":"passenger","locationId":"3763902","name":"Laadnet TAP Beheer","address":"Wattstraat 3","city":"Harderwijk","operatorName":"Laadnet","maxPowerKw":22,"isMegawatt":false,"status":"AVAILABLE","source":"ndw"}},{"type":"Feature","geometry":{"type":"Point","coordinates":[5.619032,52.354065]},"properties":{"type":"charge","layer":"passenger","locationId":"69cbb226d6beab30ba71dcef","name":"Dolfinarium","address":"Zuiderzeeboulevard 22","city":"Harderwijk","operatorName":"E-Flux by Road","maxPowerKw":11,"isMegawatt":false,"status":"AVAILABLE","source":"ndw","priceKwh":0.53}},{"type":"Feature","geometry":{"type":"Point","coordinates":[5.631277,52.3385]},"properties":{"type":"charge","layer":"passenger","locationId":"6750ac5b1a8c7a324f9565f9","name":"Sani4all Harderwijk","address":"Hertog Reinoudlaan 2","city":"Harderwijk","operatorName":"E-Flux by Road","maxPowerKw":11,"isMegawatt":false,"status":"AVAILABLE","source":"ndw","priceKwh":0.3}},{"type":"Feature","geometry":{"type":"Point","coordinates":[5.607901,52.338308]},"properties":{"type":"charge","layer":"passenger","locationId":"NLLOC004817","name":"NLD, Kajuitmeen 15 3844KB Harderwijk","address":"Kajuitmeen 15","city":"Harderwijk","operatorName":"Allego","maxPowerKw":0,"isMegawatt":false,"status":"AVAILABLE","source":"ndw","priceKwh":0.511}},{"type":"Feature","geometry":{"type":"Point","coordinates":[5.602865,52.333459]},"properties":{"type":"charge","layer":"passenger","locationId":"NLLOC001370","name":"NLD, Harderwijk, Gruttomeen 2","address":"Gruttomeen 2","city":"Harderwijk","operatorName":"Allego","maxPowerKw":0,"isMegawatt":false,"status":"AVAILABLE","source":"ndw","priceKwh":0.511}},{"type":"Feature","geometry":{"type":"Point","coordinates":[5.64494,52.3606]},"properties":{"type":"charge","layer":"passenger","locationId":"D4A5ED65-555A-4969-A8B8-0933071E8C9E","name":"Eneco eMobility Broekhuis Autoschade Harderwijk","address":"Fahrenheitstraat 30","city":"Harderwijk","operatorName":"Eneco","maxPowerKw":22,"isMegawatt":false,"status":"AVAILABLE","source":"ndw","priceKwh":0.32}},{"type":"Feature","geometry":{"type":"Point","coordinates":[5.62377,52.350855]},"properties":{"type":"charge","layer":"passenger","locationId":"NLLOC003913","name":"NLD, Gemeente Harderwijk, Scheepssingel 2 3841KS Harderwijk","address":"Scheepssingel 2","city":"Harderwijk","operatorName":"Allego","maxPowerKw":0,"isMegawatt":false,"status":"AVAILABLE","source":"ndw","priceKwh":0.511}},{"type":"Feature","geometry":{"type":"Point","coordinates":[5.636436,52.338831]},"properties":{"type":"charge","layer":"passenger","locationId":"697b6b59feda4f0c48dd2683","name":"Harderwijk/ Van Galenlaan 30","address":"Van Galenlaan 30","city":"Harderwijk","operatorName":"E-Flux by Road","maxPowerKw":14,"isMegawatt":false,"status":"AVAILABLE","source":"ndw","priceKwh":0.5217}},{"type":"Feature","geometry":{"type":"Point","coordinates":[5.620513,52.34042]},"properties":{"type":"charge","layer":"passenger","locationId":"NLLOC001371","name":"NLD, Harderwijk, Stationslaan 43","address":"Stationslaan 43","city":"Harderwijk","operatorName":"Allego","maxPowerKw":0,"isMegawatt":false,"status":"AVAILABLE","source":"ndw","priceKwh":0.511}},{"type":"Feature","geometry":{"type":"Point","coordinates":[5.597265,52.330969]},"properties":{"type":"charge","layer":"passenger","locationId":"67e6c2567c61f4307cfaf738","name":"Tollies Power","address":"Bluesdreef 4","city":"Harderwijk","operatorName":"E-Flux by Road","maxPowerKw":11,"isMegawatt":false,"status":"AVAILABLE","source":"ndw","priceKwh":0.53}},{"type":"Feature","geometry":{"type":"Point","coordinates":[5.614733,52.347834]},"properties":{"type":"charge","layer":"passenger","locationId":"NLLOC017933","name":"NL, Plantage 18, 3841 EL Harderwijk","address":"Plantage 18","city":"Harderwijk","operatorName":"Allego","maxPowerKw":0,"isMegawatt":false,"status":"AVAILABLE","source":"ndw","priceKwh":0.511}},{"type":"Feature","geometry":{"type":"Point","coordinates":[5.675057,52.356616]},"properties":{"type":"charge","layer":"passenger","locationId":"4750806","name":"Laadnet Ooster Mheenweg","address":"Ooster Mheenweg 3","city":"Hierden","operatorName":"Laadnet","maxPowerKw":22,"isMegawatt":false,"status":"AVAILABLE","source":"ndw"}},{"type":"Feature","geometry":{"type":"Point","coordinates":[5.622163,52.34942]},"properties":{"type":"charge","layer":"passenger","locationId":"NLLOC016883","name":"NL, Waltorenstraat 3, 3841 KN Harderwijk","address":"Waltorenstraat 3","city":"Harderwijk","operatorName":"Allego","maxPowerKw":0,"isMegawatt":false,"status":"AVAILABLE","source":"ndw","priceKwh":0.511}},{"type":"Feature","geometry":{"type":"Point","coordinates":[5.645311,52.361589]},"properties":{"type":"charge","layer":"passenger","locationId":"923179","name":"Outlet119_DAE_NL_2000919","address":"Fahrenheitstraat 23","city":"Harderwijk","operatorName":"DAEN Mobility","maxPowerKw":11,"isMegawatt":false,"status":"AVAILABLE","source":"ndw","priceKwh":0.4}},{"type":"Feature","geometry":{"type":"Point","coordinates":[5.625477,52.349742]},"properties":{"type":"charge","layer":"passenger","locationId":"NLLOC001372","name":"NLD, Harderwijk, Eibert den Herderstraat 31","address":"Eibert den Herderstraat 31","city":"Harderwijk","operatorName":"Allego","maxPowerKw":0,"isMegawatt":false,"status":"AVAILABLE","source":"ndw","priceKwh":0.511}},{"type":"Feature","geometry":{"type":"Point","coordinates":[5.64379,52.363203]},"properties":{"type":"charge","layer":"passenger","locationId":"5983BDEF-8012-4C39-B891-2F485DDA2CCA","name":"Eneco eMobility Ploeger Logistics Holding B.V. - Harderwijk","address":"Daltonstraat 13","city":"Harderwijk","operatorName":"Eneco","maxPowerKw":11,"isMegawatt":false,"status":"AVAILABLE","source":"ndw","priceKwh":0.32}},{"type":"Feature","geometry":{"type":"Point","coordinates":[5.645311,52.361589]},"properties":{"type":"charge","layer":"passenger","locationId":"923175","name":"Outlet123_DAE_NL_2000924","address":"Fahrenheitstraat 23","city":"Harderwijk","operatorName":"DAEN Mobility","maxPowerKw":11,"isMegawatt":false,"status":"AVAILABLE","source":"ndw","priceKwh":0.4}},{"type":"Feature","geometry":{"type":"Point","coordinates":[5.642782,52.365157]},"properties":{"type":"charge","layer":"passenger","locationId":"6926d210f6457ad3af8544ea","name":"Belpa BV","address":"Nobelstraat 48","city":"Harderwijk","operatorName":"E-Flux by Road","maxPowerKw":22,"isMegawatt":false,"status":"AVAILABLE","source":"ndw","priceKwh":0.53}},{"type":"Feature","geometry":{"type":"Point","coordinates":[5.638429,52.354164]},"properties":{"type":"charge","layer":"passenger","locationId":"3968935","name":"Laadnet Maars Partitioning Systems BV","address":"Newtonweg 1","city":"Harderwijk","operatorName":"Laadnet","maxPowerKw":22,"isMegawatt":false,"status":"AVAILABLE","source":"ndw"}},{"type":"Feature","geometry":{"type":"Point","coordinates":[5.645311,52.361589]},"properties":{"type":"charge","layer":"passenger","locationId":"923178","name":"Outlet120_DAE_NL_2000920","address":"Fahrenheitstraat 23","city":"Harderwijk","operatorName":"DAEN Mobility","maxPowerKw":11,"isMegawatt":false,"status":"AVAILABLE","source":"ndw","priceKwh":0.4}},{"type":"Feature","geometry":{"type":"Point","coordinates":[5.605027,52.322336]},"properties":{"type":"charge","layer":"passenger","locationId":"NLLOC010433","name":"NL, Bakenberghout 61, 3845 HW, Harderwijk","address":"Bakenbergerhout 61","city":"Harderwijk","operatorName":"Allego","maxPowerKw":0,"isMegawatt":false,"status":"AVAILABLE","source":"ndw","priceKwh":0.511}},{"type":"Feature","geometry":{"type":"Point","coordinates":[5.642203,52.359926]},"properties":{"type":"charge","layer":"passenger","locationId":"FC4369D9-4B09-47BB-BBB1-920161D5FF7A","name":"Eneco eMobility Broekhuis Hyundai Harderwijk","address":"Snelliusstraat 2","city":"Harderwijk","operatorName":"Eneco","maxPowerKw":22,"isMegawatt":false,"status":"AVAILABLE","source":"ndw","priceKwh":0.45}},{"type":"Feature","geometry":{"type":"Point","coordinates":[5.606126,52.327993]},"properties":{"type":"charge","layer":"passenger","locationId":"NLLOC001536","name":"NLD, Harderwijk, Bachdreef 52","address":"Bachdreef 52","city":"Harderwijk","operatorName":"Allego","maxPowerKw":0,"isMegawatt":false,"status":"AVAILABLE","source":"ndw","priceKwh":0.511}},{"type":"Feature","geometry":{"type":"Point","coordinates":[5.631708,52.354788]},"properties":{"type":"charge","layer":"passenger","locationId":"60f04800330de719b6c2fc85","name":"Laadpaling Dries van den Berg & Zn.","address":"Stephensonstraat 2","city":"Harderwijk","operatorName":"E-Flux by Road","maxPowerKw":22,"isMegawatt":false,"status":"AVAILABLE","source":"ndw","priceKwh":0.53}},{"type":"Feature","geometry":{"type":"Point","coordinates":[5.610527,52.339755]},"properties":{"type":"charge","layer":"passenger","locationId":"NLLOC010311","name":"NL, Westrak 83, 3844LE, Harderwijk","address":"Westrak 83","city":"Harderwijk","operatorName":"Allego","maxPowerKw":0,"isMegawatt":false,"status":"AVAILABLE","source":"ndw","priceKwh":0.511}},{"type":"Feature","geometry":{"type":"Point","coordinates":[5.632611,52.328221]},"properties":{"type":"charge","layer":"passenger","locationId":"67e2a59fa4d9e8af25b4d394","name":"Het Verscholen Dorp","address":"Boslaan 2","city":"HARDERWIJK","operatorName":"PureCharged","maxPowerKw":11,"isMegawatt":false,"status":"AVAILABLE","source":"ndw","priceKwh":0.53}},{"type":"Feature","geometry":{"type":"Point","coordinates":[5.635145,52.344196]},"properties":{"type":"charge","layer":"passenger","locationId":"NLLOC003927","name":"NLD Alberdingk Thijmlaan 244 3842 ZJ Harderwijk","address":"Alberdingk Thijmlaan 244","city":"Harderwijk","operatorName":"Allego","maxPowerKw":0,"isMegawatt":false,"status":"AVAILABLE","source":"ndw","priceKwh":0.511}},{"type":"Feature","geometry":{"type":"Point","coordinates":[5.615479,52.348888]},"properties":{"type":"charge","layer":"passenger","locationId":"NLLOC008205","name":"NL, Kerkplein 3, 3841 EC, Harderwijk","address":"Kerkplein 3","city":"Harderwijk","operatorName":"Allego","maxPowerKw":0,"isMegawatt":false,"status":"AVAILABLE","source":"ndw","priceKwh":0.511}},{"type":"Feature","geometry":{"type":"Point","coordinates":[5.641929,52.337158]},"properties":{"type":"charge","layer":"passenger","locationId":"NLLOC011840","name":"NL, De Savornin Lohmanlaan 27, 3843 VA Harderwijk","address":"De Savornin Lohmanlaan 27","city":"Harderwijk","operatorName":"Allego","maxPowerKw":0,"isMegawatt":false,"status":"AVAILABLE","source":"ndw","priceKwh":0.511}},{"type":"Feature","geometry":{"type":"Point","coordinates":[5.604535,52.326261]},"properties":{"type":"charge","layer":"passenger","locationId":"NLLOC001368","name":"NLD, Harderwijk, Musicaldreef 114","address":"Musicaldreef 114","city":"Harderwijk","operatorName":"Allego","maxPowerKw":0,"isMegawatt":false,"status":"AVAILABLE","source":"ndw","priceKwh":0.511}},{"type":"Feature","geometry":{"type":"Point","coordinates":[5.636725,52.350227]},"properties":{"type":"charge","layer":"passenger","locationId":"3672816","name":"Laadnet Oosteinde 17 Harderwijk","address":"Oosteinde 17","city":"Harderwijk","operatorName":"Laadnet","maxPowerKw":22,"isMegawatt":false,"status":"AVAILABLE","source":"ndw"}},{"type":"Feature","geometry":{"type":"Point","coordinates":[5.615118,52.343841]},"properties":{"type":"charge","layer":"passenger","locationId":"63f4a2cd1e41b7001295e9a4","name":"Ziekenhuis St Jansdal P4 Laadpaal 1","address":"wethouderjansenlaan 90","city":"Harderwijk","operatorName":"E-Flux by Road","maxPowerKw":22,"isMegawatt":false,"status":"AVAILABLE","source":"ndw","priceKwh":0.61}},{"type":"Feature","geometry":{"type":"Point","coordinates":[5.622427,52.347589]},"properties":{"type":"charge","layer":"passenger","locationId":"NLLOC021760","name":"NL, Selhorstweg 2, 3841 GL Harderwijk","address":"Selhorstweg 2","city":"Harderwijk","operatorName":"Allego","maxPowerKw":0,"isMegawatt":false,"status":"AVAILABLE","source":"ndw","priceKwh":0.511}},{"type":"Feature","geometry":{"type":"Point","coordinates":[5.628681,52.352077]},"properties":{"type":"charge","layer":"passenger","locationId":"NLLOC003918","name":"NLD, Ir. Lelystraat 16 3841 JW Harderwijk","address":"Ir. Lelystraat 16","city":"Harderwijk","operatorName":"Allego","maxPowerKw":0,"isMegawatt":false,"status":"AVAILABLE","source":"ndw","priceKwh":0.511}},{"type":"Feature","geometry":{"type":"Point","coordinates":[5.606779,52.333189]},"properties":{"type":"charge","layer":"passenger","locationId":"NLLOC004573","name":"NLD Zeggemeen 88 3844 RP Harderwijk","address":"Zeggemeen 80","city":"Harderwijk","operatorName":"Allego","maxPowerKw":0,"isMegawatt":false,"status":"AVAILABLE","source":"ndw","priceKwh":0.511}},{"type":"Feature","geometry":{"type":"Point","coordinates":[5.604736,52.336001]},"properties":{"type":"charge","layer":"passenger","locationId":"NLLOC007727","name":"NL, Blokzijlmeen 21, 3844 HB, Harderwijk","address":"Blokzijlmeen 21","city":"Harderwijk","operatorName":"Allego","maxPowerKw":0,"isMegawatt":false,"status":"AVAILABLE","source":"ndw","priceKwh":0.511}},{"type":"Feature","geometry":{"type":"Point","coordinates":[5.632901,52.341002]},"properties":{"type":"charge","layer":"passenger","locationId":"NLLOC003936","name":"NLD Gemeente Harderwijk Van Maerlantlaan 11 3842 JA Harderwijk","address":"Van Maerlantlaan 11","city":"Harderwijk","operatorName":"Allego","maxPowerKw":0,"isMegawatt":false,"status":"AVAILABLE","source":"ndw","priceKwh":0.511}},{"type":"Feature","geometry":{"type":"Point","coordinates":[5.598459,52.324059]},"properties":{"type":"charge","layer":"passenger","locationId":"NLLOC003953","name":"NLD, Gemeente Harderwijk, Vosbergerhout 39 3845EN Harderwijk","address":"Vosbergerhout 39","city":"Harderwijk","operatorName":"Allego","maxPowerKw":0,"isMegawatt":false,"status":"AVAILABLE","source":"ndw","priceKwh":0.511}},{"type":"Feature","geometry":{"type":"Point","coordinates":[5.627035,52.331114]},"properties":{"type":"charge","layer":"passenger","locationId":"NLLOC005175","name":"NLD, Harderwijk, Berkenlaan 7","address":"Berkenlaan 7","city":"Harderwijk","operatorName":"Allego","maxPowerKw":0,"isMegawatt":false,"status":"AVAILABLE","source":"ndw","priceKwh":0.511}},{"type":"Feature","geometry":{"type":"Point","coordinates":[5.619783,52.333501]},"properties":{"type":"charge","layer":"passenger","locationId":"3575824","name":"Laadnet Oranjelaan 16 Harderwijk","address":"Oranjelaan 16","city":"Harderwijk","operatorName":"Laadnet","maxPowerKw":11,"isMegawatt":false,"status":"AVAILABLE","source":"ndw"}},{"type":"Feature","geometry":{"type":"Point","coordinates":[5.643874,52.366054]},"properties":{"type":"charge","layer":"passenger","locationId":"67cefcb5e8150e8c993cc6b9","name":"2Shift zaak","address":"Nobelstraat 44c","city":"Harderwijk","operatorName":"E-Flux by Road","maxPowerKw":11,"isMegawatt":false,"status":"AVAILABLE","source":"ndw"}},{"type":"Feature","geometry":{"type":"Point","coordinates":[5.603598,52.328248]},"properties":{"type":"charge","layer":"passenger","locationId":"NLLOC014774","name":"NL, Straussdreef 33, 3845 AT Harderwijk","address":"Straussdreef 33","city":"Harderwijk","operatorName":"Allego","maxPowerKw":0,"isMegawatt":false,"status":"AVAILABLE","source":"ndw","priceKwh":0.511}},{"type":"Feature","geometry":{"type":"Point","coordinates":[5.65125,52.361241]},"properties":{"type":"charge","layer":"passenger","locationId":"773207","name":"Laadnet Rexel Harderwijk","address":"Nobelstraat 1","city":"Harderwijk","operatorName":"Laadnet","maxPowerKw":11,"isMegawatt":false,"status":"AVAILABLE","source":"ndw"}},{"type":"Feature","geometry":{"type":"Point","coordinates":[5.599043,52.327041]},"properties":{"type":"charge","layer":"passenger","locationId":"NLLOC001366","name":"NLD, Harderwijk, Bazuinpad 1","address":"Bazuinpad 1","city":"Harderwijk","operatorName":"Allego","maxPowerKw":0,"isMegawatt":false,"status":"AVAILABLE","source":"ndw","priceKwh":0.511}},{"type":"Feature","geometry":{"type":"Point","coordinates":[5.648997,52.342709]},"properties":{"type":"charge","layer":"passenger","locationId":"NLLOC003952","name":"NLD, Hoenderkamp 41 3848 AS Harderwijk","address":"Hoenderkamp 41","city":"Harderwijk","operatorName":"Allego","maxPowerKw":0,"isMegawatt":false,"status":"AVAILABLE","source":"ndw","priceKwh":0.511}},{"type":"Feature","geometry":{"type":"Point","coordinates":[5.60067,52.324565]},"properties":{"type":"charge","layer":"passenger","locationId":"NLLOC004819","name":"NLD, Horsterhout 17 3845DW Harderwijk","address":"Horsterhout 17","city":"Harderwijk","operatorName":"Allego","maxPowerKw":0,"isMegawatt":false,"status":"AVAILABLE","source":"ndw","priceKwh":0.511}},{"type":"Feature","geometry":{"type":"Point","coordinates":[5.614989,52.343834]},"properties":{"type":"charge","layer":"passenger","locationId":"63f4b6dc1e41b700129a4866","name":"Ziekenhuis St Jansdal P4 Laadpaal 2","address":"wethouderjansenlaan  90","city":"Harderwijk","operatorName":"E-Flux by Road","maxPowerKw":22,"isMegawatt":false,"status":"AVAILABLE","source":"ndw","priceKwh":0.61}},{"type":"Feature","geometry":{"type":"Point","coordinates":[5.603851,52.324283]},"properties":{"type":"charge","layer":"passenger","locationId":"NLLOC007752","name":"NL, Tonnenbergerhout 2, 3845HD, Harderwijk","address":"Tonnenbergerhout 2","city":"Harderwijk","operatorName":"Allego","maxPowerKw":0,"isMegawatt":false,"status":"AVAILABLE","source":"ndw","priceKwh":0.511}},{"type":"Feature","geometry":{"type":"Point","coordinates":[5.609008,52.325634]},"properties":{"type":"charge","layer":"passenger","locationId":"NLLOC014325","name":"NL, Belcantodreef 24, 3845GX, Harderwijk","address":"Belcantodreef 24","city":"Harderwijk","operatorName":"Allego","maxPowerKw":0,"isMegawatt":false,"status":"CHARGING","source":"ndw","priceKwh":0.511}},{"type":"Feature","geometry":{"type":"Point","coordinates":[5.59392,52.32704]},"properties":{"type":"charge","layer":"passenger","locationId":"NLLOC001369","name":"NLD, Harderwijk, Saxofoondreef 1","address":"Saxofoondreef 1","city":"Harderwijk","operatorName":"Allego","maxPowerKw":0,"isMegawatt":false,"status":"CHARGING","source":"ndw","priceKwh":0.511}},{"type":"Feature","geometry":{"type":"Point","coordinates":[5.596631,52.326595]},"properties":{"type":"charge","layer":"passenger","locationId":"NLLOC002372","name":"NLD, Harderwijk, Klarinetdreef 1","address":"Klarinetdreef 1","city":"Harderwijk","operatorName":"Allego","maxPowerKw":0,"isMegawatt":false,"status":"AVAILABLE","source":"ndw","priceKwh":0.511}},{"type":"Feature","geometry":{"type":"Point","coordinates":[5.642898,52.344818]},"properties":{"type":"charge","layer":"passenger","locationId":"NLLOC003289","name":"NLD, Anne Franklaan 8, 3842 GW, Harderwijk","address":"Anne Franklaan 8","city":"Harderwijk","operatorName":"Allego","maxPowerKw":0,"isMegawatt":false,"status":"AVAILABLE","source":"ndw","priceKwh":0.511}},{"type":"Feature","geometry":{"type":"Point","coordinates":[5.632185,52.352632]},"properties":{"type":"charge","layer":"passenger","locationId":"NLLOC008419","name":"NL, Havenspoor, 163, 3841KZ, Harderwijk","address":"Havenspoor 163","city":"Harderwijk","operatorName":"Allego","maxPowerKw":0,"isMegawatt":false,"status":"AVAILABLE","source":"ndw","priceKwh":0.511}},{"type":"Feature","geometry":{"type":"Point","coordinates":[5.626949,52.338051]},"properties":{"type":"charge","layer":"passenger","locationId":"NLLOC022095","name":"NL, Graaf Ottolaan 22, 3843 AM Harderwijk","address":"Graaf Ottolaan 22","city":"Harderwijk","operatorName":"Allego","maxPowerKw":0,"isMegawatt":false,"status":"AVAILABLE","source":"ndw","priceKwh":0.511}},{"type":"Feature","geometry":{"type":"Point","coordinates":[5.645311,52.361589]},"properties":{"type":"charge","layer":"passenger","locationId":"923177","name":"Outlet121_DAE_NL_2000922","address":"Fahrenheitstraat 23","city":"Harderwijk","operatorName":"DAEN Mobility","maxPowerKw":11,"isMegawatt":false,"status":"AVAILABLE","source":"ndw","priceKwh":0.4}},{"type":"Feature","geometry":{"type":"Point","coordinates":[5.647121,52.345319]},"properties":{"type":"charge","layer":"passenger","locationId":"NLLOC021469","name":"NL, Vondellaan 454, 3848BH, Harderwijk","address":"Vondellaan 454","city":"Harderwijk","operatorName":"Allego","maxPowerKw":0,"isMegawatt":false,"status":"AVAILABLE","source":"ndw","priceKwh":0.511}},{"type":"Feature","geometry":{"type":"Point","coordinates":[5.586994,52.324073]},"properties":{"type":"charge","layer":"passenger","locationId":"NLLOC019438","name":"NL, Korenbloemdreef 25, 3845 KL Harderwijk","address":"Korenbloemdreef 25","city":"Harderwijk","operatorName":"Allego","maxPowerKw":0,"isMegawatt":false,"status":"AVAILABLE","source":"ndw","priceKwh":0.511}},{"type":"Feature","geometry":{"type":"Point","coordinates":[5.610724,52.334905]},"properties":{"type":"charge","layer":"passenger","locationId":"NLLOC004331","name":"NLD Klavermeen 46 3844 PS Harderwijk","address":"Klavermeen 46","city":"Harderwijk","operatorName":"Allego","maxPowerKw":0,"isMegawatt":false,"status":"CHARGING","source":"ndw","priceKwh":0.511}},{"type":"Feature","geometry":{"type":"Point","coordinates":[5.651124,52.343273]},"properties":{"type":"charge","layer":"passenger","locationId":"NLLOC012985","name":"NL, Nieuwe Grensweg 66, 3848BR, Harderwijk","address":"Nieuwe Grensweg 66","city":"Harderwijk","operatorName":"Allego","maxPowerKw":0,"isMegawatt":false,"status":"AVAILABLE","source":"ndw","priceKwh":0.511}},{"type":"Feature","geometry":{"type":"Point","coordinates":[5.63708,52.339465]},"properties":{"type":"charge","layer":"passenger","locationId":"NLLOC021819","name":"NL, Admiraalshof 11, 3843 HD Harderwijk","address":"Admiraalshof 11","city":"Harderwijk","operatorName":"Allego","maxPowerKw":0,"isMegawatt":false,"status":"AVAILABLE","source":"ndw","priceKwh":0.511}},{"type":"Feature","geometry":{"type":"Point","coordinates":[5.598846,52.325479]},"properties":{"type":"charge","layer":"passenger","locationId":"NLLOC007851","name":"NL, Tonselsedreef 60A, 3845 CT Harderwijk","address":"Tonselsedreef 60A","city":"Harderwijk","operatorName":"Allego","maxPowerKw":0,"isMegawatt":false,"status":"AVAILABLE","source":"ndw","priceKwh":0.511}},{"type":"Feature","geometry":{"type":"Point","coordinates":[5.618143,52.347853]},"properties":{"type":"charge","layer":"passenger","locationId":"NLLOC001364","name":"NLD, Harderwijk, Klooster 1","address":"Klooster 1","city":"Harderwijk","operatorName":"Allego","maxPowerKw":0,"isMegawatt":false,"status":"AVAILABLE","source":"ndw","priceKwh":0.511}},{"type":"Feature","geometry":{"type":"Point","coordinates":[5.587597,52.325355]},"properties":{"type":"charge","layer":"passenger","locationId":"NLLOC025343","name":"NL, Madeliefdreef 21, 3845KN, Harderwijk","address":"Madeliefdreef 21","city":"Harderwijk","operatorName":"Allego","maxPowerKw":0,"isMegawatt":false,"status":"AVAILABLE","source":"ndw","priceKwh":0.511}},{"type":"Feature","geometry":{"type":"Point","coordinates":[5.59699,52.323028]},"properties":{"type":"charge","layer":"passenger","locationId":"NLLOC024269","name":"NL, Salentijnerhout 24, 3845 EV Harderwijk","address":"Salentijnerhout 24","city":"Harderwijk","operatorName":"Allego","maxPowerKw":0,"isMegawatt":false,"status":"AVAILABLE","source":"ndw","priceKwh":0.511}},{"type":"Feature","geometry":{"type":"Point","coordinates":[5.645311,52.361589]},"properties":{"type":"charge","layer":"passenger","locationId":"923173","name":"Outlet124_DAE_NL_2000925","address":"Fahrenheitstraat 23","city":"Harderwijk","operatorName":"DAEN Mobility","maxPowerKw":11,"isMegawatt":false,"status":"AVAILABLE","source":"ndw","priceKwh":0.4}},{"type":"Feature","geometry":{"type":"MultiPolygon","coordinates":[[[[5.695656956861861,52.360760871565866],[5.697105162367158,52.361114725878046],[5.698356386555496,52.36059312202329],[5.700663022132623,52.357487916686864],[5.698687177946489,52.35673278915638],[5.698729566596042,52.35601744272118],[5.69864248653017,52.355808420774586],[5.699055430571848,52.35280172851537],[5.704135909678964,52.34685158926809],[5.704839813918987,52.34412876732547],[5.705076577898757,52.34287085366001],[5.705463162547281,52.3398602976963],[5.711020812554697,52.338725067650806],[5.712803952050868,52.33623919913937],[5.712481703652839,52.33184572806881],[5.70617234769429,52.32838223206825],[5.686448175609802,52.313143339706144],[5.678124701463295,52.30149264786745],[5.670797120794841,52.303917456578674],[5.650484604789913,52.31501011990613],[5.640704734836296,52.320749481987654],[5.630264959558769,52.32685121528248],[5.63017797789992,52.32623113817988],[5.628785155376621,52.32681629971128],[5.623454615054311,52.32666806683266],[5.623112308080939,52.32753275671102],[5.62037746038811,52.326332070211976],[5.608692390617877,52.31905460905495],[5.601945690474851,52.319747695417455],[5.6020516714012105,52.317986375566896],[5.597562401043499,52.3193069056683],[5.593253068757412,52.31927139962404],[5.587670603615603,52.32101350101913],[5.587426763681342,52.321630819591206],[5.5815188030855705,52.322578652846445],[5.57828962319443,52.32511399058452],[5.577297452405795,52.32570442066726],[5.575754618318856,52.32659869966689],[5.581732660273306,52.32995718103745],[5.593995832708678,52.33428264853496],[5.598279432308925,52.33712972107762],[5.603181186383789,52.339834668516424],[5.607492372479552,52.3427137896303],[5.611367321066749,52.34556817717192],[5.612273571750094,52.34742862159105],[5.612587822438437,52.34959962183089],[5.614680134220554,52.350740178252515],[5.612820198052262,52.351086996958585],[5.612016070479958,52.35169928881587],[5.615145285177529,52.35169567005558],[5.614932487322497,52.35199176334821],[5.613397435139526,52.352041364551305],[5.61335610075643,52.352284904864355],[5.615551214324011,52.35349493269465],[5.614284139136534,52.356802875869256],[5.619955557489572,52.35462293366435],[5.620650250283614,52.353770686388906],[5.620657412623315,52.35355756401718],[5.621056203531957,52.35338118403942],[5.621133460214622,52.35344930691402],[5.621229390388131,52.35340200200873],[5.621191850069975,52.35321724765846],[5.621475579533823,52.3530169168185],[5.62134253791131,52.35284267967461],[5.622269792460233,52.352250422977555],[5.623677938578108,52.35195930061826],[5.62384116548052,52.35183268165514],[5.623832456486182,52.35154228766339],[5.623441574954432,52.351183032424686],[5.6241723166384965,52.35087108663463],[5.624816420174871,52.35143821977411],[5.621167024445364,52.35353199536231],[5.621379282386006,52.35373724716221],[5.6203701378094655,52.35496737507427],[5.620501139594517,52.35520761847575],[5.622665699721271,52.355436409165435],[5.623806914318979,52.35538911166731],[5.623962947981097,52.35526995326971],[5.624837167750357,52.354602321591294],[5.625477347299282,52.35495526481437],[5.624154282273738,52.35555045998767],[5.622445561821191,52.355585402981816],[5.621974979622925,52.35567114772195],[5.620850431298777,52.35548981160756],[5.617510699716504,52.356484473659954],[5.61567654782383,52.35667499248017],[5.615447015918934,52.35705774464353],[5.6169399427109115,52.357586906356175],[5.619140569436794,52.358445045227086],[5.619379975370554,52.36002003616231],[5.6190988746366966,52.36017118706508],[5.618983630401833,52.358630412989505],[5.618873755496878,52.358644570165254],[5.619020010978891,52.35967438039966],[5.618388120400488,52.359541139235716],[5.618273187256849,52.358951629300776],[5.618111773556143,52.35898238241875],[5.617830551955765,52.359313631669345],[5.615720093588441,52.358602888039705],[5.615876240898009,52.358400855091126],[5.615357696068178,52.358226481069885],[5.615896617387778,52.35769326243536],[5.614981470215295,52.35723498901014],[5.614418506291013,52.357822393652086],[5.614337481951365,52.35810347781049],[5.614401114599349,52.35814219338063],[5.614524812903444,52.357936113722864],[5.614761844239274,52.35797708352005],[5.614939907102612,52.35816205589266],[5.614917976414761,52.35838680824552],[5.614660187390481,52.35850723808173],[5.61441820644166,52.35832019716229],[5.614391808211707,52.35841530325375],[5.618898747039662,52.36034156640977],[5.617496920599625,52.36101998387409],[5.6167553841953035,52.36064520375544],[5.614035076238885,52.36225105585166],[5.614927351171675,52.36250491128562],[5.615319823973995,52.36261469258874],[5.62516881828408,52.35824793268072],[5.627086364022748,52.35699631365834],[5.627437773835788,52.357153259063416],[5.62715739563886,52.357913142295835],[5.6250600702140785,52.359165868791465],[5.625544207676698,52.35967488133028],[5.626940666405861,52.35884414835491],[5.62661409336204,52.358467286249336],[5.627608908106538,52.35787741104687],[5.628511564803943,52.35849100878493],[5.628582683297272,52.36055053707882],[5.627080417055472,52.360570801772134],[5.627065329267515,52.36099641468227],[5.627383292764125,52.36098412652341],[5.627413100246991,52.360687215322436],[5.6280590886012005,52.36067585983269],[5.628107540071642,52.36104453006751],[5.627520438342527,52.36114419466548],[5.628101970635531,52.361454212956275],[5.62819802467885,52.364441780619124],[5.628960726655717,52.36472119924626],[5.629719246199592,52.36424219698354],[5.629278827548723,52.363980583202654],[5.6292209026701805,52.3618163376989],[5.629816000745608,52.361521680041285],[5.630957628558328,52.362196532471465],[5.630255087046137,52.362601295510736],[5.629764031779207,52.36261355171881],[5.6297810915825135,52.363658435411274],[5.630359271180976,52.36390641891549],[5.633173799506103,52.36179746205055],[5.638864972679262,52.362422026551116],[5.640500607350523,52.36337849864381],[5.639962249840124,52.363716093184294],[5.634099551538465,52.362816092158596],[5.630173656219584,52.365457225964875],[5.630660972471896,52.36585434397723],[5.641296703996939,52.366056674123215],[5.644206692561831,52.367586178838074],[5.6487788269621735,52.36750067801287],[5.653340795310629,52.36484119356671],[5.67404604885787,52.37510687452742],[5.6772271883274295,52.37700604544128],[5.677592260039062,52.37868575730835],[5.6789226307387,52.37884155260163],[5.680022570959271,52.3760329879897],[5.695656956861861,52.360760871565866]]],[[[5.603904132179262,52.361744114632984],[5.601446668924745,52.360903432734865],[5.601882633815593,52.3615208398104],[5.600946710552569,52.361790277804296],[5.599310740220982,52.36159255236472],[5.595681776974659,52.36169539858522],[5.593682007836605,52.36207837138516],[5.5933312023011625,52.36282682784808],[5.594583014551564,52.36330777898439],[5.598462156716733,52.363519812815156],[5.605992364437845,52.36321669784154],[5.603904132179262,52.361744114632984]]]]},"properties":{"type":"boundary","gemeente":"Harderwijk","code":"GM0243"}}]}