{"type":"FeatureCollection","metadata":{"gemeente":"Heerde","slug":"heerde","code":"GM0246","generated_at":"2026-06-07T19:22:09.578Z","total_passenger":78,"total_freight":0,"bounds":[5.951025060321694,52.35651260288333,6.130553787465173,52.45480686466742],"operators":["Allego","DAEN Mobility","E-Flux by Road","Fastned","Laadnet","Lanova Laadpalen","Opcharge","Vattenfall InCharge"]},"features":[{"type":"Feature","geometry":{"type":"Point","coordinates":[6.051319,52.38849]},"properties":{"type":"charge","layer":"passenger","locationId":"66a627bbc1bf80001c8118b5","name":"Ricsi's","address":"Van der Capellenweg 11","city":"Heino","operatorName":"E-Flux by Road","maxPowerKw":11,"isMegawatt":false,"status":"CHARGING","source":"ndw","priceKwh":0.41}},{"type":"Feature","geometry":{"type":"Point","coordinates":[6.041898,52.384379]},"properties":{"type":"charge","layer":"passenger","locationId":"NLLOC005230","name":"NLD, Bonenburgerlaan 37a, 8181 HB, Heerde","address":"Bonenburgerlaan 37a","city":"Heerde","operatorName":"Allego","maxPowerKw":0,"isMegawatt":false,"status":"AVAILABLE","source":"ndw","priceKwh":0.3488}},{"type":"Feature","geometry":{"type":"Point","coordinates":[6.08067,52.434941]},"properties":{"type":"charge","layer":"passenger","locationId":"NLLOC006654","name":"NL, Boskolk 16, 8191 TL, Wapenveld","address":"Boskolk 16","city":"Wapenveld","operatorName":"Allego","maxPowerKw":0,"isMegawatt":false,"status":"AVAILABLE","source":"ndw","priceKwh":0.3488}},{"type":"Feature","geometry":{"type":"Point","coordinates":[6.047155,52.394054]},"properties":{"type":"charge","layer":"passenger","locationId":"a5f3890d-97d8-4ad8-8297-8b56e72ca63e","name":"Zandakker","address":"Zandakker 43","city":"Heerde","operatorName":"Vattenfall InCharge","maxPowerKw":11,"isMegawatt":false,"status":"AVAILABLE","source":"ndw"}},{"type":"Feature","geometry":{"type":"Point","coordinates":[6.033055,52.382243]},"properties":{"type":"charge","layer":"passenger","locationId":"3964871","name":"Laadnet Noordgouw","address":"Eperweg 34A","city":"Heerde","operatorName":"Laadnet","maxPowerKw":22,"isMegawatt":false,"status":"AVAILABLE","source":"ndw"}},{"type":"Feature","geometry":{"type":"Point","coordinates":[6.022091,52.370841]},"properties":{"type":"charge","layer":"passenger","locationId":"e72591d9-fae7-4f10-aa9b-1b43013d4c13","name":"Eperweg 55B","address":"Eperweg 55B","city":"Heerde","operatorName":"Vattenfall InCharge","maxPowerKw":50,"isMegawatt":false,"status":"AVAILABLE","source":"ndw"}},{"type":"Feature","geometry":{"type":"Point","coordinates":[6.074821,52.426357]},"properties":{"type":"charge","layer":"passenger","locationId":"216e42fb-41a3-49a4-bec4-fdcb7587ae74","name":"Nachtegaalweg 78","address":"Nachtegaalweg 78","city":"Wapenveld","operatorName":"Vattenfall InCharge","maxPowerKw":11,"isMegawatt":false,"status":"AVAILABLE","source":"ndw"}},{"type":"Feature","geometry":{"type":"Point","coordinates":[6.013231,52.395852]},"properties":{"type":"charge","layer":"passenger","locationId":"31216","name":"Fastned Het Veen","address":"Het Veen A50","city":"Heerde","operatorName":"Fastned","maxPowerKw":300,"isMegawatt":false,"status":"AVAILABLE","source":"ndw","priceKwh":0.6364}},{"type":"Feature","geometry":{"type":"Point","coordinates":[6.036466,52.386471]},"properties":{"type":"charge","layer":"passenger","locationId":"e7c2501e-18f7-487a-8dc6-7e67b5a7e653","name":"Hagestraat","address":"Hagestraat 8-10","city":"Heerde","operatorName":"Vattenfall InCharge","maxPowerKw":11,"isMegawatt":false,"status":"AVAILABLE","source":"ndw"}},{"type":"Feature","geometry":{"type":"Point","coordinates":[6.040725,52.39253]},"properties":{"type":"charge","layer":"passenger","locationId":"fca55b30d00aa5629a90100ed04bb510","name":"Roggeweg 2","address":"Roggeweg 2","city":"Heerde","operatorName":"Vattenfall InCharge","maxPowerKw":11,"isMegawatt":false,"status":"AVAILABLE","source":"ndw"}},{"type":"Feature","geometry":{"type":"Point","coordinates":[6.069687,52.432881]},"properties":{"type":"charge","layer":"passenger","locationId":"4ae52f5601e8b73c1fc78f0ad623d0ac","name":"Klapperdijk 3a","address":"Klapperdijk 3a","city":"Wapenveld","operatorName":"Vattenfall InCharge","maxPowerKw":11,"isMegawatt":false,"status":"AVAILABLE","source":"ndw"}},{"type":"Feature","geometry":{"type":"Point","coordinates":[6.04066,52.383201]},"properties":{"type":"charge","layer":"passenger","locationId":"d98475a7-6c30-4746-b2a5-0721e0738d44","name":"Korteslag","address":"Korteslag 15","city":"Heerde","operatorName":"Vattenfall InCharge","maxPowerKw":11,"isMegawatt":false,"status":"AVAILABLE","source":"ndw"}},{"type":"Feature","geometry":{"type":"Point","coordinates":[6.044384,52.401764]},"properties":{"type":"charge","layer":"passenger","locationId":"3964873","name":"Laadnet Gemeentewerf Heerde","address":"Veldweg 8A","city":"Heerde","operatorName":"Laadnet","maxPowerKw":22,"isMegawatt":false,"status":"AVAILABLE","source":"ndw"}},{"type":"Feature","geometry":{"type":"Point","coordinates":[6.074769,52.431744]},"properties":{"type":"charge","layer":"passenger","locationId":"d0abe676-a6b1-11ea-888b-42010a840003","name":"NL, Klapperdijk 36c, 8191AE, Heerde","address":"Klapperdijk 36c","city":"Heerde","operatorName":"Allego","maxPowerKw":0,"isMegawatt":false,"status":"AVAILABLE","source":"ndw"}},{"type":"Feature","geometry":{"type":"Point","coordinates":[6.030167,52.389083]},"properties":{"type":"charge","layer":"passenger","locationId":"dade7df8-e43f-11eb-848d-42010a840003","name":"NL, De Pagenberg 43, 8181ZG, Heerde","address":"De Pagenberg 43","city":"Heerde","operatorName":"Allego","maxPowerKw":0,"isMegawatt":false,"status":"AVAILABLE","source":"ndw"}},{"type":"Feature","geometry":{"type":"Point","coordinates":[6.044781,52.396471]},"properties":{"type":"charge","layer":"passenger","locationId":"3778881","name":"Laadnet Van der Most I","address":"Europaweg 6","city":"Heerde","operatorName":"Laadnet","maxPowerKw":22,"isMegawatt":false,"status":"AVAILABLE","source":"ndw"}},{"type":"Feature","geometry":{"type":"Point","coordinates":[6.042711,52.388253]},"properties":{"type":"charge","layer":"passenger","locationId":"3729d3a2-92ba-49f8-bdb4-23d257f7fa27","name":"Zwolseweg","address":"Zwolseweg 1b","city":"Heerde","operatorName":"Vattenfall InCharge","maxPowerKw":11,"isMegawatt":false,"status":"AVAILABLE","source":"ndw"}},{"type":"Feature","geometry":{"type":"Point","coordinates":[6.04455,52.398313]},"properties":{"type":"charge","layer":"passenger","locationId":"3806026","name":"Laadnet Van der Most","address":"Molenweg 5","city":"Heerde","operatorName":"Laadnet","maxPowerKw":22,"isMegawatt":false,"status":"AVAILABLE","source":"ndw"}},{"type":"Feature","geometry":{"type":"Point","coordinates":[6.071541,52.43747]},"properties":{"type":"charge","layer":"passenger","locationId":"1428893","name":"Laadnet Bouwbedrijf van Laar","address":"Vlijtweg 12","city":"Wapenveld","operatorName":"Laadnet","maxPowerKw":22,"isMegawatt":false,"status":"AVAILABLE","source":"ndw"}},{"type":"Feature","geometry":{"type":"Point","coordinates":[6.068555,52.430402]},"properties":{"type":"charge","layer":"passenger","locationId":"f6df0c1f-328d-45b9-9fe1-4ae1220014dc","name":"De Vree","address":"De Vree 1","city":"Wapenveld","operatorName":"Vattenfall InCharge","maxPowerKw":11,"isMegawatt":false,"status":"AVAILABLE","source":"ndw"}},{"type":"Feature","geometry":{"type":"Point","coordinates":[6.075389,52.425099]},"properties":{"type":"charge","layer":"passenger","locationId":"481c1194-05f6-4139-96a3-a45591179134","name":"Annenkamp 11","address":"Annenkamp 11","city":"Wapenveld","operatorName":"Vattenfall InCharge","maxPowerKw":11,"isMegawatt":false,"status":"AVAILABLE","source":"ndw"}},{"type":"Feature","geometry":{"type":"Point","coordinates":[6.013231,52.395852]},"properties":{"type":"charge","layer":"passenger","locationId":"f091cab2-91f7-11e8-ab10-42010a840002","name":"Fastned Het Veen","address":"Het Veen A50","city":"Heerde","operatorName":"Fastned","maxPowerKw":300,"isMegawatt":false,"status":"AVAILABLE","source":"ndw"}},{"type":"Feature","geometry":{"type":"Point","coordinates":[6.030167,52.389083]},"properties":{"type":"charge","layer":"passenger","locationId":"NLLOC016635","name":"NL, De Pagenberg 43, 8181ZG, Heerde","address":"De Pagenberg 43","city":"Heerde","operatorName":"Allego","maxPowerKw":0,"isMegawatt":false,"status":"AVAILABLE","source":"ndw","priceKwh":0.3488}},{"type":"Feature","geometry":{"type":"Point","coordinates":[6.072933,52.44458]},"properties":{"type":"charge","layer":"passenger","locationId":"4234526","name":"Laadnet Zee Vastgoed CV","address":"Ingenieur R.R. van der Zeelaan 1","city":"Wapenveld","operatorName":"Laadnet","maxPowerKw":22,"isMegawatt":false,"status":"AVAILABLE","source":"ndw"}},{"type":"Feature","geometry":{"type":"Point","coordinates":[6.035693,52.385648]},"properties":{"type":"charge","layer":"passenger","locationId":"1211355","name":"Laadnet Gemeentekantoor Heerde","address":"Eperweg 5","city":"Heerde","operatorName":"Laadnet","maxPowerKw":22,"isMegawatt":false,"status":"AVAILABLE","source":"ndw"}},{"type":"Feature","geometry":{"type":"Point","coordinates":[6.037058,52.394636]},"properties":{"type":"charge","layer":"passenger","locationId":"9806f08e-75b7-11ea-aaa2-42010a840003","name":"NLD, De Wikke 35, Heerde","address":"De Wikke 35","city":"Heerde","operatorName":"Allego","maxPowerKw":0,"isMegawatt":false,"status":"AVAILABLE","source":"ndw"}},{"type":"Feature","geometry":{"type":"Point","coordinates":[6.044659,52.394923]},"properties":{"type":"charge","layer":"passenger","locationId":"3968995","name":"Laadnet Meijlang B.V. \\/ Langhenkel Vastgoed","address":"Sportlaan 2H","city":"Heerde","operatorName":"Laadnet","maxPowerKw":22,"isMegawatt":false,"status":"AVAILABLE","source":"ndw"}},{"type":"Feature","geometry":{"type":"Point","coordinates":[6.046676,52.385261]},"properties":{"type":"charge","layer":"passenger","locationId":"9a3ed79c-fe6f-11e8-8977-42010a840002","name":"NLD, Looierspad 8, 8181 KH, Heerde","address":"Looierspad 8","city":"Heerde","operatorName":"Allego","maxPowerKw":0,"isMegawatt":false,"status":"AVAILABLE","source":"ndw"}},{"type":"Feature","geometry":{"type":"Point","coordinates":[6.033482,52.386297]},"properties":{"type":"charge","layer":"passenger","locationId":"165e334c-f424-11ec-94cb-42010aa40fc0","name":"NL, Elburgerweg 3, 8181EM, Heerde","address":"Elburgerweg 3","city":"Heerde","operatorName":"Allego","maxPowerKw":0,"isMegawatt":false,"status":"AVAILABLE","source":"ndw"}},{"type":"Feature","geometry":{"type":"Point","coordinates":[6.030457,52.381146]},"properties":{"type":"charge","layer":"passenger","locationId":"dac1762c-e43f-11eb-8d0b-42010a840003","name":"NL, Bornkamp 4, 8181WT, Heerde","address":"Bornkamp 4","city":"Heerde","operatorName":"Allego","maxPowerKw":0,"isMegawatt":false,"status":"AVAILABLE","source":"ndw"}},{"type":"Feature","geometry":{"type":"Point","coordinates":[6.050212,52.39262]},"properties":{"type":"charge","layer":"passenger","locationId":"4614ea70-9bee-11eb-88c6-42010a840003","name":"NL, Roskamp, 53, 8181TK, Heerde","address":"Roskamp 53","city":"Heerde","operatorName":"Allego","maxPowerKw":0,"isMegawatt":false,"status":"AVAILABLE","source":"ndw"}},{"type":"Feature","geometry":{"type":"Point","coordinates":[6.078775,52.433492]},"properties":{"type":"charge","layer":"passenger","locationId":"457336ba-80ab-11ec-8151-42010a840003","name":"NL, Biezenkamp 6, 8191TG Heerde","address":"Biezenkamp 6","city":"Heerde","operatorName":"Allego","maxPowerKw":0,"isMegawatt":false,"status":"AVAILABLE","source":"ndw"}},{"type":"Feature","geometry":{"type":"Point","coordinates":[6.026497,52.383637]},"properties":{"type":"charge","layer":"passenger","locationId":"113ec2be-7c7f-11eb-a96f-42010a840003","name":"NL, Ten Veldhuize, 55, 8181WK, Heerde","address":"Ten Veldhuize 55","city":"Heerde","operatorName":"Allego","maxPowerKw":0,"isMegawatt":false,"status":"CHARGING","source":"ndw"}},{"type":"Feature","geometry":{"type":"Point","coordinates":[6.040592,52.381757]},"properties":{"type":"charge","layer":"passenger","locationId":"d0028e76-3c0e-11eb-8a7c-42010a840003","name":"NL, Acacialaan 117, 8181 GJ, Heerde","address":"Acacialaan 117","city":"Heerde","operatorName":"Allego","maxPowerKw":0,"isMegawatt":false,"status":"AVAILABLE","source":"ndw"}},{"type":"Feature","geometry":{"type":"Point","coordinates":[6.08067,52.434941]},"properties":{"type":"charge","layer":"passenger","locationId":"0cf2fe46-a520-11ea-bb24-42010a840003","name":"NL, Boskolk 16, 8191 TL, Wapenveld","address":"Boskolk 16","city":"Wapenveld","operatorName":"Allego","maxPowerKw":0,"isMegawatt":false,"status":"AVAILABLE","source":"ndw"}},{"type":"Feature","geometry":{"type":"Point","coordinates":[6.041898,52.384379]},"properties":{"type":"charge","layer":"passenger","locationId":"4fb72388-f1fc-11e9-a467-42010a840003","name":"NLD, Bonenburgerlaan 37a, 8181 HB, Heerde","address":"Bonenburgerlaan 37a","city":"Heerde","operatorName":"Allego","maxPowerKw":0,"isMegawatt":false,"status":"AVAILABLE","source":"ndw"}},{"type":"Feature","geometry":{"type":"Point","coordinates":[6.096656,52.378587]},"properties":{"type":"charge","layer":"passenger","locationId":"d4b71658-9992-11eb-afca-42010a840003","name":"NL, Veesser Enkweg 39, 8194 LK Veessen","address":"Veesser Enkweg 39","city":"Veessen","operatorName":"Allego","maxPowerKw":0,"isMegawatt":false,"status":"AVAILABLE","source":"ndw"}},{"type":"Feature","geometry":{"type":"Point","coordinates":[6.043611,52.384545]},"properties":{"type":"charge","layer":"passenger","locationId":"baa563f6-2e19-11ed-8676-42010aa40fc0","name":"NL, Ramakerspad 26, 8181KP, Heerde","address":"Ramakerspad 26","city":"Heerde","operatorName":"Allego","maxPowerKw":0,"isMegawatt":false,"status":"AVAILABLE","source":"ndw"}},{"type":"Feature","geometry":{"type":"Point","coordinates":[6.07061,52.44491]},"properties":{"type":"charge","layer":"passenger","locationId":"356e5a7317a140e18c20423d87c58acc","name":"Wapenveld Pannenkoekhuis 't Mussennest ","address":"Groteweg 109","city":"Wapenveld","operatorName":"Opcharge","maxPowerKw":22,"isMegawatt":false,"status":"AVAILABLE","source":"ndw","priceKwh":0.49}},{"type":"Feature","geometry":{"type":"Point","coordinates":[6.078775,52.433492]},"properties":{"type":"charge","layer":"passenger","locationId":"NLLOC021553","name":"NL, Biezenkamp 6, 8191TG Heerde","address":"Biezenkamp 6","city":"Heerde","operatorName":"Allego","maxPowerKw":0,"isMegawatt":false,"status":"AVAILABLE","source":"ndw","priceKwh":0.3488}},{"type":"Feature","geometry":{"type":"Point","coordinates":[6.071206,52.425327]},"properties":{"type":"charge","layer":"passenger","locationId":"16d10dd5f192e18ae6906d2efc7c0c2f","name":"Merelweg 31","address":"Merelweg 31","city":"Wapenveld","operatorName":"Vattenfall InCharge","maxPowerKw":11,"isMegawatt":false,"status":"AVAILABLE","source":"ndw"}},{"type":"Feature","geometry":{"type":"Point","coordinates":[6.04386,52.38628]},"properties":{"type":"charge","layer":"passenger","locationId":"ef7bb6c1da518ebdeff64dfde3c492a5","name":"Kerkstraat 52","address":"Kerkstraat 52","city":"Heerde","operatorName":"Vattenfall InCharge","maxPowerKw":11,"isMegawatt":false,"status":"AVAILABLE","source":"ndw"}},{"type":"Feature","geometry":{"type":"Point","coordinates":[6.043037,52.410366]},"properties":{"type":"charge","layer":"passenger","locationId":"60bf7e8adb0b139bd541ad6c","name":"Camping De Zandkuil","address":"Veldweg 25","city":"Heerde","operatorName":"E-Flux by Road","maxPowerKw":22,"isMegawatt":false,"status":"AVAILABLE","source":"ndw","priceKwh":0.46}},{"type":"Feature","geometry":{"type":"Point","coordinates":[6.096656,52.378587]},"properties":{"type":"charge","layer":"passenger","locationId":"NLLOC014667","name":"NL, Veesser Enkweg 39, 8194 LK Veessen","address":"Veesser Enkweg 39","city":"Veessen","operatorName":"Allego","maxPowerKw":0,"isMegawatt":false,"status":"AVAILABLE","source":"ndw","priceKwh":0.3488}},{"type":"Feature","geometry":{"type":"Point","coordinates":[6.07199,52.437015]},"properties":{"type":"charge","layer":"passenger","locationId":"64fb2e686b42d1001cea9445","name":"Tytane B.V","address":"Vlijtweg 7a","city":"Wapenveld","operatorName":"E-Flux by Road","maxPowerKw":22,"isMegawatt":false,"status":"AVAILABLE","source":"ndw","priceKwh":0.48}},{"type":"Feature","geometry":{"type":"Point","coordinates":[6.037058,52.394636]},"properties":{"type":"charge","layer":"passenger","locationId":"NLLOC004009","name":"NLD, De Wikke 35, Heerde","address":"De Wikke 35","city":"Heerde","operatorName":"Allego","maxPowerKw":0,"isMegawatt":false,"status":"AVAILABLE","source":"ndw","priceKwh":0.3488}},{"type":"Feature","geometry":{"type":"Point","coordinates":[6.028271,52.381921]},"properties":{"type":"charge","layer":"passenger","locationId":"923156","name":"DAE_NL_2000825","address":"Ten Veldhuize 11","city":"Heerde","operatorName":"DAEN Mobility","maxPowerKw":11,"isMegawatt":false,"status":"AVAILABLE","source":"ndw","priceKwh":0.28}},{"type":"Feature","geometry":{"type":"Point","coordinates":[6.039074,52.391839]},"properties":{"type":"charge","layer":"passenger","locationId":"300a7ecc-418f-4194-a1bd-dd98343354ac","name":"Duisterestraat","address":"Duisterestraat 2","city":"Heerde","operatorName":"Vattenfall InCharge","maxPowerKw":11,"isMegawatt":false,"status":"AVAILABLE","source":"ndw"}},{"type":"Feature","geometry":{"type":"Point","coordinates":[6.033482,52.386297]},"properties":{"type":"charge","layer":"passenger","locationId":"NLLOC025234","name":"NL, Elburgerweg 3, 8181EM, Heerde","address":"Elburgerweg 3","city":"Heerde","operatorName":"Allego","maxPowerKw":0,"isMegawatt":false,"status":"AVAILABLE","source":"ndw","priceKwh":0.3488}},{"type":"Feature","geometry":{"type":"Point","coordinates":[6.077961,52.426339]},"properties":{"type":"charge","layer":"passenger","locationId":"053279533e06055edd4af966cfa223b4","name":"Zwaaikolk  38","address":"Zwaaikolk  38","city":"Wapenveld","operatorName":"Vattenfall InCharge","maxPowerKw":11,"isMegawatt":false,"status":"AVAILABLE","source":"ndw"}},{"type":"Feature","geometry":{"type":"Point","coordinates":[6.04483,52.38874]},"properties":{"type":"charge","layer":"passenger","locationId":"eecebb5365cc54e13016d0fb9fbd7672","name":"Marktstraat 6/a","address":"Marktstraat 6/a","city":"Heerde","operatorName":"Vattenfall InCharge","maxPowerKw":11,"isMegawatt":false,"status":"AVAILABLE","source":"ndw"}},{"type":"Feature","geometry":{"type":"Point","coordinates":[6.029203,52.388344]},"properties":{"type":"charge","layer":"passenger","locationId":"82510916-0a67-42d1-878f-c6a06aa4b7fb","name":"De Pagenberg","address":"De Pagenberg 10B","city":"Heerde","operatorName":"Vattenfall InCharge","maxPowerKw":11,"isMegawatt":false,"status":"AVAILABLE","source":"ndw"}},{"type":"Feature","geometry":{"type":"Point","coordinates":[6.099979,52.440132]},"properties":{"type":"charge","layer":"passenger","locationId":"684e8f00f5c4a8827525788a","name":"Bertus Doppenberg 's laadstations","address":"Het Oever 2","city":"Wapenveld","operatorName":"Lanova Laadpalen","maxPowerKw":11,"isMegawatt":false,"status":"AVAILABLE","source":"ndw","priceKwh":0.49}},{"type":"Feature","geometry":{"type":"Point","coordinates":[6.026497,52.383637]},"properties":{"type":"charge","layer":"passenger","locationId":"NLLOC014541","name":"NL, Ten Veldhuize, 55, 8181WK, Heerde","address":"Ten Veldhuize 55","city":"Heerde","operatorName":"Allego","maxPowerKw":0,"isMegawatt":false,"status":"AVAILABLE","source":"ndw","priceKwh":0.3488}},{"type":"Feature","geometry":{"type":"Point","coordinates":[6.076027,52.427801]},"properties":{"type":"charge","layer":"passenger","locationId":"5cfb9d1aaad373e4a7ad35e5f4d47699","name":"Veldzijderkamp 2","address":"Veldzijderkamp 2","city":"Wapenveld","operatorName":"Vattenfall InCharge","maxPowerKw":11,"isMegawatt":false,"status":"AVAILABLE","source":"ndw"}},{"type":"Feature","geometry":{"type":"Point","coordinates":[6.030457,52.381146]},"properties":{"type":"charge","layer":"passenger","locationId":"NLLOC017880","name":"NL, Bornkamp 4, 8181WT, Heerde","address":"Bornkamp 4","city":"Heerde","operatorName":"Allego","maxPowerKw":0,"isMegawatt":false,"status":"AVAILABLE","source":"ndw","priceKwh":0.3488}},{"type":"Feature","geometry":{"type":"Point","coordinates":[6.070923,52.425736]},"properties":{"type":"charge","layer":"passenger","locationId":"4a7c9eee-d01b-4b77-8bd3-ea94c0d43eaf","name":"Vinkenweg 28","address":"Vinkenweg 28","city":"Wapenveld","operatorName":"Vattenfall InCharge","maxPowerKw":11,"isMegawatt":false,"status":"AVAILABLE","source":"ndw"}},{"type":"Feature","geometry":{"type":"Point","coordinates":[6.075907,52.430826]},"properties":{"type":"charge","layer":"passenger","locationId":"47ceef32-05ae-4d89-b3ee-3f7744084cda","name":"Meester Jan van Doesburgstraat","address":"Meester Jan van Doesburgstraat 17","city":"Wapenveld","operatorName":"Vattenfall InCharge","maxPowerKw":11,"isMegawatt":false,"status":"AVAILABLE","source":"ndw"}},{"type":"Feature","geometry":{"type":"Point","coordinates":[6.040592,52.381757]},"properties":{"type":"charge","layer":"passenger","locationId":"NLLOC010643","name":"NL, Acacialaan 117, 8181 GJ, Heerde","address":"Acacialaan 117","city":"Heerde","operatorName":"Allego","maxPowerKw":0,"isMegawatt":false,"status":"AVAILABLE","source":"ndw","priceKwh":0.3488}},{"type":"Feature","geometry":{"type":"Point","coordinates":[6.022768,52.389275]},"properties":{"type":"charge","layer":"passenger","locationId":"d9590f7f-226b-4fd5-b178-55da65e53b69","name":"Veenweg","address":"Veenweg 4","city":"Heerde","operatorName":"Vattenfall InCharge","maxPowerKw":11,"isMegawatt":false,"status":"AVAILABLE","source":"ndw"}},{"type":"Feature","geometry":{"type":"Point","coordinates":[6.077064,52.433136]},"properties":{"type":"charge","layer":"passenger","locationId":"b560820a467417b02eb6c5ef8c680bd9","name":"Hulsbergen 1","address":"Hulsbergen 1","city":"Wapenveld","operatorName":"Vattenfall InCharge","maxPowerKw":11,"isMegawatt":false,"status":"AVAILABLE","source":"ndw"}},{"type":"Feature","geometry":{"type":"Point","coordinates":[6.044401,52.385838]},"properties":{"type":"charge","layer":"passenger","locationId":"0d5a4cf0391e1eab7f6c6c839df0bf4a","name":"Kanaalstraat 23","address":"Kanaalstraat 23","city":"Heerde","operatorName":"Vattenfall InCharge","maxPowerKw":11,"isMegawatt":false,"status":"AVAILABLE","source":"ndw"}},{"type":"Feature","geometry":{"type":"Point","coordinates":[6.074769,52.431744]},"properties":{"type":"charge","layer":"passenger","locationId":"NLLOC008699","name":"NL, Klapperdijk 36c, 8191AE, Heerde","address":"Klapperdijk 36c","city":"Heerde","operatorName":"Allego","maxPowerKw":0,"isMegawatt":false,"status":"AVAILABLE","source":"ndw","priceKwh":0.3488}},{"type":"Feature","geometry":{"type":"Point","coordinates":[6.04945,52.40005]},"properties":{"type":"charge","layer":"passenger","locationId":"0f5df28c864c1b8afa0c8cbd2a98b7c7","name":"Molenweg 1","address":"Molenweg 1","city":"Heerde","operatorName":"Vattenfall InCharge","maxPowerKw":11,"isMegawatt":false,"status":"AVAILABLE","source":"ndw"}},{"type":"Feature","geometry":{"type":"Point","coordinates":[6.050212,52.39262]},"properties":{"type":"charge","layer":"passenger","locationId":"NLLOC012503","name":"NL, Roskamp, 53, 8181TK, Heerde","address":"Roskamp 53","city":"Heerde","operatorName":"Allego","maxPowerKw":0,"isMegawatt":false,"status":"AVAILABLE","source":"ndw","priceKwh":0.3488}},{"type":"Feature","geometry":{"type":"Point","coordinates":[6.050394,52.390621]},"properties":{"type":"charge","layer":"passenger","locationId":"4af0de01-b28e-45d3-bbd4-f2c2866f917d","name":"Rooboerskamp","address":"Rooboerskamp 32","city":"Heerde","operatorName":"Vattenfall InCharge","maxPowerKw":11,"isMegawatt":false,"status":"AVAILABLE","source":"ndw"}},{"type":"Feature","geometry":{"type":"Point","coordinates":[6.046676,52.385261]},"properties":{"type":"charge","layer":"passenger","locationId":"NLLOC003102","name":"NLD, Looierspad 8, 8181 KH, Heerde","address":"Looierspad 8","city":"Heerde","operatorName":"Allego","maxPowerKw":0,"isMegawatt":false,"status":"AVAILABLE","source":"ndw","priceKwh":0.3488}},{"type":"Feature","geometry":{"type":"Point","coordinates":[6.080822,52.433861]},"properties":{"type":"charge","layer":"passenger","locationId":"73b5c34408bffdbacb2ab195e0ae7c37","name":"Zwartekolk 16","address":"Zwartekolk 16","city":"Wapenveld","operatorName":"Vattenfall InCharge","maxPowerKw":11,"isMegawatt":false,"status":"AVAILABLE","source":"ndw"}},{"type":"Feature","geometry":{"type":"Point","coordinates":[6.042142,52.40112]},"properties":{"type":"charge","layer":"passenger","locationId":"271287d88530f037f380e31e112f1081","name":"Veldweg 1b","address":"Veldweg 1b","city":"Heerde","operatorName":"Vattenfall InCharge","maxPowerKw":11,"isMegawatt":false,"status":"AVAILABLE","source":"ndw"}},{"type":"Feature","geometry":{"type":"Point","coordinates":[6.09369,52.375842]},"properties":{"type":"charge","layer":"passenger","locationId":"db5b41f7-b45b-475d-af1f-e448474dd28f","name":"IJsseldijk 42","address":"IJsseldijk 42","city":"Veessen","operatorName":"Vattenfall InCharge","maxPowerKw":11,"isMegawatt":false,"status":"AVAILABLE","source":"ndw"}},{"type":"Feature","geometry":{"type":"Point","coordinates":[6.03478,52.38717]},"properties":{"type":"charge","layer":"passenger","locationId":"07bf07e490cb69d7d8467a344a261fd7","name":"Huis en Hof 13","address":"Huis en Hof 13","city":"Heerde","operatorName":"Vattenfall InCharge","maxPowerKw":11,"isMegawatt":false,"status":"AVAILABLE","source":"ndw"}},{"type":"Feature","geometry":{"type":"Point","coordinates":[6.043611,52.384545]},"properties":{"type":"charge","layer":"passenger","locationId":"NLLOC019953","name":"NL, Ramakerspad 26, 8181KP, Heerde","address":"Ramakerspad 26","city":"Heerde","operatorName":"Allego","maxPowerKw":0,"isMegawatt":false,"status":"AVAILABLE","source":"ndw","priceKwh":0.3488}},{"type":"Feature","geometry":{"type":"Point","coordinates":[6.036909,52.380567]},"properties":{"type":"charge","layer":"passenger","locationId":"7c40ed4f-25e4-4f9c-8084-47137c8c86a8","name":"De Zeis","address":"De Zeis 34","city":"Heerde","operatorName":"Vattenfall InCharge","maxPowerKw":11,"isMegawatt":false,"status":"AVAILABLE","source":"ndw"}},{"type":"Feature","geometry":{"type":"Point","coordinates":[6.028996,52.383164]},"properties":{"type":"charge","layer":"passenger","locationId":"7180d8b9-a5e0-4bb8-aafb-7d20d389f417","name":"Ten Veldhuize 38","address":"Ten Veldhuize 38","city":"Heerde","operatorName":"Vattenfall InCharge","maxPowerKw":11,"isMegawatt":false,"status":"AVAILABLE","source":"ndw"}},{"type":"Feature","geometry":{"type":"Point","coordinates":[6.0339,52.3804]},"properties":{"type":"charge","layer":"passenger","locationId":"58718ed63ef4f4424f0efa36e1e83498","name":"Haneweg 1","address":"Haneweg 1","city":"Heerde","operatorName":"Vattenfall InCharge","maxPowerKw":11,"isMegawatt":false,"status":"AVAILABLE","source":"ndw"}},{"type":"Feature","geometry":{"type":"Point","coordinates":[6.036014,52.393331]},"properties":{"type":"charge","layer":"passenger","locationId":"4ff8b207-1e9b-4034-98a2-587df5e88fb4","name":"Klaverweg","address":"Klaverweg 47","city":"Heerde","operatorName":"Vattenfall InCharge","maxPowerKw":11,"isMegawatt":false,"status":"AVAILABLE","source":"ndw"}},{"type":"Feature","geometry":{"type":"Point","coordinates":[6.05293,52.39086]},"properties":{"type":"charge","layer":"passenger","locationId":"97b769b9d7ca32c9c09c893b6412e737","name":"Postweg 37/b","address":"Postweg 37/b","city":"Heerde","operatorName":"Vattenfall InCharge","maxPowerKw":11,"isMegawatt":false,"status":"AVAILABLE","source":"ndw"}},{"type":"Feature","geometry":{"type":"Point","coordinates":[6.045805,52.388769]},"properties":{"type":"charge","layer":"passenger","locationId":"7e1ac398-e85f-41ec-8f31-5c3b7ba8858c","name":"Marktstraat","address":"Marktstraat 10","city":"Heerde","operatorName":"Vattenfall InCharge","maxPowerKw":11,"isMegawatt":false,"status":"AVAILABLE","source":"ndw"}},{"type":"Feature","geometry":{"type":"MultiPolygon","coordinates":[[[[6.09284914399675,52.45480686466742],[6.0948778618997155,52.45186381467158],[6.100061346528083,52.453973563533474],[6.10354688464416,52.453964134257085],[6.101986914335167,52.44780034911125],[6.10229561680862,52.44577229521632],[6.105024631866993,52.44258695739494],[6.109581002680471,52.440531107944736],[6.114107670351735,52.4380068387432],[6.11949029309962,52.43292608021751],[6.11638604240846,52.430199786454985],[6.118170133604997,52.42843719448921],[6.118245886158242,52.426644191022916],[6.1138729827142795,52.41985358803049],[6.113573543489784,52.41690599298572],[6.114742156514328,52.414255925030915],[6.110807890203206,52.40781286694448],[6.114858144850002,52.4069856873335],[6.116247704114327,52.40487544455732],[6.119065831343002,52.4026421804648],[6.123684272766257,52.401916466732644],[6.12537335380954,52.40017763963917],[6.127580311389533,52.39961761519444],[6.130553787465173,52.39997800369786],[6.129971636738407,52.39860363329364],[6.125209518922253,52.39262746699553],[6.12619771092195,52.38606622287739],[6.125831038700505,52.38405882242006],[6.123651460121399,52.381318467098815],[6.120854882233332,52.37954224805041],[6.113372111213153,52.37720908904064],[6.095134377575725,52.37384136712141],[6.0824642843398316,52.372069506309074],[6.07970218227524,52.37066505987693],[6.078204121173804,52.36904637492162],[6.0778458612864,52.36429726586726],[6.0743076087396215,52.36303494253508],[6.07485919470468,52.361922986334875],[6.06875860922314,52.36165178938772],[6.052327450811705,52.36097697554199],[6.047710074688539,52.3579641094622],[6.045421606068041,52.35713525702135],[6.04178472016336,52.35651260288333],[6.041726866118134,52.357900215224824],[6.042684756807416,52.36349534956618],[6.037779839546916,52.362072458999634],[6.033864262398965,52.36474661772509],[6.0346665557074415,52.36611211993466],[6.031784212009563,52.36723004086494],[6.0299519310670116,52.36774859524985],[6.017479675273085,52.369880918335845],[6.016379722978657,52.37046539126487],[6.01356708799425,52.371210315308815],[6.003683683934417,52.37447838802577],[5.991334213042352,52.37859808153224],[5.957117759950465,52.392897137829195],[5.951025060321694,52.39843725564539],[5.951861962436209,52.40095619526403],[5.966728027524844,52.40557187360585],[5.973725745551207,52.409769809306255],[5.9940040753708965,52.42606290978129],[6.017756187071346,52.44420892771613],[6.022668392294613,52.444103411598746],[6.035477639776659,52.4437785894211],[6.060677379803275,52.45045949619273],[6.063321506709056,52.45115174185835],[6.068769835083517,52.45130713670764],[6.0789921773538715,52.452083881343164],[6.09284914399675,52.45480686466742]]]]},"properties":{"type":"boundary","gemeente":"Heerde","code":"GM0246"}}]}