{"type":"FeatureCollection","metadata":{"gemeente":"Heeze-Leende","slug":"heeze-leende","code":"GM1658","generated_at":"2026-06-07T19:22:09.578Z","total_passenger":44,"total_freight":0,"bounds":[5.473602098220587,51.295201918214836,5.654705991138144,51.422456106633945],"operators":["DAEN Mobility","E-Flux by Road","EQUANS","Laadnet","Opcharge","Pluq","Vattenfall InCharge"]},"features":[{"type":"Feature","geometry":{"type":"Point","coordinates":[5.553691,51.349413]},"properties":{"type":"charge","layer":"passenger","locationId":"945209a5-4e29-4b45-9810-7669fe2d3f4a","name":"Kerkstraat","address":"Kerkstraat 2","city":"Leende","operatorName":"Vattenfall InCharge","maxPowerKw":11,"isMegawatt":false,"status":"AVAILABLE","source":"ndw"}},{"type":"Feature","geometry":{"type":"Point","coordinates":[5.623863,51.358836]},"properties":{"type":"charge","layer":"passenger","locationId":"4174400","name":"Laadnet Stichting Kemperhaeghe 2","address":"Albertlaan 19","city":"Sterksel","operatorName":"Laadnet","maxPowerKw":22,"isMegawatt":false,"status":"AVAILABLE","source":"ndw"}},{"type":"Feature","geometry":{"type":"Point","coordinates":[5.548531,51.348986]},"properties":{"type":"charge","layer":"passenger","locationId":"5d5cdea2-7c6c-4ce1-b73c-2ea6e25d6139","name":"Orchideestraat","address":"Orchideestraat 4","city":"Leende","operatorName":"Vattenfall InCharge","maxPowerKw":11,"isMegawatt":false,"status":"CHARGING","source":"ndw"}},{"type":"Feature","geometry":{"type":"Point","coordinates":[5.575032,51.378788]},"properties":{"type":"charge","layer":"passenger","locationId":"92fdfd45-c3d4-4309-a49a-6be9ada815c2","name":"Spoorlaan","address":"Spoorlaan 19","city":"Heeze","operatorName":"Vattenfall InCharge","maxPowerKw":11,"isMegawatt":false,"status":"AVAILABLE","source":"ndw"}},{"type":"Feature","geometry":{"type":"Point","coordinates":[5.577576,51.377221]},"properties":{"type":"charge","layer":"passenger","locationId":"f0e65e23-f430-45dc-b4dd-19a1f7fbd24d","name":"Jan Deckersstraat 34","address":"Jan Deckersstraat 34","city":"Heeze","operatorName":"Vattenfall InCharge","maxPowerKw":11,"isMegawatt":false,"status":"AVAILABLE","source":"ndw"}},{"type":"Feature","geometry":{"type":"Point","coordinates":[5.586461,51.367303]},"properties":{"type":"charge","layer":"passenger","locationId":"3411442","name":"Laadnet Tijssens Electrotechniek","address":"De Boelakkers 25","city":"Heeze","operatorName":"Laadnet","maxPowerKw":22,"isMegawatt":false,"status":"AVAILABLE","source":"ndw"}},{"type":"Feature","geometry":{"type":"Point","coordinates":[5.582748,51.334638]},"properties":{"type":"charge","layer":"passenger","locationId":"ecb7c26c8a644655a539","name":"Haviksoord Golfclub Leende","address":"Maarheezerweg Noord 11","city":"Leende","operatorName":"Opcharge","maxPowerKw":22,"isMegawatt":false,"status":"AVAILABLE","source":"ndw","priceKwh":0.49}},{"type":"Feature","geometry":{"type":"Point","coordinates":[5.54794,51.352301]},"properties":{"type":"charge","layer":"passenger","locationId":"895c67e081e92159061694dd28164078","name":"Breedvennen 33","address":"Breedvennen 33","city":"Leende","operatorName":"Vattenfall InCharge","maxPowerKw":11,"isMegawatt":false,"status":"AVAILABLE","source":"ndw"}},{"type":"Feature","geometry":{"type":"Point","coordinates":[5.562881,51.379315]},"properties":{"type":"charge","layer":"passenger","locationId":"4328748","name":"Laadnet Laadpunt","address":"Iras 19","city":"Heeze","operatorName":"Laadnet","maxPowerKw":11,"isMegawatt":false,"status":"AVAILABLE","source":"ndw"}},{"type":"Feature","geometry":{"type":"Point","coordinates":[5.578431,51.388225]},"properties":{"type":"charge","layer":"passenger","locationId":"a625da16-e7a3-487a-97ce-c4fc70c2445a","name":"Pastoor Gastlaan","address":"Pastoor Gastlaan 1B","city":"Heeze","operatorName":"Vattenfall InCharge","maxPowerKw":11,"isMegawatt":false,"status":"AVAILABLE","source":"ndw"}},{"type":"Feature","geometry":{"type":"Point","coordinates":[5.551102,51.350686]},"properties":{"type":"charge","layer":"passenger","locationId":"3806588","name":"Laadnet KommaHQ","address":"Valkenswaardseweg 3A","city":"Leende","operatorName":"Laadnet","maxPowerKw":22,"isMegawatt":false,"status":"AVAILABLE","source":"ndw"}},{"type":"Feature","geometry":{"type":"Point","coordinates":[5.582451,51.368357]},"properties":{"type":"charge","layer":"passenger","locationId":"2026382","name":"Laadnet Van Lierop BV","address":"Industrieweg 109","city":"Heeze","operatorName":"Laadnet","maxPowerKw":7,"isMegawatt":false,"status":"AVAILABLE","source":"ndw"}},{"type":"Feature","geometry":{"type":"Point","coordinates":[5.594448,51.363294]},"properties":{"type":"charge","layer":"passenger","locationId":"4174399","name":"Laadnet Stichting Kempenhaeghe Logistiek","address":"Sterkselseweg 65","city":"Heeze","operatorName":"Laadnet","maxPowerKw":22,"isMegawatt":false,"status":"AVAILABLE","source":"ndw"}},{"type":"Feature","geometry":{"type":"Point","coordinates":[5.600343,51.369743]},"properties":{"type":"charge","layer":"passenger","locationId":"668f95d9abe484001caf7d4e","name":"Conferentiehotel Kapellerput B.V.","address":"Somerenseweg 100","city":"Heeze","operatorName":"Pluq","maxPowerKw":22,"isMegawatt":false,"status":"AVAILABLE","source":"ndw","priceKwh":0.41}},{"type":"Feature","geometry":{"type":"Point","coordinates":[5.554594,51.352494]},"properties":{"type":"charge","layer":"passenger","locationId":"6b2f1acb-b6dc-44b3-a464-9f4e4736faad","name":"Sint Catharina en Sint Barbarastraat","address":"Sint Catharina en Sint Barbarastraat 12","city":"Leende","operatorName":"Vattenfall InCharge","maxPowerKw":11,"isMegawatt":false,"status":"AVAILABLE","source":"ndw"}},{"type":"Feature","geometry":{"type":"Point","coordinates":[5.57802,51.38245]},"properties":{"type":"charge","layer":"passenger","locationId":"3683cd6a000e22173707436d5ec7a2a5","name":"Binnenhof 26","address":"Binnenhof 26","city":"Heeze","operatorName":"Vattenfall InCharge","maxPowerKw":11,"isMegawatt":false,"status":"AVAILABLE","source":"ndw"}},{"type":"Feature","geometry":{"type":"Point","coordinates":[5.61418,51.35039]},"properties":{"type":"charge","layer":"passenger","locationId":"435ac27d9d5d348fb81f209104a10571","name":"Averbodeweg 4","address":"Averbodeweg 4","city":"Sterksel","operatorName":"Vattenfall InCharge","maxPowerKw":11,"isMegawatt":false,"status":"AVAILABLE","source":"ndw"}},{"type":"Feature","geometry":{"type":"Point","coordinates":[5.540107,51.351012]},"properties":{"type":"charge","layer":"passenger","locationId":"ca1da1da-8ae5-11e8-81c9-42010a840002","name":"EQUANS Fletcher Fletcher Hotel de Jagershorst","address":"Valkenswaardseweg 44","city":"Leende","operatorName":"EQUANS","maxPowerKw":0,"isMegawatt":false,"status":"AVAILABLE","source":"ndw","priceKwh":0.4}},{"type":"Feature","geometry":{"type":"Point","coordinates":[5.575903,51.387791]},"properties":{"type":"charge","layer":"passenger","locationId":"923558","name":"DAE_NL_2001316","address":"Soerakkerslaan 7","city":"Heeze","operatorName":"DAEN Mobility","maxPowerKw":11,"isMegawatt":false,"status":"CHARGING","source":"ndw","priceKwh":0.5}},{"type":"Feature","geometry":{"type":"Point","coordinates":[5.567238,51.38039]},"properties":{"type":"charge","layer":"passenger","locationId":"20689f69-d42d-4b6e-9922-8efa7ee561dc","name":"Ten Borchwardlaan","address":"Ten Borchwardlaan 66","city":"Heeze","operatorName":"Vattenfall InCharge","maxPowerKw":11,"isMegawatt":false,"status":"AVAILABLE","source":"ndw"}},{"type":"Feature","geometry":{"type":"Point","coordinates":[5.567685,51.382254]},"properties":{"type":"charge","layer":"passenger","locationId":"60d1c71bd29503ef671f4afb","name":"M&L Beheer","address":"Ten Borchwardplein 8","city":"Heeze","operatorName":"E-Flux by Road","maxPowerKw":22,"isMegawatt":false,"status":"AVAILABLE","source":"ndw","priceKwh":0.43}},{"type":"Feature","geometry":{"type":"Point","coordinates":[5.585713,51.365265]},"properties":{"type":"charge","layer":"passenger","locationId":"667acde04a54d6001cef654f","name":"Table du Sud Charging Station","address":"Koolakkers 12","city":"Heeze","operatorName":"E-Flux by Road","maxPowerKw":22,"isMegawatt":false,"status":"AVAILABLE","source":"ndw","priceKwh":0.38}},{"type":"Feature","geometry":{"type":"Point","coordinates":[5.624816,51.356513]},"properties":{"type":"charge","layer":"passenger","locationId":"fc306a94-17b1-49e6-9143-7fced84cd7da","name":"Sparrenlaan","address":"Sparrenlaan 13","city":"Sterksel","operatorName":"Vattenfall InCharge","maxPowerKw":11,"isMegawatt":false,"status":"AVAILABLE","source":"ndw"}},{"type":"Feature","geometry":{"type":"Point","coordinates":[5.573887,51.379875]},"properties":{"type":"charge","layer":"passenger","locationId":"779b7226-1e8c-4d0b-93eb-dcf6a5f470fb","name":"Berkelmanspad","address":"Berkelmanspad 19","city":"Heeze","operatorName":"Vattenfall InCharge","maxPowerKw":11,"isMegawatt":false,"status":"CHARGING","source":"ndw"}},{"type":"Feature","geometry":{"type":"Point","coordinates":[5.501941,51.35256]},"properties":{"type":"charge","layer":"passenger","locationId":"631f389eb63a302ab20ff230","name":"Straver 's station","address":"valkenswaardseweg 46","city":"leende","operatorName":"E-Flux by Road","maxPowerKw":22,"isMegawatt":false,"status":"AVAILABLE","source":"ndw","priceKwh":0.59}},{"type":"Feature","geometry":{"type":"Point","coordinates":[5.580425,51.387547]},"properties":{"type":"charge","layer":"passenger","locationId":"05dc5d95-4a92-4c6b-b950-7079f4331666","name":"Strabrecht","address":"Strabrecht 10","city":"Heeze","operatorName":"Vattenfall InCharge","maxPowerKw":11,"isMegawatt":false,"status":"AVAILABLE","source":"ndw"}},{"type":"Feature","geometry":{"type":"Point","coordinates":[5.567526,51.383269]},"properties":{"type":"charge","layer":"passenger","locationId":"5ec8980c-9ed1-4a42-8895-ff68be53d5a5","name":"Kamberg","address":"Kamberg 1","city":"Heeze","operatorName":"Vattenfall InCharge","maxPowerKw":11,"isMegawatt":false,"status":"CHARGING","source":"ndw"}},{"type":"Feature","geometry":{"type":"Point","coordinates":[5.540107,51.351012]},"properties":{"type":"charge","layer":"passenger","locationId":"4719","name":"EQUANS Fletcher Fletcher Hotel de Jagershorst","address":"Valkenswaardseweg 44","city":"Leende","operatorName":"EQUANS","maxPowerKw":0,"isMegawatt":false,"status":"AVAILABLE","source":"ndw"}},{"type":"Feature","geometry":{"type":"Point","coordinates":[5.561095,51.383252]},"properties":{"type":"charge","layer":"passenger","locationId":"56994cf68d502f7dd48f19999e73b249","name":"De Mandenmaker 1","address":"De Mandenmaker 1","city":"Heeze","operatorName":"Vattenfall InCharge","maxPowerKw":11,"isMegawatt":false,"status":"AVAILABLE","source":"ndw"}},{"type":"Feature","geometry":{"type":"Point","coordinates":[5.56932,51.38214]},"properties":{"type":"charge","layer":"passenger","locationId":"209c805a0ff3c1502243f4cf8a2f111c","name":"Corweide 13","address":"Corweide 13","city":"Heeze","operatorName":"Vattenfall InCharge","maxPowerKw":11,"isMegawatt":false,"status":"AVAILABLE","source":"ndw"}},{"type":"Feature","geometry":{"type":"Point","coordinates":[5.557378,51.348508]},"properties":{"type":"charge","layer":"passenger","locationId":"49dc772f81e74beec656564a7fff6f93","name":"Broekerstraat 22","address":"Broekerstraat 22","city":"Leende","operatorName":"Vattenfall InCharge","maxPowerKw":11,"isMegawatt":false,"status":"AVAILABLE","source":"ndw"}},{"type":"Feature","geometry":{"type":"Point","coordinates":[5.628332,51.357061]},"properties":{"type":"charge","layer":"passenger","locationId":"a90a021d-15c3-42e8-b580-6ed84dabb926","name":"Koolmeesstraat","address":"Koolmeesstraat 5","city":"Sterksel","operatorName":"Vattenfall InCharge","maxPowerKw":11,"isMegawatt":false,"status":"AVAILABLE","source":"ndw"}},{"type":"Feature","geometry":{"type":"Point","coordinates":[5.611237,51.350768]},"properties":{"type":"charge","layer":"passenger","locationId":"c8f3ad3e9b6e7ddfe4cae9730d307309","name":"Beukenlaan 2","address":"Beukenlaan 2","city":"Sterksel","operatorName":"Vattenfall InCharge","maxPowerKw":11,"isMegawatt":false,"status":"CHARGING","source":"ndw"}},{"type":"Feature","geometry":{"type":"Point","coordinates":[5.54945,51.35244]},"properties":{"type":"charge","layer":"passenger","locationId":"e58632c92d22ff3c49337febfb8e6033","name":"Kraanven 37","address":"Kraanven 37","city":"Leende","operatorName":"Vattenfall InCharge","maxPowerKw":11,"isMegawatt":false,"status":"AVAILABLE","source":"ndw"}},{"type":"Feature","geometry":{"type":"Point","coordinates":[5.573916,51.379835]},"properties":{"type":"charge","layer":"passenger","locationId":"3875fb619f6aa425f98da5f5338729c4","name":"Berkelmanspad 17","address":"Berkelmanspad 17","city":"Heeze","operatorName":"Vattenfall InCharge","maxPowerKw":11,"isMegawatt":false,"status":"AVAILABLE","source":"ndw"}},{"type":"Feature","geometry":{"type":"Point","coordinates":[5.579384,51.375675]},"properties":{"type":"charge","layer":"passenger","locationId":"f8256805-4114-4a9d-9567-f0520a288652","name":"Nieuwendijk","address":"Nieuwendijk 23","city":"Heeze","operatorName":"Vattenfall InCharge","maxPowerKw":11,"isMegawatt":false,"status":"AVAILABLE","source":"ndw"}},{"type":"Feature","geometry":{"type":"Point","coordinates":[5.569583,51.379318]},"properties":{"type":"charge","layer":"passenger","locationId":"12619f25-6af3-4daa-a12c-8d0459b72769","name":"Kruiseik","address":"Kruiseik 31","city":"Heeze","operatorName":"Vattenfall InCharge","maxPowerKw":11,"isMegawatt":false,"status":"AVAILABLE","source":"ndw"}},{"type":"Feature","geometry":{"type":"Point","coordinates":[5.561604,51.376482]},"properties":{"type":"charge","layer":"passenger","locationId":"b8f71578f630a62e5f45b31290adde9a","name":"Spieker 31","address":"Spieker 31","city":"Heeze","operatorName":"Vattenfall InCharge","maxPowerKw":11,"isMegawatt":false,"status":"AVAILABLE","source":"ndw"}},{"type":"Feature","geometry":{"type":"Point","coordinates":[5.579723,51.380123]},"properties":{"type":"charge","layer":"passenger","locationId":"17c297a0-11d5-451d-aa17-1a144c93ff3a","name":"Vullinghspark","address":"Vullinghspark 5","city":"Heeze","operatorName":"Vattenfall InCharge","maxPowerKw":11,"isMegawatt":false,"status":"AVAILABLE","source":"ndw"}},{"type":"Feature","geometry":{"type":"Point","coordinates":[5.550041,51.350091]},"properties":{"type":"charge","layer":"passenger","locationId":"531ae906-9876-43d0-bbcb-49dc953b8e67","name":"Ranonkelstraat","address":"Ranonkelstraat 3","city":"Leende","operatorName":"Vattenfall InCharge","maxPowerKw":11,"isMegawatt":false,"status":"AVAILABLE","source":"ndw"}},{"type":"Feature","geometry":{"type":"Point","coordinates":[5.554112,51.354694]},"properties":{"type":"charge","layer":"passenger","locationId":"2310df95-4e6c-458a-8d31-2bed02d3d92c","name":"Huisplaats","address":"Huisplaats 13","city":"Leende","operatorName":"Vattenfall InCharge","maxPowerKw":11,"isMegawatt":false,"status":"AVAILABLE","source":"ndw"}},{"type":"Feature","geometry":{"type":"Point","coordinates":[5.55311,51.34847]},"properties":{"type":"charge","layer":"passenger","locationId":"4467109f749fc0a0060c26421360e12d","name":"Julianastraat 9","address":"Julianastraat 9","city":"Leende","operatorName":"Vattenfall InCharge","maxPowerKw":11,"isMegawatt":false,"status":"AVAILABLE","source":"ndw"}},{"type":"Feature","geometry":{"type":"Point","coordinates":[5.580374,51.383406]},"properties":{"type":"charge","layer":"passenger","locationId":"073c9395-6ed0-4bfb-9599-9dcd6807cc50","name":"Kapelstraat","address":"Kapelstraat 17","city":"Heeze","operatorName":"Vattenfall InCharge","maxPowerKw":11,"isMegawatt":false,"status":"AVAILABLE","source":"ndw"}},{"type":"Feature","geometry":{"type":"Point","coordinates":[5.574751,51.37506]},"properties":{"type":"charge","layer":"passenger","locationId":"6a24a66e-931e-40a4-96ac-f1eeac535f29","name":"De Strohuls","address":"De Strohuls 7","city":"Heeze","operatorName":"Vattenfall InCharge","maxPowerKw":11,"isMegawatt":false,"status":"AVAILABLE","source":"ndw"}},{"type":"Feature","geometry":{"type":"MultiPolygon","coordinates":[[[[5.637871489402791,51.406707087701704],[5.639000739659647,51.39797085749112],[5.6389188447800285,51.389172764101644],[5.638940957878982,51.3891233555416],[5.653647937728883,51.35625056867437],[5.654705991138144,51.35387686669214],[5.647527168194546,51.352075269985306],[5.648772869361387,51.35016700113236],[5.642601762720071,51.348396335002086],[5.639924336731311,51.34673658483796],[5.639536035587848,51.343102005958215],[5.640636159925778,51.34186138411922],[5.640191066199606,51.3395737131014],[5.636722186031014,51.34083747932916],[5.636635849322885,51.33783329284728],[5.6409679210323835,51.33746025762111],[5.644115523493868,51.336385516147736],[5.643301709618954,51.3337080584679],[5.641276158298973,51.33407648745582],[5.6385903242338244,51.33185889610254],[5.634455253800861,51.333397814672814],[5.6331265393648655,51.331313633889614],[5.634929173169194,51.33021771794747],[5.631293657038003,51.32754036632212],[5.621145879090158,51.33118798935113],[5.618966096268403,51.32894928262594],[5.610051108530143,51.330822954822175],[5.605315110422899,51.33180451738094],[5.602431833440899,51.330991869576735],[5.58545885040582,51.32620526576221],[5.567925242619533,51.32108658172919],[5.537593691332926,51.30755679775752],[5.528487857088718,51.30275040383795],[5.515772333953745,51.295201918214836],[5.4848578243418356,51.29999940313656],[5.48573234104887,51.30243233455046],[5.48919259637988,51.306470628305],[5.490677631445205,51.310298434911125],[5.49137038412246,51.31422179556189],[5.490087640457964,51.316678397160736],[5.489054520775511,51.31836814485227],[5.4829300477546665,51.32134085944011],[5.477167116904875,51.327519871484],[5.4760202363202195,51.331216166279475],[5.473602098220587,51.33398267943578],[5.4781336695129434,51.338381290370805],[5.481648903531712,51.34071430269924],[5.4960288495721805,51.346507335727736],[5.496667494395769,51.352649649755584],[5.494286336116886,51.353291866728256],[5.493827263584783,51.35403783457688],[5.494142847129635,51.35548633257024],[5.527179381178844,51.366940654910195],[5.516416524277668,51.37833513150059],[5.512002825040535,51.38381094396969],[5.504872939083721,51.4001544808618],[5.505183452162007,51.40341706870417],[5.507611822384416,51.40453187838001],[5.525813999940059,51.40469679286848],[5.5355788987913845,51.404605565132286],[5.5363789341145075,51.40319313457904],[5.557697478044843,51.40545537414932],[5.557857265475082,51.40551368988659],[5.56077782923221,51.4061596780483],[5.5613674106995035,51.4049002871278],[5.564248429631541,51.40487984378039],[5.566421028469237,51.40553936667894],[5.565971910946491,51.40734828182908],[5.569186664992191,51.40877895577351],[5.585363781120798,51.41428573369054],[5.598675731537299,51.418332930612486],[5.639014851314338,51.422456106633945],[5.637871489402791,51.406707087701704]]]]},"properties":{"type":"boundary","gemeente":"Heeze-Leende","code":"GM1658"}}]}