{"type":"FeatureCollection","metadata":{"gemeente":"Hendrik-Ido-Ambacht","slug":"hendrik-ido-ambacht","code":"GM0531","generated_at":"2026-06-07T19:22:09.578Z","total_passenger":163,"total_freight":2,"bounds":[4.600155315133887,51.823589339485004,4.672606320029928,51.8697109226457],"operators":["Allego","E-Flux by Road","Fastned","IONITY","Shell Recharge","Vattenfall InCharge","e-VOLTT"]},"features":[{"type":"Feature","geometry":{"type":"Point","coordinates":[4.645737,51.831475]},"properties":{"type":"charge","layer":"passenger","locationId":"NLLOC015072","name":"NL, Dreef 21, 3344 GJ Hendrik-Ido-Ambacht","address":"Dreef 21","city":"Hendrik-Ido-Ambacht","operatorName":"Allego","maxPowerKw":0,"isMegawatt":false,"status":"AVAILABLE","source":"ndw","priceKwh":0.511}},{"type":"Feature","geometry":{"type":"Point","coordinates":[4.616621,51.834946]},"properties":{"type":"charge","layer":"passenger","locationId":"50396","name":"Fastned Sandelingen-West","address":"Sandelingen-West A16","city":"Hendrik-Ido-Ambacht","operatorName":"Fastned","maxPowerKw":300,"isMegawatt":false,"status":"AVAILABLE","source":"ndw","priceKwh":0.6364}},{"type":"Feature","geometry":{"type":"Point","coordinates":[4.648579,51.835376]},"properties":{"type":"charge","layer":"passenger","locationId":"NLLOC002092","name":"NLD, Hendrik Ido Ambacht, Sophialaan 15","address":"Sophialaan 13","city":"Hendrik Ido Ambacht","operatorName":"Allego","maxPowerKw":0,"isMegawatt":false,"status":"AVAILABLE","source":"ndw","priceKwh":0.511}},{"type":"Feature","geometry":{"type":"Point","coordinates":[4.622923,51.841716]},"properties":{"type":"charge","layer":"passenger","locationId":"NLLOC000257","name":"NLD, Hendrik Ido Ambacht, Aalborg Haackslaan 40","address":"Aalborg Haackslaan 40","city":"Hendrik Ido Ambacht","operatorName":"Allego","maxPowerKw":0,"isMegawatt":false,"status":"AVAILABLE","source":"ndw","priceKwh":0.511}},{"type":"Feature","geometry":{"type":"Point","coordinates":[4.651723,51.844307]},"properties":{"type":"charge","layer":"passenger","locationId":"NLLOC006990","name":"NL, De Raadtweg 27, 3341 SB, Hendrik Ido Ambacht","address":"De Raadtweg 27","city":"Hendrik Ido Ambacht","operatorName":"Allego","maxPowerKw":0,"isMegawatt":false,"status":"AVAILABLE","source":"ndw","priceKwh":0.511}},{"type":"Feature","geometry":{"type":"Point","coordinates":[4.636353,51.832845]},"properties":{"type":"charge","layer":"passenger","locationId":"NLLOC014601","name":"NL, De Heerenhof, 1, 3343EZ, Hendrik Ido Ambacht","address":"De Heerenhof 1","city":"Hendrik Ido Ambacht","operatorName":"Allego","maxPowerKw":0,"isMegawatt":false,"status":"AVAILABLE","source":"ndw","priceKwh":0.511}},{"type":"Feature","geometry":{"type":"Point","coordinates":[4.64168,51.844877]},"properties":{"type":"charge","layer":"passenger","locationId":"8a690d16-4f3c-11e8-9aa2-42010a840002","name":"NLD, Hendrik Ido Ambacht, P.C. Hooftsingel 73","address":"P.C. Hooftsingel 73","city":"Hendrik Ido Ambacht","operatorName":"Allego","maxPowerKw":0,"isMegawatt":false,"status":"AVAILABLE","source":"ndw"}},{"type":"Feature","geometry":{"type":"Point","coordinates":[4.642613,51.840444]},"properties":{"type":"charge","layer":"passenger","locationId":"ed7356ce-6ef6-11ea-93de-42010a840003","name":"NL, Henriette Ronnerstraat 3, 3343 DE, Hendrik Ido Ambacht","address":"Henriette Ronnerstraat 3","city":"Hendrik Ido Ambacht","operatorName":"Allego","maxPowerKw":0,"isMegawatt":false,"status":"AVAILABLE","source":"ndw"}},{"type":"Feature","geometry":{"type":"Point","coordinates":[4.641934,51.835352]},"properties":{"type":"charge","layer":"passenger","locationId":"NLLOC008569","name":"NL, Beukengaarde 1, 3344PT, Hendrik Ido Ambacht","address":"Beukengaarde 1","city":"Hendrik Ido Ambacht","operatorName":"Allego","maxPowerKw":0,"isMegawatt":false,"status":"AVAILABLE","source":"ndw","priceKwh":0.511}},{"type":"Feature","geometry":{"type":"Point","coordinates":[4.645738,51.850739]},"properties":{"type":"charge","layer":"passenger","locationId":"8b67a7d6-4f3c-11e8-9ed8-42010a840002","name":"NLD, Hendrik Ido Ambacht, Willem de Zwijgerstraat 1","address":"Willem de Zwijgerstraat 1-A","city":"Hendrik Ido Ambacht","operatorName":"Allego","maxPowerKw":0,"isMegawatt":false,"status":"AVAILABLE","source":"ndw"}},{"type":"Feature","geometry":{"type":"Point","coordinates":[4.644488,51.848266]},"properties":{"type":"charge","layer":"passenger","locationId":"a8255e04-4f3c-11e8-84b4-42010a840002","name":"NLD, Hendrik Ido Ambacht, Mauritsstraat 131","address":"Mauritsstraat 131","city":"Hendrik Ido Ambacht","operatorName":"Allego","maxPowerKw":0,"isMegawatt":false,"status":"CHARGING","source":"ndw"}},{"type":"Feature","geometry":{"type":"Point","coordinates":[4.645781,51.83889]},"properties":{"type":"charge","layer":"passenger","locationId":"fddebb1e-ba57-11ea-b653-42010a840003","name":"NL, Baars 14, 3344 HG, Hendrik Ido Ambacht","address":"Baars 14","city":"Hendrik Ido Ambacht","operatorName":"Allego","maxPowerKw":0,"isMegawatt":false,"status":"AVAILABLE","source":"ndw"}},{"type":"Feature","geometry":{"type":"Point","coordinates":[4.624605,51.841141]},"properties":{"type":"charge","layer":"passenger","locationId":"83a1ab14-4f3c-11e8-8361-42010a840002","name":"NLD, Hendrik Ido Ambacht, Machteld Sandelijnslaan 56","address":"Machteld Sandelijnslaan 56","city":"Hendrik Ido Ambacht","operatorName":"Allego","maxPowerKw":0,"isMegawatt":false,"status":"AVAILABLE","source":"ndw"}},{"type":"Feature","geometry":{"type":"Point","coordinates":[4.644838,51.831127]},"properties":{"type":"charge","layer":"passenger","locationId":"87f996b8-e16a-11f0-9439-42010aa400b8","name":"NLD, Hendrik Ido Ambacht, Laagveen 42","address":"Laagveen 42","city":"Hendrik Ido Ambacht","operatorName":"Allego","maxPowerKw":0,"isMegawatt":false,"status":"AVAILABLE","source":"ndw"}},{"type":"Feature","geometry":{"type":"Point","coordinates":[4.646864,51.841862]},"properties":{"type":"charge","layer":"passenger","locationId":"8a544ef8-4f3c-11e8-adc8-42010a840002","name":"NLD, Hendrik Ido Ambacht, Van Renesseborch 61","address":"Van Renesseborch 61","city":"Hendrik Ido Ambacht","operatorName":"Allego","maxPowerKw":0,"isMegawatt":false,"status":"CHARGING","source":"ndw"}},{"type":"Feature","geometry":{"type":"Point","coordinates":[4.639925,51.828115]},"properties":{"type":"charge","layer":"passenger","locationId":"NLLOC000152","name":"NLD, Hendrik Ido Ambacht, Bolster 116","address":"Bolster 116","city":"Hendrik Ido Ambacht","operatorName":"Allego","maxPowerKw":0,"isMegawatt":false,"status":"CHARGING","source":"ndw","priceKwh":0.511}},{"type":"Feature","geometry":{"type":"Point","coordinates":[4.620995,51.834753]},"properties":{"type":"charge","layer":"passenger","locationId":"8317cf40-6299-11e9-9c96-42010a840fd8","name":"Fastned Sandelingen-Oost","address":"Sandelingen-Oost A16","city":"Hendrik-Ido-Ambacht","operatorName":"Fastned","maxPowerKw":175,"isMegawatt":false,"status":"AVAILABLE","source":"ndw"}},{"type":"Feature","geometry":{"type":"Point","coordinates":[4.62085,51.833654]},"properties":{"type":"charge","layer":"passenger","locationId":"7837b992-3b23-11ef-b9f2-42010aa400b8","name":"Shell Recharge Rijksweg A16/E19 OZ","address":"Rijksweg A16/E19 OZ","city":"Hendrik Ido Ambacht","operatorName":"Shell Recharge","maxPowerKw":175,"isMegawatt":false,"status":"AVAILABLE","source":"ndw"}},{"type":"Feature","geometry":{"type":"Point","coordinates":[4.651938,51.829508]},"properties":{"type":"charge","layer":"passenger","locationId":"NLLOC005993","name":"NLD, Akkerviool 9 3344AA Hendrik-Ido-Ambacht","address":"Akkerviool 9","city":"Hendrik-Ido-Ambacht","operatorName":"Allego","maxPowerKw":0,"isMegawatt":false,"status":"CHARGING","source":"ndw","priceKwh":0.511}},{"type":"Feature","geometry":{"type":"Point","coordinates":[4.645032,51.844837]},"properties":{"type":"charge","layer":"passenger","locationId":"NLLOC002159","name":"NLD, Hendrik Ido Ambacht, Van der Lekstraat 16","address":"Van der Lekstraat 16","city":"Hendrik Ido Ambacht","operatorName":"Allego","maxPowerKw":0,"isMegawatt":false,"status":"AVAILABLE","source":"ndw","priceKwh":0.511}},{"type":"Feature","geometry":{"type":"Point","coordinates":[4.63192,51.834817]},"properties":{"type":"charge","layer":"passenger","locationId":"NLLOC001693","name":"NLD, Hendrik Ido Ambacht, Ring 318","address":"Ring 318","city":"Hendrik Ido Ambacht","operatorName":"Allego","maxPowerKw":0,"isMegawatt":false,"status":"AVAILABLE","source":"ndw","priceKwh":0.511}},{"type":"Feature","geometry":{"type":"Point","coordinates":[4.645032,51.844837]},"properties":{"type":"charge","layer":"passenger","locationId":"56c8dcc0-4f3c-11e8-80c1-42010a840002","name":"NLD, Hendrik Ido Ambacht, Van der Lekstraat 16","address":"Van der Lekstraat 16","city":"Hendrik Ido Ambacht","operatorName":"Allego","maxPowerKw":0,"isMegawatt":false,"status":"AVAILABLE","source":"ndw"}},{"type":"Feature","geometry":{"type":"Point","coordinates":[4.625858,51.840037]},"properties":{"type":"charge","layer":"passenger","locationId":"NLLOC000023","name":"NL, Agnes Bartoutslaan 33, 3342 GE Hendrik Ido Ambacht","address":"Agnes Bartoutslaan 33","city":"Hendrik Ido Ambacht","operatorName":"Allego","maxPowerKw":0,"isMegawatt":false,"status":"AVAILABLE","source":"ndw","priceKwh":0.511}},{"type":"Feature","geometry":{"type":"Point","coordinates":[4.628276,51.835401]},"properties":{"type":"charge","layer":"passenger","locationId":"NLLOC000647","name":"NLD, Hendrik Ido Ambacht, Molenhoef 44","address":"Molenhoef 44","city":"Hendrik Ido Ambacht","operatorName":"Allego","maxPowerKw":0,"isMegawatt":false,"status":"AVAILABLE","source":"ndw","priceKwh":0.511}},{"type":"Feature","geometry":{"type":"Point","coordinates":[4.62085,51.833654]},"properties":{"type":"charge","layer":"passenger","locationId":"48","name":"Shell Recharge NL0225 - Shell Sandelingen Oost","address":"Rijksweg A16/E19 OZ","city":"Hendrik Ido Ambacht","operatorName":"Shell Recharge","maxPowerKw":175,"isMegawatt":false,"status":"AVAILABLE","source":"ndw","priceKwh":0.7025}},{"type":"Feature","geometry":{"type":"Point","coordinates":[4.641133,51.83049]},"properties":{"type":"charge","layer":"passenger","locationId":"NLLOC013275","name":"NL, Hoogveen 18, 3344EP, Hendrik ido Ambacht","address":"Hoogveen 18","city":"Hendrik Ido Ambacht","operatorName":"Allego","maxPowerKw":0,"isMegawatt":false,"status":"AVAILABLE","source":"ndw","priceKwh":0.511}},{"type":"Feature","geometry":{"type":"Point","coordinates":[4.644838,51.831127]},"properties":{"type":"charge","layer":"passenger","locationId":"NLLOC000089","name":"NLD, Hendrik Ido Ambacht, Laagveen 42","address":"Laagveen 42","city":"Hendrik Ido Ambacht","operatorName":"Allego","maxPowerKw":0,"isMegawatt":false,"status":"AVAILABLE","source":"ndw","priceKwh":0.511}},{"type":"Feature","geometry":{"type":"Point","coordinates":[4.64357,51.832212]},"properties":{"type":"charge","layer":"passenger","locationId":"NLLOC007113","name":"NL, Iepengaarde 1, 3344 DH, Hendrik Ido Ambacht","address":"Iepengaarde 1","city":"Hendrik Ido Ambacht","operatorName":"Allego","maxPowerKw":0,"isMegawatt":false,"status":"CHARGING","source":"ndw","priceKwh":0.511}},{"type":"Feature","geometry":{"type":"Point","coordinates":[4.658003,51.830961]},"properties":{"type":"charge","layer":"passenger","locationId":"NLLOC006352","name":"NL, Fonteinkruid 65, 3344 CA, Hendrik Ido Ambacht","address":"Fonteinkruid 65","city":"Hendrik Ido Ambacht","operatorName":"Allego","maxPowerKw":0,"isMegawatt":false,"status":"AVAILABLE","source":"ndw","priceKwh":0.511}},{"type":"Feature","geometry":{"type":"Point","coordinates":[4.639298,51.839845]},"properties":{"type":"charge","layer":"passenger","locationId":"NLLOC000151","name":"NLD, Hendrik Ido Ambacht, Ary Schefferlaan 14","address":"Ary Schefferlaan 14","city":"Hendrik Ido Ambacht","operatorName":"Allego","maxPowerKw":0,"isMegawatt":false,"status":"AVAILABLE","source":"ndw","priceKwh":0.511}},{"type":"Feature","geometry":{"type":"Point","coordinates":[4.640335,51.838693]},"properties":{"type":"charge","layer":"passenger","locationId":"NLLOC016804","name":"NL, Aelbert Cuyplaan 71, 3343 DA Hendrik Ido Ambacht","address":"Albert Cuyplaan 71","city":"Hendrik Ido Ambacht","operatorName":"Allego","maxPowerKw":0,"isMegawatt":false,"status":"AVAILABLE","source":"ndw","priceKwh":0.511}},{"type":"Feature","geometry":{"type":"Point","coordinates":[4.63055,51.844729]},"properties":{"type":"charge","layer":"passenger","locationId":"b06046ba-4f3c-11e8-96cf-42010a840002","name":"NLD, Hendrik Ido Ambacht, Reeweg 96","address":"Reeweg 96","city":"Hendrik Ido Ambacht","operatorName":"Allego","maxPowerKw":0,"isMegawatt":false,"status":"AVAILABLE","source":"ndw"}},{"type":"Feature","geometry":{"type":"Point","coordinates":[4.631118,51.839238]},"properties":{"type":"charge","layer":"passenger","locationId":"9737b05a-871d-11e9-9775-42010a840003","name":"NLD, Ring 83 3343BK Hendrik-Ido-Ambacht","address":"Ring 83","city":"Hendrik-Ido-Ambacht","operatorName":"Allego","maxPowerKw":0,"isMegawatt":false,"status":"AVAILABLE","source":"ndw"}},{"type":"Feature","geometry":{"type":"Point","coordinates":[4.644801,51.843013]},"properties":{"type":"charge","layer":"passenger","locationId":"b04437b8-4f3c-11e8-a3b1-42010a840002","name":"NLD, Hendrik Ido Ambacht, van Duyvenvoordenlaan 36","address":"van Duyvenvoordenlaan 36","city":"Hendrik Ido Ambacht","operatorName":"Allego","maxPowerKw":0,"isMegawatt":false,"status":"AVAILABLE","source":"ndw"}},{"type":"Feature","geometry":{"type":"Point","coordinates":[4.63873,51.83292]},"properties":{"type":"charge","layer":"passenger","locationId":"ddb09b2e-4f3c-11e8-9f07-42010a840002","name":"NLD, Aardbeigaarde 25, 3344 DC Hendrik Ido Ambacht","address":"Aardbeigaarde 25","city":"Hendrik Ido Ambacht","operatorName":"Allego","maxPowerKw":0,"isMegawatt":false,"status":"AVAILABLE","source":"ndw"}},{"type":"Feature","geometry":{"type":"Point","coordinates":[4.641934,51.835352]},"properties":{"type":"charge","layer":"passenger","locationId":"d7669018-2f7f-11eb-8258-42010a840003","name":"NL, Beukengaarde 1, 3344PT, Hendrik Ido Ambacht","address":"Beukengaarde 1","city":"Hendrik Ido Ambacht","operatorName":"Allego","maxPowerKw":0,"isMegawatt":false,"status":"AVAILABLE","source":"ndw"}},{"type":"Feature","geometry":{"type":"Point","coordinates":[4.636986,51.838104]},"properties":{"type":"charge","layer":"passenger","locationId":"NLLOC001919","name":"NLD, Hendrik Ido Ambacht, Avelingen 135","address":"Avelingen 135","city":"Hendrik Ido Ambacht","operatorName":"Allego","maxPowerKw":0,"isMegawatt":false,"status":"AVAILABLE","source":"ndw","priceKwh":0.511}},{"type":"Feature","geometry":{"type":"Point","coordinates":[4.627697,51.846783]},"properties":{"type":"charge","layer":"passenger","locationId":"9b1fefee-4f3c-11e8-a1d7-42010a840002","name":"NLD, Hendrik Ido Ambacht, Schultz van Haegenstraat 1","address":"Schultz van Haegenstraat 1","city":"Hendrik Ido Ambacht","operatorName":"Allego","maxPowerKw":0,"isMegawatt":false,"status":"AVAILABLE","source":"ndw"}},{"type":"Feature","geometry":{"type":"Point","coordinates":[4.641729,51.82842]},"properties":{"type":"charge","layer":"passenger","locationId":"e4716d18-eab3-11ed-b78e-42010aa40fc0","name":"NL, Uiterwaard 1, 3344 ED Hendrik-Ido-Ambacht","address":"Uiterwaard 1","city":"Hendrik-Ido-Ambacht","operatorName":"Allego","maxPowerKw":0,"isMegawatt":false,"status":"AVAILABLE","source":"ndw"}},{"type":"Feature","geometry":{"type":"Point","coordinates":[4.624285,51.843545]},"properties":{"type":"charge","layer":"passenger","locationId":"NLLOC008721","name":"NL, Piet Heinstraat 43, 3342CK, Hendrik Ido Ambacht","address":"Piet Heinstraat 43","city":"Hendrik Ido Ambacht","operatorName":"Allego","maxPowerKw":0,"isMegawatt":false,"status":"AVAILABLE","source":"ndw","priceKwh":0.511}},{"type":"Feature","geometry":{"type":"Point","coordinates":[4.63873,51.83292]},"properties":{"type":"charge","layer":"passenger","locationId":"NLLOC002350","name":"NLD, Aardbeigaarde 25, 3344 DC Hendrik Ido Ambacht","address":"Aardbeigaarde 25","city":"Hendrik Ido Ambacht","operatorName":"Allego","maxPowerKw":0,"isMegawatt":false,"status":"AVAILABLE","source":"ndw","priceKwh":0.511}},{"type":"Feature","geometry":{"type":"Point","coordinates":[4.634472,51.84522]},"properties":{"type":"charge","layer":"passenger","locationId":"6a182b810ec722ad26779ee3","name":"Hendrik-Ido-Ambacht/ Weteringsingel 19","address":"3342AE 19","city":"Hendrik-Ido-Ambacht","operatorName":"E-Flux by Road","maxPowerKw":14,"isMegawatt":false,"status":"AVAILABLE","source":"ndw","priceKwh":0.5217}},{"type":"Feature","geometry":{"type":"Point","coordinates":[4.642781,51.833753]},"properties":{"type":"charge","layer":"passenger","locationId":"635e8b3e-80ab-11ec-9df2-42010a840003","name":"NL, Druivengaarde 64, 3344PK Hendrik Ido Ambacht","address":"Druivengaarde 64","city":"Hendrik Ido Ambacht","operatorName":"Allego","maxPowerKw":0,"isMegawatt":false,"status":"AVAILABLE","source":"ndw"}},{"type":"Feature","geometry":{"type":"Point","coordinates":[4.643457,51.838285]},"properties":{"type":"charge","layer":"passenger","locationId":"95caac78-4f3c-11e8-8370-42010a840002","name":"NLD, Hendrik Ido Ambacht, Olijfgaarde 2","address":"Olijfgaarde 2","city":"Hendrik Ido Ambacht","operatorName":"Allego","maxPowerKw":0,"isMegawatt":false,"status":"AVAILABLE","source":"ndw"}},{"type":"Feature","geometry":{"type":"Point","coordinates":[4.639832,51.847849]},"properties":{"type":"charge","layer":"passenger","locationId":"f39db99e-4f3c-11e8-9325-42010a840002","name":"NLD, Brederodehof 26, 3341 VB, Hendrik Ido Ambacht","address":"Brederodehof 26","city":"Hendrik Ido Ambacht","operatorName":"Allego","maxPowerKw":0,"isMegawatt":false,"status":"AVAILABLE","source":"ndw"}},{"type":"Feature","geometry":{"type":"Point","coordinates":[4.620995,51.834753]},"properties":{"type":"charge","layer":"passenger","locationId":"50006","name":"Fastned Sandelingen-Oost","address":"Sandelingen-Oost A16","city":"Hendrik-Ido-Ambacht","operatorName":"Fastned","maxPowerKw":175,"isMegawatt":false,"status":"AVAILABLE","source":"ndw","priceKwh":0.6364}},{"type":"Feature","geometry":{"type":"Point","coordinates":[4.616621,51.834946]},"properties":{"type":"charge","layer":"passenger","locationId":"f18fa186-a825-11eb-be47-42010a840076","name":"Fastned Sandelingen-West","address":"Sandelingen-West A16","city":"Hendrik-Ido-Ambacht","operatorName":"Fastned","maxPowerKw":300,"isMegawatt":false,"status":"AVAILABLE","source":"ndw"}},{"type":"Feature","geometry":{"type":"Point","coordinates":[4.639832,51.847849]},"properties":{"type":"charge","layer":"passenger","locationId":"NLLOC002411","name":"NLD, Brederodehof 26, 3341 VB, Hendrik Ido Ambacht","address":"Brederodehof 26","city":"Hendrik Ido Ambacht","operatorName":"Allego","maxPowerKw":0,"isMegawatt":false,"status":"CHARGING","source":"ndw","priceKwh":0.511}},{"type":"Feature","geometry":{"type":"Point","coordinates":[4.643064,51.836267]},"properties":{"type":"charge","layer":"passenger","locationId":"585c2714-6df8-11e9-9043-42010a840003","name":"NLD, Bramengaarde 33 3344PD Hendrik-Ido-Ambacht","address":"Bramengaarde 33","city":"Hendrik-Ido-Ambacht","operatorName":"Allego","maxPowerKw":0,"isMegawatt":false,"status":"AVAILABLE","source":"ndw"}},{"type":"Feature","geometry":{"type":"Point","coordinates":[4.63192,51.834817]},"properties":{"type":"charge","layer":"passenger","locationId":"8924cf80-4f3c-11e8-bb5c-42010a840002","name":"NLD, Hendrik Ido Ambacht, Ring 318","address":"Ring 318","city":"Hendrik Ido Ambacht","operatorName":"Allego","maxPowerKw":0,"isMegawatt":false,"status":"AVAILABLE","source":"ndw"}},{"type":"Feature","geometry":{"type":"Point","coordinates":[4.622923,51.841716]},"properties":{"type":"charge","layer":"passenger","locationId":"9ad28f56-4f3c-11e8-b7cc-42010a840002","name":"NLD, Hendrik Ido Ambacht, Aalborg Haackslaan 40","address":"Aalborg Haackslaan 40","city":"Hendrik Ido Ambacht","operatorName":"Allego","maxPowerKw":0,"isMegawatt":false,"status":"AVAILABLE","source":"ndw"}},{"type":"Feature","geometry":{"type":"Point","coordinates":[4.636986,51.838104]},"properties":{"type":"charge","layer":"passenger","locationId":"b013a508-4f3c-11e8-9bd4-42010a840002","name":"NLD, Hendrik Ido Ambacht, Avelingen 135","address":"Avelingen 135","city":"Hendrik Ido Ambacht","operatorName":"Allego","maxPowerKw":0,"isMegawatt":false,"status":"UNAVAILABLE","source":"ndw"}},{"type":"Feature","geometry":{"type":"Point","coordinates":[4.624285,51.843545]},"properties":{"type":"charge","layer":"passenger","locationId":"d1734736-1af9-11eb-ac8f-42010a840fcc","name":"NL, Piet Heinstraat 43, 3342CK, Hendrik Ido Ambacht","address":"Piet Heinstraat 43","city":"Hendrik Ido Ambacht","operatorName":"Allego","maxPowerKw":0,"isMegawatt":false,"status":"AVAILABLE","source":"ndw"}},{"type":"Feature","geometry":{"type":"Point","coordinates":[4.636353,51.832845]},"properties":{"type":"charge","layer":"passenger","locationId":"dc5740ee-d8a8-11ec-838d-42010a840003","name":"NL, De Heerenhof, 1, 3343EZ, Hendrik Ido Ambacht","address":"De Heerenhof 1","city":"Hendrik Ido Ambacht","operatorName":"Allego","maxPowerKw":0,"isMegawatt":false,"status":"AVAILABLE","source":"ndw"}},{"type":"Feature","geometry":{"type":"Point","coordinates":[4.651371,51.833364]},"properties":{"type":"charge","layer":"passenger","locationId":"NLLOC000003","name":"NL, Steur 102, 3344 JG Hendrik-Ido-Ambacht","address":"Steur 102","city":"Hendrik-Ido-Ambacht","operatorName":"Allego","maxPowerKw":0,"isMegawatt":false,"status":"AVAILABLE","source":"ndw","priceKwh":0.511}},{"type":"Feature","geometry":{"type":"Point","coordinates":[4.63055,51.844729]},"properties":{"type":"charge","layer":"passenger","locationId":"NLLOC000018","name":"NLD, Hendrik Ido Ambacht, Reeweg 96","address":"Reeweg 96","city":"Hendrik Ido Ambacht","operatorName":"Allego","maxPowerKw":0,"isMegawatt":false,"status":"AVAILABLE","source":"ndw","priceKwh":0.511}},{"type":"Feature","geometry":{"type":"Point","coordinates":[4.639834,51.834037]},"properties":{"type":"charge","layer":"passenger","locationId":"5aaedc72-6f30-11ed-aa0e-42010aa40fc0","name":"NL, Bongerd 1-T, 3344 DA Hendrik-Ido-Ambacht","address":"Bongerd 1-T","city":"Hendrik-Ido Ambacht","operatorName":"Allego","maxPowerKw":0,"isMegawatt":false,"status":"AVAILABLE","source":"ndw"}},{"type":"Feature","geometry":{"type":"Point","coordinates":[4.649882,51.828996]},"properties":{"type":"charge","layer":"passenger","locationId":"8f63051a-4f3c-11e8-8e6a-42010a840002","name":"NLD, Hendrik Ido Ambacht, Akkerviool 37","address":"Akkerviool 37","city":"Hendrik Ido Ambacht","operatorName":"Allego","maxPowerKw":0,"isMegawatt":false,"status":"AVAILABLE","source":"ndw"}},{"type":"Feature","geometry":{"type":"Point","coordinates":[4.635181,51.837729]},"properties":{"type":"charge","layer":"passenger","locationId":"95a74044-4f3c-11e8-aa03-42010a840002","name":"NLD, Hendrik Ido Ambacht, Kruidhof 117","address":"Kruidhof 117","city":"Hendrik Ido Ambacht","operatorName":"Allego","maxPowerKw":0,"isMegawatt":false,"status":"AVAILABLE","source":"ndw"}},{"type":"Feature","geometry":{"type":"Point","coordinates":[4.636988,51.839883]},"properties":{"type":"charge","layer":"passenger","locationId":"a1781204-4f3c-11e8-b5b2-42010a840002","name":"NLD, Hendrik Ido Ambacht, Charley Tooropstraat 23","address":"Charley Tooropstraat 23","city":"Hendrik Ido Ambacht","operatorName":"Allego","maxPowerKw":0,"isMegawatt":false,"status":"AVAILABLE","source":"ndw"}},{"type":"Feature","geometry":{"type":"Point","coordinates":[4.648579,51.835376]},"properties":{"type":"charge","layer":"passenger","locationId":"5d7c0cc2-4f3c-11e8-99e1-42010a840002","name":"NLD, Hendrik Ido Ambacht, Sophialaan 15","address":"Sophialaan 13","city":"Hendrik Ido Ambacht","operatorName":"Allego","maxPowerKw":0,"isMegawatt":false,"status":"AVAILABLE","source":"ndw"}},{"type":"Feature","geometry":{"type":"Point","coordinates":[4.635265,51.835244]},"properties":{"type":"charge","layer":"passenger","locationId":"8a38e3d4-4f3c-11e8-a9b1-42010a840002","name":"NLD, Hendrik Ido Ambacht, Ring 381","address":"Ring 381","city":"Hendrik Ido Ambacht","operatorName":"Allego","maxPowerKw":0,"isMegawatt":false,"status":"AVAILABLE","source":"ndw"}},{"type":"Feature","geometry":{"type":"Point","coordinates":[4.641133,51.83049]},"properties":{"type":"charge","layer":"passenger","locationId":"a40358fe-2c8c-11ec-a5ca-42010a840003","name":"NL, Hoogveen 18, 3344EP, Hendrik ido Ambacht","address":"Hoogveen 18","city":"Hendrik Ido Ambacht","operatorName":"Allego","maxPowerKw":0,"isMegawatt":false,"status":"AVAILABLE","source":"ndw"}},{"type":"Feature","geometry":{"type":"Point","coordinates":[4.646546,51.829505]},"properties":{"type":"charge","layer":"passenger","locationId":"accae5e6-4f3c-11e8-a660-42010a840002","name":"NLD, Hendrik Ido Ambacht, Biezenweide 100","address":"Biezenweide 100","city":"Hendrik Ido Ambacht","operatorName":"Allego","maxPowerKw":0,"isMegawatt":false,"status":"AVAILABLE","source":"ndw"}},{"type":"Feature","geometry":{"type":"Point","coordinates":[4.651723,51.844307]},"properties":{"type":"charge","layer":"passenger","locationId":"bdf28894-6e2d-11ea-baa8-42010a840003","name":"NL, De Raadtweg 27, 3341 SB, Hendrik Ido Ambacht","address":"De Raadtweg 27","city":"Hendrik Ido Ambacht","operatorName":"Allego","maxPowerKw":0,"isMegawatt":false,"status":"AVAILABLE","source":"ndw"}},{"type":"Feature","geometry":{"type":"Point","coordinates":[4.639215,51.834364]},"properties":{"type":"charge","layer":"passenger","locationId":"0ead4fe4-7b54-11e9-a62b-42010a840003","name":"NLD, Bramengaarde 184 3344PH Hendrik-Ido-Ambacht","address":"Bramengaarde 184","city":"Hendrik-Ido-Ambacht","operatorName":"Allego","maxPowerKw":0,"isMegawatt":false,"status":"AVAILABLE","source":"ndw"}},{"type":"Feature","geometry":{"type":"Point","coordinates":[4.656662,51.83507]},"properties":{"type":"charge","layer":"passenger","locationId":"7c1a070c-a755-11e9-b4dc-42010a840003","name":"NLD, Aalscholver 27 3341DC Hendrik-Ido-Ambacht","address":"Aalscholver 27","city":"Hendrik-Ido-Ambacht","operatorName":"Allego","maxPowerKw":0,"isMegawatt":false,"status":"AVAILABLE","source":"ndw"}},{"type":"Feature","geometry":{"type":"Point","coordinates":[4.642608,51.852803]},"properties":{"type":"charge","layer":"passenger","locationId":"9992ed84-4f3c-11e8-8975-42010a840002","name":"NLD, Hendrik Ido Ambacht, Oranjestraat 4","address":"Oranjestraat 4","city":"Hendrik Ido Ambacht","operatorName":"Allego","maxPowerKw":0,"isMegawatt":false,"status":"AVAILABLE","source":"ndw"}},{"type":"Feature","geometry":{"type":"Point","coordinates":[4.627402,51.837778]},"properties":{"type":"charge","layer":"passenger","locationId":"979ad37a-4f3c-11e8-9401-42010a840002","name":"NLD, Hendrik Ido Ambacht, Ring 198","address":"Ring 198","city":"Hendrik Ido Ambacht","operatorName":"Allego","maxPowerKw":0,"isMegawatt":false,"status":"AVAILABLE","source":"ndw"}},{"type":"Feature","geometry":{"type":"Point","coordinates":[4.639298,51.839845]},"properties":{"type":"charge","layer":"passenger","locationId":"9851b32e-4f3c-11e8-8883-42010a840002","name":"NLD, Hendrik Ido Ambacht, Ary Schefferlaan 14","address":"Ary Schefferlaan 14","city":"Hendrik Ido Ambacht","operatorName":"Allego","maxPowerKw":0,"isMegawatt":false,"status":"UNAVAILABLE","source":"ndw"}},{"type":"Feature","geometry":{"type":"Point","coordinates":[4.641775,51.85145]},"properties":{"type":"charge","layer":"passenger","locationId":"4cdde8f4-f9e0-11e9-807a-42010a840003","name":"NLD, Thorbeckestraat 35 3341XV Hendrik-Ido-Ambacht","address":"Thorbeckestraat 35","city":"Hendrik-Ido-Ambacht","operatorName":"Allego","maxPowerKw":0,"isMegawatt":false,"status":"AVAILABLE","source":"ndw"}},{"type":"Feature","geometry":{"type":"Point","coordinates":[4.636627,51.84637]},"properties":{"type":"charge","layer":"passenger","locationId":"83a67636-7ab8-11ea-882e-42010a840003","name":"NL, Landmanshof 75, 3342 XE, Hendrik Ido Ambacht","address":"Landmanshof 75","city":"Hendrik Ido Ambacht","operatorName":"Allego","maxPowerKw":0,"isMegawatt":false,"status":"AVAILABLE","source":"ndw"}},{"type":"Feature","geometry":{"type":"Point","coordinates":[4.646122,51.838547]},"properties":{"type":"charge","layer":"passenger","locationId":"890a5fe2-d264-11ec-8a2f-42010a840003","name":"NL, Baars 16, 3344 HG Hendrik Ido Ambacht","address":"Baars 16","city":"Hendrik Ido Ambacht","operatorName":"Allego","maxPowerKw":0,"isMegawatt":false,"status":"AVAILABLE","source":"ndw"}},{"type":"Feature","geometry":{"type":"Point","coordinates":[4.647368,51.844348]},"properties":{"type":"charge","layer":"passenger","locationId":"ac2a2170-2c8c-11ec-9c7a-42010a840003","name":"NL, Van Polanenstraat 21, 3341 GN Hendrik Ido Ambacht","address":"Van Polanenstraat 21","city":"Hendrik Ido Ambacht","operatorName":"Allego","maxPowerKw":0,"isMegawatt":false,"status":"AVAILABLE","source":"ndw"}},{"type":"Feature","geometry":{"type":"Point","coordinates":[4.646285,51.851587]},"properties":{"type":"charge","layer":"passenger","locationId":"e5b59290-3c0e-11eb-9ec3-42010a840003","name":"NL, Emmasingel 5E, 3341 XC, Hendrik Ido Ambacht","address":"Emmasingel 5E","city":"Hendrik Ido Ambacht","operatorName":"Allego","maxPowerKw":0,"isMegawatt":false,"status":"AVAILABLE","source":"ndw"}},{"type":"Feature","geometry":{"type":"Point","coordinates":[4.645737,51.831475]},"properties":{"type":"charge","layer":"passenger","locationId":"ebc540e4-a302-11eb-bb59-42010a840003","name":"NL, Dreef 21, 3344 GJ Hendrik-Ido-Ambacht","address":"Dreef 21","city":"Hendrik-Ido-Ambacht","operatorName":"Allego","maxPowerKw":0,"isMegawatt":false,"status":"AVAILABLE","source":"ndw"}},{"type":"Feature","geometry":{"type":"Point","coordinates":[4.633255,51.849027]},"properties":{"type":"charge","layer":"passenger","locationId":"NLLOC000345","name":"NLD, Hendrik Ido Ambacht, Dorpstraat 126","address":"Dorpstraat 126","city":"Hendrik Ido Ambacht","operatorName":"Allego","maxPowerKw":0,"isMegawatt":false,"status":"AVAILABLE","source":"ndw","priceKwh":0.511}},{"type":"Feature","geometry":{"type":"Point","coordinates":[4.644036,51.828632]},"properties":{"type":"charge","layer":"passenger","locationId":"0ea384fa-7b54-11e9-9d9d-42010a840003","name":"NLD, Oeverwal 1 3344EG Hendrik-Ido-Ambacht","address":"Oeverwal 1","city":"Hendrik-Ido-Ambacht","operatorName":"Allego","maxPowerKw":0,"isMegawatt":false,"status":"AVAILABLE","source":"ndw"}},{"type":"Feature","geometry":{"type":"Point","coordinates":[4.624238,51.834447]},"properties":{"type":"charge","layer":"passenger","locationId":"OST22P0068_0122A_0","name":"OST22P0068_0122A_0","address":"Sedumweg 11","city":"Hendrik-Ido-Ambacht","operatorName":"e-VOLTT","maxPowerKw":0,"isMegawatt":false,"status":"AVAILABLE","source":"ndw","priceKwh":0.363}},{"type":"Feature","geometry":{"type":"Point","coordinates":[4.626652,51.84792]},"properties":{"type":"charge","layer":"passenger","locationId":"4a91ab26-e6c8-11ec-955d-42010aa40fc0","name":"NL, Schultz van Haegenstraat 28, 3342 VG Hendrik Ido Ambacht","address":"Schultz van Haegenstraat 28","city":"Hendrik Ido Ambacht","operatorName":"Allego","maxPowerKw":0,"isMegawatt":false,"status":"AVAILABLE","source":"ndw"}},{"type":"Feature","geometry":{"type":"Point","coordinates":[4.639196,51.836085]},"properties":{"type":"charge","layer":"passenger","locationId":"8a31b384-4f3c-11e8-8f69-42010a840002","name":"NLD, Hendrik Ido Ambacht, Dadelgaarde 227","address":"Dadelgaarde 227","city":"Hendrik Ido Ambacht","operatorName":"Allego","maxPowerKw":0,"isMegawatt":false,"status":"AVAILABLE","source":"ndw"}},{"type":"Feature","geometry":{"type":"Point","coordinates":[4.64357,51.832212]},"properties":{"type":"charge","layer":"passenger","locationId":"b0cd1132-80f9-11ea-bfe1-42010a840003","name":"NL, Iepengaarde 1, 3344 DH, Hendrik Ido Ambacht","address":"Iepengaarde 1","city":"Hendrik Ido Ambacht","operatorName":"Allego","maxPowerKw":0,"isMegawatt":false,"status":"CHARGING","source":"ndw"}},{"type":"Feature","geometry":{"type":"Point","coordinates":[4.628276,51.835401]},"properties":{"type":"charge","layer":"passenger","locationId":"a8a7c0ec-4f3c-11e8-b18b-42010a840002","name":"NLD, Hendrik Ido Ambacht, Molenhoef 44","address":"Molenhoef 44","city":"Hendrik Ido Ambacht","operatorName":"Allego","maxPowerKw":0,"isMegawatt":false,"status":"AVAILABLE","source":"ndw"}},{"type":"Feature","geometry":{"type":"Point","coordinates":[4.648508,51.846222]},"properties":{"type":"charge","layer":"passenger","locationId":"a7e6f84e-4f3c-11e8-83a7-42010a840002","name":"NL, Opvliet 2, 3341 CR Hendrik-Ido-Ambacht","address":"Opvliet 2","city":"Hendrik-Ido-Ambacht","operatorName":"Allego","maxPowerKw":0,"isMegawatt":false,"status":"AVAILABLE","source":"ndw"}},{"type":"Feature","geometry":{"type":"Point","coordinates":[4.654068,51.831685]},"properties":{"type":"charge","layer":"passenger","locationId":"90a1a314-4f3c-11e8-bbab-42010a840002","name":"NLD, Hendrik Ido Ambacht, Steur 318","address":"Steur 318","city":"Hendrik Ido Ambacht","operatorName":"Allego","maxPowerKw":0,"isMegawatt":false,"status":"AVAILABLE","source":"ndw"}},{"type":"Feature","geometry":{"type":"Point","coordinates":[4.651371,51.833364]},"properties":{"type":"charge","layer":"passenger","locationId":"956c7eaa-4f3c-11e8-92b2-42010a840002","name":"NL, Steur 102, 3344 JG Hendrik-Ido-Ambacht","address":"Steur 102","city":"Hendrik-Ido-Ambacht","operatorName":"Allego","maxPowerKw":0,"isMegawatt":false,"status":"AVAILABLE","source":"ndw"}},{"type":"Feature","geometry":{"type":"Point","coordinates":[4.64918,51.832934]},"properties":{"type":"charge","layer":"passenger","locationId":"976dfe08-871d-11e9-bf51-42010a840003","name":"NLD, Laagland 27 3344GR Hendrik-Ido-Ambacht","address":"Laagland 27","city":"Hendrik-Ido-Ambacht","operatorName":"Allego","maxPowerKw":0,"isMegawatt":false,"status":"AVAILABLE","source":"ndw"}},{"type":"Feature","geometry":{"type":"Point","coordinates":[4.633255,51.849027]},"properties":{"type":"charge","layer":"passenger","locationId":"a185bbc0-4f3c-11e8-ad30-42010a840002","name":"NLD, Hendrik Ido Ambacht, Dorpstraat 126","address":"Dorpstraat 126","city":"Hendrik Ido Ambacht","operatorName":"Allego","maxPowerKw":0,"isMegawatt":false,"status":"AVAILABLE","source":"ndw"}},{"type":"Feature","geometry":{"type":"Point","coordinates":[4.655584,51.832599]},"properties":{"type":"charge","layer":"passenger","locationId":"4a83db9a-e6c8-11ec-b1ec-42010aa40fc0","name":"NL, Steur 65, 3344 JC Hendrik-Ido-Ambacht","address":"Steur 65","city":"Hendrik Ido Ambacht","operatorName":"Allego","maxPowerKw":0,"isMegawatt":false,"status":"AVAILABLE","source":"ndw"}},{"type":"Feature","geometry":{"type":"Point","coordinates":[4.641134,51.847148]},"properties":{"type":"charge","layer":"passenger","locationId":"9abe4708-4f3c-11e8-8325-42010a840002","name":"NLD, Hendrik Ido Ambacht, Van Godewijckstraat 129","address":"Van Godewijckstraat 129","city":"Hendrik Ido Ambacht","operatorName":"Allego","maxPowerKw":0,"isMegawatt":false,"status":"AVAILABLE","source":"ndw"}},{"type":"Feature","geometry":{"type":"Point","coordinates":[4.641259,51.837589]},"properties":{"type":"charge","layer":"passenger","locationId":"43831290-0824-11eb-8131-42010a840033","name":"NL, Dadelgaarde 115, 3344 RJ, Hendrik Ido Ambacht","address":"Dadelgaarde 115","city":"Hendrik Ido Ambacht","operatorName":"Allego","maxPowerKw":0,"isMegawatt":false,"status":"AVAILABLE","source":"ndw"}},{"type":"Feature","geometry":{"type":"Point","coordinates":[4.651938,51.829508]},"properties":{"type":"charge","layer":"passenger","locationId":"0f289afc-2386-11ea-aaa9-42010a840003","name":"NLD, Akkerviool 9 3344AA Hendrik-Ido-Ambacht","address":"Akkerviool 9","city":"Hendrik-Ido-Ambacht","operatorName":"Allego","maxPowerKw":0,"isMegawatt":false,"status":"CHARGING","source":"ndw"}},{"type":"Feature","geometry":{"type":"Point","coordinates":[4.652425,51.831993]},"properties":{"type":"charge","layer":"passenger","locationId":"24a80e54-18ad-11eb-a7bd-42010a840033","name":"NL, Steur 186, 3344 JJ, Hendrik Ido Ambacht","address":"Steur 186","city":"Hendrik Ido Ambacht","operatorName":"Allego","maxPowerKw":0,"isMegawatt":false,"status":"CHARGING","source":"ndw"}},{"type":"Feature","geometry":{"type":"Point","coordinates":[4.63582,51.829434]},"properties":{"type":"charge","layer":"passenger","locationId":"6bbc5ce6-0805-11ea-8f5c-42010a840003","name":"NLD, Pruimengaarde 1 3343LC Hendrik-Ido-Ambacht","address":"Pruimengaarde 1","city":"Hendrik-Ido-Ambacht","operatorName":"Allego","maxPowerKw":0,"isMegawatt":false,"status":"AVAILABLE","source":"ndw"}},{"type":"Feature","geometry":{"type":"Point","coordinates":[4.625858,51.840037]},"properties":{"type":"charge","layer":"passenger","locationId":"957982bc-4f3c-11e8-86e1-42010a840002","name":"NL, Agnes Bartoutslaan 33, 3342 GE Hendrik Ido Ambacht","address":"Agnes Bartoutslaan 33","city":"Hendrik Ido Ambacht","operatorName":"Allego","maxPowerKw":0,"isMegawatt":false,"status":"AVAILABLE","source":"ndw"}},{"type":"Feature","geometry":{"type":"Point","coordinates":[4.656179,51.83045]},"properties":{"type":"charge","layer":"passenger","locationId":"b1d7be88-4f3c-11e8-9047-42010a840002","name":"NLD, Hendrik Ido Ambacht, Fonteinkruid 32","address":"Fonteinkruid 32","city":"Hendrik Ido Ambacht","operatorName":"Allego","maxPowerKw":0,"isMegawatt":false,"status":"AVAILABLE","source":"ndw"}},{"type":"Feature","geometry":{"type":"Point","coordinates":[4.624605,51.841141]},"properties":{"type":"charge","layer":"passenger","locationId":"NLLOC001598","name":"NLD, Hendrik Ido Ambacht, Machteld Sandelijnslaan 56","address":"Machteld Sandelijnslaan 56","city":"Hendrik Ido Ambacht","operatorName":"Allego","maxPowerKw":0,"isMegawatt":false,"status":"AVAILABLE","source":"ndw","priceKwh":0.511}},{"type":"Feature","geometry":{"type":"Point","coordinates":[4.639925,51.828115]},"properties":{"type":"charge","layer":"passenger","locationId":"982f915e-4f3c-11e8-a111-42010a840002","name":"NLD, Hendrik Ido Ambacht, Bolster 116","address":"Bolster 116","city":"Hendrik Ido Ambacht","operatorName":"Allego","maxPowerKw":0,"isMegawatt":false,"status":"AVAILABLE","source":"ndw"}},{"type":"Feature","geometry":{"type":"Point","coordinates":[4.658003,51.830961]},"properties":{"type":"charge","layer":"passenger","locationId":"d6cca430-2f7f-11eb-8146-42010a840003","name":"NL, Fonteinkruid 65, 3344 CA, Hendrik Ido Ambacht","address":"Fonteinkruid 65","city":"Hendrik Ido Ambacht","operatorName":"Allego","maxPowerKw":0,"isMegawatt":false,"status":"AVAILABLE","source":"ndw"}},{"type":"Feature","geometry":{"type":"Point","coordinates":[4.642849,51.829206]},"properties":{"type":"charge","layer":"passenger","locationId":"f1b6fb9a-4f3c-11e8-9b51-42010a840002","name":"NLD, Polderland 22, 3344 EE Hendrik Ido Ambacht","address":"Polderland 22","city":"Hendrik Ido Ambacht","operatorName":"Allego","maxPowerKw":0,"isMegawatt":false,"status":"AVAILABLE","source":"ndw"}},{"type":"Feature","geometry":{"type":"Point","coordinates":[4.639263,51.841249]},"properties":{"type":"charge","layer":"passenger","locationId":"9c62a442-bbb6-11ec-b8aa-42010a840003","name":"NL, Ferdinand Bolstraat 9, 3343 DR Hendrik Ido Ambacht","address":"Ferdinand Bolstraat 9","city":"Hendrik Ido Ambacht","operatorName":"Allego","maxPowerKw":0,"isMegawatt":false,"status":"CHARGING","source":"ndw"}},{"type":"Feature","geometry":{"type":"Point","coordinates":[4.64568,51.829216]},"properties":{"type":"charge","layer":"passenger","locationId":"679b797114028edb6c6f9fc5","name":"Hendrik Ido Ambacht/Legakker 2","address":"Legakker 2","city":"Hendrik Ido Ambacht","operatorName":"E-Flux by Road","maxPowerKw":14,"isMegawatt":false,"status":"AVAILABLE","source":"ndw","priceKwh":0.5217}},{"type":"Feature","geometry":{"type":"Point","coordinates":[4.640424,51.832651]},"properties":{"type":"charge","layer":"passenger","locationId":"f1a39750-cf68-11e9-bfd1-42010a840003","name":"NLD, Perzikengaarde 36 3344DB Hendrik-Ido-Ambacht","address":"Perzikengaarde 36","city":"Hendrik-Ido-Ambacht","operatorName":"Allego","maxPowerKw":0,"isMegawatt":false,"status":"AVAILABLE","source":"ndw"}},{"type":"Feature","geometry":{"type":"Point","coordinates":[4.657134,51.834487]},"properties":{"type":"charge","layer":"passenger","locationId":"6da28d92-40fb-11ec-a850-42010a840003","name":"NL, Aalscholver 47, 3341DC, Hendrik Ido Ambacht","address":"Aalscholver 47","city":"Hendrik Ido Ambacht","operatorName":"Allego","maxPowerKw":0,"isMegawatt":false,"status":"CHARGING","source":"ndw"}},{"type":"Feature","geometry":{"type":"Point","coordinates":[4.646834,51.83795]},"properties":{"type":"charge","layer":"passenger","locationId":"957300d6-4f3c-11e8-9669-42010a840002","name":"NLD, Hendrik Ido Ambacht, Baars 11","address":"Baars 11","city":"Hendrik Ido Ambacht","operatorName":"Allego","maxPowerKw":0,"isMegawatt":false,"status":"CHARGING","source":"ndw"}},{"type":"Feature","geometry":{"type":"Point","coordinates":[4.640335,51.838693]},"properties":{"type":"charge","layer":"passenger","locationId":"e3621b98-3aaa-11ed-a9db-42010aa40fc0","name":"NL, Aelbert Cuyplaan 71, 3343 DA Hendrik Ido Ambacht","address":"Albert Cuyplaan 71","city":"Hendrik Ido Ambacht","operatorName":"Allego","maxPowerKw":0,"isMegawatt":false,"status":"AVAILABLE","source":"ndw"}},{"type":"Feature","geometry":{"type":"Point","coordinates":[4.636988,51.839883]},"properties":{"type":"charge","layer":"passenger","locationId":"NLLOC000344","name":"NLD, Hendrik Ido Ambacht, Charley Tooropstraat 23","address":"Charley Tooropstraat 23","city":"Hendrik Ido Ambacht","operatorName":"Allego","maxPowerKw":0,"isMegawatt":false,"status":"AVAILABLE","source":"ndw","priceKwh":0.511}},{"type":"Feature","geometry":{"type":"Point","coordinates":[4.640424,51.832651]},"properties":{"type":"charge","layer":"passenger","locationId":"NLLOC004732","name":"NLD, Perzikengaarde 36 3344DB Hendrik-Ido-Ambacht","address":"Perzikengaarde 36","city":"Hendrik-Ido-Ambacht","operatorName":"Allego","maxPowerKw":0,"isMegawatt":false,"status":"CHARGING","source":"ndw","priceKwh":0.511}},{"type":"Feature","geometry":{"type":"Point","coordinates":[4.646864,51.841862]},"properties":{"type":"charge","layer":"passenger","locationId":"NLLOC001313","name":"NLD, Hendrik Ido Ambacht, Van Renesseborch 61","address":"Van Renesseborch 61","city":"Hendrik Ido Ambacht","operatorName":"Allego","maxPowerKw":0,"isMegawatt":false,"status":"AVAILABLE","source":"ndw","priceKwh":0.511}},{"type":"Feature","geometry":{"type":"Point","coordinates":[4.645781,51.83889]},"properties":{"type":"charge","layer":"passenger","locationId":"NLLOC006417","name":"NL, Baars 14, 3344 HG, Hendrik Ido Ambacht","address":"Baars 14","city":"Hendrik Ido Ambacht","operatorName":"Allego","maxPowerKw":0,"isMegawatt":false,"status":"AVAILABLE","source":"ndw","priceKwh":0.511}},{"type":"Feature","geometry":{"type":"Point","coordinates":[4.656662,51.83507]},"properties":{"type":"charge","layer":"passenger","locationId":"NLLOC004464","name":"NLD, Aalscholver 27 3341DC Hendrik-Ido-Ambacht","address":"Aalscholver 27","city":"Hendrik-Ido-Ambacht","operatorName":"Allego","maxPowerKw":0,"isMegawatt":false,"status":"AVAILABLE","source":"ndw","priceKwh":0.511}},{"type":"Feature","geometry":{"type":"Point","coordinates":[4.655584,51.832599]},"properties":{"type":"charge","layer":"passenger","locationId":"NLLOC019756","name":"NL, Steur 65, 3344 JC Hendrik-Ido-Ambacht","address":"Steur 65","city":"Hendrik Ido Ambacht","operatorName":"Allego","maxPowerKw":0,"isMegawatt":false,"status":"CHARGING","source":"ndw","priceKwh":0.511}},{"type":"Feature","geometry":{"type":"Point","coordinates":[4.636627,51.84637]},"properties":{"type":"charge","layer":"passenger","locationId":"NLLOC007088","name":"NL, Landmanshof 75, 3342 XE, Hendrik Ido Ambacht","address":"Landmanshof 75","city":"Hendrik Ido Ambacht","operatorName":"Allego","maxPowerKw":0,"isMegawatt":false,"status":"AVAILABLE","source":"ndw","priceKwh":0.511}},{"type":"Feature","geometry":{"type":"Point","coordinates":[4.635181,51.837729]},"properties":{"type":"charge","layer":"passenger","locationId":"NLLOC000034","name":"NLD, Hendrik Ido Ambacht, Kruidhof 117","address":"Kruidhof 117","city":"Hendrik Ido Ambacht","operatorName":"Allego","maxPowerKw":0,"isMegawatt":false,"status":"AVAILABLE","source":"ndw","priceKwh":0.511}},{"type":"Feature","geometry":{"type":"Point","coordinates":[4.643064,51.836267]},"properties":{"type":"charge","layer":"passenger","locationId":"NLLOC003950","name":"NLD, Bramengaarde 33 3344PD Hendrik-Ido-Ambacht","address":"Bramengaarde 33","city":"Hendrik-Ido-Ambacht","operatorName":"Allego","maxPowerKw":0,"isMegawatt":false,"status":"AVAILABLE","source":"ndw","priceKwh":0.511}},{"type":"Feature","geometry":{"type":"Point","coordinates":[4.641775,51.85145]},"properties":{"type":"charge","layer":"passenger","locationId":"NLLOC005339","name":"NLD, Thorbeckestraat 35 3341XV Hendrik-Ido-Ambacht","address":"Thorbeckestraat 35","city":"Hendrik-Ido-Ambacht","operatorName":"Allego","maxPowerKw":0,"isMegawatt":false,"status":"AVAILABLE","source":"ndw","priceKwh":0.511}},{"type":"Feature","geometry":{"type":"Point","coordinates":[4.626652,51.84792]},"properties":{"type":"charge","layer":"passenger","locationId":"NLLOC020582","name":"NL, Schultz van Haegenstraat 28, 3342 VG Hendrik Ido Ambacht","address":"Schultz van Haegenstraat 28","city":"Hendrik Ido Ambacht","operatorName":"Allego","maxPowerKw":0,"isMegawatt":false,"status":"AVAILABLE","source":"ndw","priceKwh":0.511}},{"type":"Feature","geometry":{"type":"Point","coordinates":[4.644801,51.843013]},"properties":{"type":"charge","layer":"passenger","locationId":"NLLOC000019","name":"NLD, Hendrik Ido Ambacht, van Duyvenvoordenlaan 36","address":"van Duyvenvoordenlaan 36","city":"Hendrik Ido Ambacht","operatorName":"Allego","maxPowerKw":0,"isMegawatt":false,"status":"AVAILABLE","source":"ndw","priceKwh":0.511}},{"type":"Feature","geometry":{"type":"Point","coordinates":[4.631118,51.839238]},"properties":{"type":"charge","layer":"passenger","locationId":"NLLOC004188","name":"NLD, Ring 83 3343BK Hendrik-Ido-Ambacht","address":"Ring 83","city":"Hendrik-Ido-Ambacht","operatorName":"Allego","maxPowerKw":0,"isMegawatt":false,"status":"AVAILABLE","source":"ndw","priceKwh":0.511}},{"type":"Feature","geometry":{"type":"Point","coordinates":[4.639728,51.832317]},"properties":{"type":"charge","layer":"passenger","locationId":"67126f64b8d8f0001cdee0a5","name":"Hendrik Ido Ambach/Perzikengaarde 44","address":"Perzikengaarde 44","city":"Hendrik Ido Ambacht","operatorName":"E-Flux by Road","maxPowerKw":11,"isMegawatt":false,"status":"AVAILABLE","source":"ndw","priceKwh":0.5217}},{"type":"Feature","geometry":{"type":"Point","coordinates":[4.642613,51.840444]},"properties":{"type":"charge","layer":"passenger","locationId":"NLLOC007002","name":"NL, Henriette Ronnerstraat 3, 3343 DE, Hendrik Ido Ambacht","address":"Henriette Ronnerstraat 3","city":"Hendrik Ido Ambacht","operatorName":"Allego","maxPowerKw":0,"isMegawatt":false,"status":"AVAILABLE","source":"ndw","priceKwh":0.511}},{"type":"Feature","geometry":{"type":"Point","coordinates":[4.650455,51.839913]},"properties":{"type":"charge","layer":"passenger","locationId":"68791047da4d95e2d13327ce","name":"Sikkel 29","address":"Sikkel 29","city":"Hendrik Ido Ambacht","operatorName":"E-Flux by Road","maxPowerKw":11,"isMegawatt":false,"status":"CHARGING","source":"ndw","priceKwh":0.63}},{"type":"Feature","geometry":{"type":"Point","coordinates":[4.627402,51.837778]},"properties":{"type":"charge","layer":"passenger","locationId":"NLLOC000104","name":"NLD, Hendrik Ido Ambacht, Ring 198","address":"Ring 198","city":"Hendrik Ido Ambacht","operatorName":"Allego","maxPowerKw":0,"isMegawatt":false,"status":"AVAILABLE","source":"ndw","priceKwh":0.511}},{"type":"Feature","geometry":{"type":"Point","coordinates":[4.63582,51.829434]},"properties":{"type":"charge","layer":"passenger","locationId":"NLLOC005554","name":"NLD, Pruimengaarde 1 3343LC Hendrik-Ido-Ambacht","address":"Pruimengaarde 1","city":"Hendrik-Ido-Ambacht","operatorName":"Allego","maxPowerKw":0,"isMegawatt":false,"status":"AVAILABLE","source":"ndw","priceKwh":0.511}},{"type":"Feature","geometry":{"type":"Point","coordinates":[4.640993,51.852035]},"properties":{"type":"charge","layer":"passenger","locationId":"60f54275a63f3d7c301e630a","name":"Kerkstraat HIA","address":"Kerkstraat 30","city":"Hendrik Ido Ambacht","operatorName":"E-Flux by Road","maxPowerKw":22,"isMegawatt":false,"status":"AVAILABLE","source":"ndw","priceKwh":0.43}},{"type":"Feature","geometry":{"type":"Point","coordinates":[4.643457,51.838285]},"properties":{"type":"charge","layer":"passenger","locationId":"NLLOC000039","name":"NLD, Hendrik Ido Ambacht, Olijfgaarde 2","address":"Olijfgaarde 2","city":"Hendrik Ido Ambacht","operatorName":"Allego","maxPowerKw":0,"isMegawatt":false,"status":"AVAILABLE","source":"ndw","priceKwh":0.511}},{"type":"Feature","geometry":{"type":"Point","coordinates":[4.649882,51.828996]},"properties":{"type":"charge","layer":"passenger","locationId":"NLLOC001807","name":"NLD, Hendrik Ido Ambacht, Akkerviool 37","address":"Akkerviool 37","city":"Hendrik Ido Ambacht","operatorName":"Allego","maxPowerKw":0,"isMegawatt":false,"status":"CHARGING","source":"ndw","priceKwh":0.511}},{"type":"Feature","geometry":{"type":"Point","coordinates":[4.641259,51.837589]},"properties":{"type":"charge","layer":"passenger","locationId":"NLLOC006366","name":"NL, Dadelgaarde 115, 3344 RJ, Hendrik Ido Ambacht","address":"Dadelgaarde 115","city":"Hendrik Ido Ambacht","operatorName":"Allego","maxPowerKw":0,"isMegawatt":false,"status":"AVAILABLE","source":"ndw","priceKwh":0.511}},{"type":"Feature","geometry":{"type":"Point","coordinates":[4.648508,51.846222]},"properties":{"type":"charge","layer":"passenger","locationId":"NLLOC027878","name":"NL, Opvliet 2, 3341 CR Hendrik-Ido-Ambacht","address":"Opvliet 2","city":"Hendrik-Ido-Ambacht","operatorName":"Allego","maxPowerKw":0,"isMegawatt":false,"status":"AVAILABLE","source":"ndw","priceKwh":0.511}},{"type":"Feature","geometry":{"type":"Point","coordinates":[4.642781,51.833753]},"properties":{"type":"charge","layer":"passenger","locationId":"NLLOC020647","name":"NL, Druivengaarde 64, 3344PK Hendrik Ido Ambacht","address":"Druivengaarde 64","city":"Hendrik Ido Ambacht","operatorName":"Allego","maxPowerKw":0,"isMegawatt":false,"status":"AVAILABLE","source":"ndw","priceKwh":0.511}},{"type":"Feature","geometry":{"type":"Point","coordinates":[4.644036,51.828632]},"properties":{"type":"charge","layer":"passenger","locationId":"NLLOC004064","name":"NLD, Oeverwal 1 3344EG Hendrik-Ido-Ambacht","address":"Oeverwal 1","city":"Hendrik-Ido-Ambacht","operatorName":"Allego","maxPowerKw":0,"isMegawatt":false,"status":"AVAILABLE","source":"ndw","priceKwh":0.511}},{"type":"Feature","geometry":{"type":"Point","coordinates":[4.617217,51.835145]},"properties":{"type":"charge","layer":"passenger","locationId":"0cdfad811f594b7f12937b1173a0c6ed","name":"Sandelingen-West","address":"Sandelingen-West","city":"Hendrik-Ido-Ambacht","operatorName":"Vattenfall InCharge","maxPowerKw":50,"isMegawatt":false,"status":"AVAILABLE","source":"ndw"}},{"type":"Feature","geometry":{"type":"Point","coordinates":[4.647368,51.844348]},"properties":{"type":"charge","layer":"passenger","locationId":"NLLOC015911","name":"NL, Van Polanenstraat 21, 3341 GN Hendrik Ido Ambacht","address":"Van Polanenstraat 21","city":"Hendrik Ido Ambacht","operatorName":"Allego","maxPowerKw":0,"isMegawatt":false,"status":"AVAILABLE","source":"ndw","priceKwh":0.511}},{"type":"Feature","geometry":{"type":"Point","coordinates":[4.639196,51.836085]},"properties":{"type":"charge","layer":"passenger","locationId":"NLLOC001718","name":"NLD, Hendrik Ido Ambacht, Dadelgaarde 227","address":"Dadelgaarde 227","city":"Hendrik Ido Ambacht","operatorName":"Allego","maxPowerKw":0,"isMegawatt":false,"status":"AVAILABLE","source":"ndw","priceKwh":0.511}},{"type":"Feature","geometry":{"type":"Point","coordinates":[4.645738,51.850739]},"properties":{"type":"charge","layer":"passenger","locationId":"NLLOC000025","name":"NLD, Hendrik Ido Ambacht, Willem de Zwijgerstraat 1","address":"Beatrixsingel 8","city":"Hendrik Ido Ambacht","operatorName":"Allego","maxPowerKw":0,"isMegawatt":false,"status":"AVAILABLE","source":"ndw","priceKwh":0.511}},{"type":"Feature","geometry":{"type":"Point","coordinates":[4.646834,51.83795]},"properties":{"type":"charge","layer":"passenger","locationId":"NLLOC000020","name":"NLD, Hendrik Ido Ambacht, Baars 11","address":"Baars 11","city":"Hendrik Ido Ambacht","operatorName":"Allego","maxPowerKw":0,"isMegawatt":false,"status":"AVAILABLE","source":"ndw","priceKwh":0.511}},{"type":"Feature","geometry":{"type":"Point","coordinates":[4.635265,51.835244]},"properties":{"type":"charge","layer":"passenger","locationId":"NLLOC001312","name":"NLD, Hendrik Ido Ambacht, Ring 381","address":"Ring 381","city":"Hendrik Ido Ambacht","operatorName":"Allego","maxPowerKw":0,"isMegawatt":false,"status":"AVAILABLE","source":"ndw","priceKwh":0.511}},{"type":"Feature","geometry":{"type":"Point","coordinates":[4.64918,51.832934]},"properties":{"type":"charge","layer":"passenger","locationId":"NLLOC004183","name":"NLD, Laagland 27 3344GR Hendrik-Ido-Ambacht","address":"Laagland 27","city":"Hendrik-Ido-Ambacht","operatorName":"Allego","maxPowerKw":0,"isMegawatt":false,"status":"CHARGING","source":"ndw","priceKwh":0.511}},{"type":"Feature","geometry":{"type":"Point","coordinates":[4.642849,51.829206]},"properties":{"type":"charge","layer":"passenger","locationId":"NLLOC002399","name":"NLD, Polderland 22, 3344 EE Hendrik Ido Ambacht","address":"Polderland 22","city":"Hendrik Ido Ambacht","operatorName":"Allego","maxPowerKw":0,"isMegawatt":false,"status":"AVAILABLE","source":"ndw","priceKwh":0.511}},{"type":"Feature","geometry":{"type":"Point","coordinates":[4.644488,51.848266]},"properties":{"type":"charge","layer":"passenger","locationId":"NLLOC000611","name":"NLD, Hendrik Ido Ambacht, Mauritsstraat 131","address":"Mauritsstraat 131","city":"Hendrik Ido Ambacht","operatorName":"Allego","maxPowerKw":0,"isMegawatt":false,"status":"AVAILABLE","source":"ndw","priceKwh":0.511}},{"type":"Feature","geometry":{"type":"Point","coordinates":[4.646546,51.829505]},"properties":{"type":"charge","layer":"passenger","locationId":"NLLOC000024","name":"NLD, Hendrik Ido Ambacht, Biezenweide 100","address":"Biezenweide 100","city":"Hendrik Ido Ambacht","operatorName":"Allego","maxPowerKw":0,"isMegawatt":false,"status":"AVAILABLE","source":"ndw","priceKwh":0.511}},{"type":"Feature","geometry":{"type":"Point","coordinates":[4.641729,51.82842]},"properties":{"type":"charge","layer":"passenger","locationId":"NLLOC022349","name":"NL, Uiterwaard 1, 3344 ED Hendrik-Ido-Ambacht","address":"Uiterwaard 1","city":"Hendrik-Ido-Ambacht","operatorName":"Allego","maxPowerKw":0,"isMegawatt":false,"status":"CHARGING","source":"ndw","priceKwh":0.511}},{"type":"Feature","geometry":{"type":"Point","coordinates":[4.652425,51.831993]},"properties":{"type":"charge","layer":"passenger","locationId":"NLLOC008154","name":"NL, Steur 186, 3344 JJ, Hendrik Ido Ambacht","address":"Steur 186","city":"Hendrik Ido Ambacht","operatorName":"Allego","maxPowerKw":0,"isMegawatt":false,"status":"AVAILABLE","source":"ndw","priceKwh":0.511}},{"type":"Feature","geometry":{"type":"Point","coordinates":[4.657134,51.834487]},"properties":{"type":"charge","layer":"passenger","locationId":"NLLOC017246","name":"NL, Aalscholver 47, 3341DC, Hendrik Ido Ambacht","address":"Aalscholver 47","city":"Hendrik Ido Ambacht","operatorName":"Allego","maxPowerKw":0,"isMegawatt":false,"status":"AVAILABLE","source":"ndw","priceKwh":0.511}},{"type":"Feature","geometry":{"type":"Point","coordinates":[4.639263,51.841249]},"properties":{"type":"charge","layer":"passenger","locationId":"NLLOC017256","name":"NL, Ferdinand Bolstraat 9, 3343 DR Hendrik Ido Ambacht","address":"Ferdinand Bolstraat 9","city":"Hendrik Ido Ambacht","operatorName":"Allego","maxPowerKw":0,"isMegawatt":false,"status":"AVAILABLE","source":"ndw","priceKwh":0.511}},{"type":"Feature","geometry":{"type":"Point","coordinates":[4.652349,51.835315]},"properties":{"type":"charge","layer":"passenger","locationId":"67ff4360c98122ec988f096f","name":"Hendrik-Ido-Ambacht/Zilverreiger 49","address":"Zilverreiger 49","city":"Hendrik-Ido-Ambacht","operatorName":"E-Flux by Road","maxPowerKw":14,"isMegawatt":false,"status":"AVAILABLE","source":"ndw","priceKwh":0.5217}},{"type":"Feature","geometry":{"type":"Point","coordinates":[4.627072,51.837046]},"properties":{"type":"charge","layer":"passenger","locationId":"693a925d776a6c33f275c39e","name":"leon Den Haan","address":"Roestuin 70","city":"Hendrik-Ido-Ambacht","operatorName":"E-Flux by Road","maxPowerKw":22,"isMegawatt":false,"status":"CHARGING","source":"ndw","priceKwh":0.41}},{"type":"Feature","geometry":{"type":"Point","coordinates":[4.627697,51.846783]},"properties":{"type":"charge","layer":"passenger","locationId":"NLLOC000271","name":"NLD, Hendrik Ido Ambacht, Schultz van Haegenstraat 1","address":"Schultz van Haegenstraat 1","city":"Hendrik Ido Ambacht","operatorName":"Allego","maxPowerKw":0,"isMegawatt":false,"status":"UNAVAILABLE","source":"ndw","priceKwh":0.511}},{"type":"Feature","geometry":{"type":"Point","coordinates":[4.639215,51.834364]},"properties":{"type":"charge","layer":"passenger","locationId":"NLLOC004067","name":"NLD, Bramengaarde 184 3344PH Hendrik-Ido-Ambacht","address":"Bramengaarde 184","city":"Hendrik-Ido-Ambacht","operatorName":"Allego","maxPowerKw":0,"isMegawatt":false,"status":"AVAILABLE","source":"ndw","priceKwh":0.511}},{"type":"Feature","geometry":{"type":"Point","coordinates":[4.623191,51.835322]},"properties":{"type":"charge","layer":"passenger","locationId":"65cbdddc76c55e001c788b42","name":"GreenOne","address":"De Wadi 1","city":"Hendrik Ido Ambacht","operatorName":"E-Flux by Road","maxPowerKw":22,"isMegawatt":false,"status":"AVAILABLE","source":"ndw","priceKwh":0.36}},{"type":"Feature","geometry":{"type":"Point","coordinates":[4.641134,51.847148]},"properties":{"type":"charge","layer":"passenger","locationId":"NLLOC000256","name":"NLD, Hendrik Ido Ambacht, Van Godewijckstraat 129","address":"Van Godewijckstraat 129","city":"Hendrik Ido Ambacht","operatorName":"Allego","maxPowerKw":0,"isMegawatt":false,"status":"AVAILABLE","source":"ndw","priceKwh":0.511}},{"type":"Feature","geometry":{"type":"Point","coordinates":[4.625665,51.841646]},"properties":{"type":"charge","layer":"passenger","locationId":"69f497af4643b92885730e7a","name":"Hendrik-Ido-Ambacht/ Gerrit Hendrixlaan 14","address":"Gerrit Hendrixlaan 14","city":"Hendrik-Ido-Ambacht","operatorName":"E-Flux by Road","maxPowerKw":14,"isMegawatt":false,"status":"AVAILABLE","source":"ndw","priceKwh":0.5217}},{"type":"Feature","geometry":{"type":"Point","coordinates":[4.642608,51.852803]},"properties":{"type":"charge","layer":"passenger","locationId":"NLLOC000205","name":"NLD, Hendrik Ido Ambacht, Oranjestraat 4","address":"Oranjestraat 4","city":"Hendrik Ido Ambacht","operatorName":"Allego","maxPowerKw":0,"isMegawatt":false,"status":"AVAILABLE","source":"ndw","priceKwh":0.511}},{"type":"Feature","geometry":{"type":"Point","coordinates":[4.639834,51.834037]},"properties":{"type":"charge","layer":"passenger","locationId":"NLLOC024059","name":"NL, Bongerd 1-T, 3344 DA Hendrik-Ido-Ambacht","address":"Bongerd 1-T","city":"Hendrik-Ido Ambacht","operatorName":"Allego","maxPowerKw":0,"isMegawatt":false,"status":"AVAILABLE","source":"ndw","priceKwh":0.511}},{"type":"Feature","geometry":{"type":"Point","coordinates":[4.641633,51.849734]},"properties":{"type":"charge","layer":"passenger","locationId":"6911c232992ac9330e8cd257","name":"Hendrik-Ido-Ambacht/Graaf Willemlaan 5","address":"Graaf Willemlaan 5","city":"Hendrik-Ido-Ambacht","operatorName":"E-Flux by Road","maxPowerKw":14,"isMegawatt":false,"status":"AVAILABLE","source":"ndw","priceKwh":0.5217}},{"type":"Feature","geometry":{"type":"Point","coordinates":[4.656179,51.83045]},"properties":{"type":"charge","layer":"passenger","locationId":"NLLOC000585","name":"NLD, Hendrik Ido Ambacht, Fonteinkruid 32","address":"Fonteinkruid 32","city":"Hendrik Ido Ambacht","operatorName":"Allego","maxPowerKw":0,"isMegawatt":false,"status":"AVAILABLE","source":"ndw","priceKwh":0.511}},{"type":"Feature","geometry":{"type":"Point","coordinates":[4.64168,51.844877]},"properties":{"type":"charge","layer":"passenger","locationId":"NLLOC001314","name":"NLD, Hendrik Ido Ambacht, P.C. Hooftsingel 73","address":"P.C. Hooftsingel 73","city":"Hendrik Ido Ambacht","operatorName":"Allego","maxPowerKw":0,"isMegawatt":false,"status":"AVAILABLE","source":"ndw","priceKwh":0.511}},{"type":"Feature","geometry":{"type":"Point","coordinates":[4.654068,51.831685]},"properties":{"type":"charge","layer":"passenger","locationId":"NLLOC001407","name":"NLD, Hendrik Ido Ambacht, Steur 318","address":"Steur 318","city":"Hendrik Ido Ambacht","operatorName":"Allego","maxPowerKw":0,"isMegawatt":false,"status":"AVAILABLE","source":"ndw","priceKwh":0.511}},{"type":"Feature","geometry":{"type":"Point","coordinates":[4.646285,51.851587]},"properties":{"type":"charge","layer":"passenger","locationId":"NLLOC008971","name":"NL, Emmasingel 5E, 3341 XC, Hendrik Ido Ambacht","address":"Emmasingel 5E","city":"Hendrik Ido Ambacht","operatorName":"Allego","maxPowerKw":0,"isMegawatt":false,"status":"AVAILABLE","source":"ndw","priceKwh":0.511}},{"type":"Feature","geometry":{"type":"Point","coordinates":[4.63367,51.828136]},"properties":{"type":"charge","layer":"passenger","locationId":"e97eb93f5ae24de7cf36f8479a6c7938","name":"Langeweg 21","address":"Langeweg 21","city":"Hendrik-Ido-Ambacht","operatorName":"Vattenfall InCharge","maxPowerKw":22,"isMegawatt":false,"status":"AVAILABLE","source":"ndw"}},{"type":"Feature","geometry":{"type":"Point","coordinates":[4.640993,51.852035]},"properties":{"type":"charge","layer":"passenger","locationId":"60f543ba7cfc93d4aead4bd4","name":"KerkstraatHIA2","address":"Kerkstraat 30","city":"Hendrik Ido Ambacht","operatorName":"E-Flux by Road","maxPowerKw":22,"isMegawatt":false,"status":"CHARGING","source":"ndw","priceKwh":0.43}},{"type":"Feature","geometry":{"type":"Point","coordinates":[4.6567,51.832024]},"properties":{"type":"charge","layer":"passenger","locationId":"673b1a004516d8faa5b39f0b","name":"Hendrik Ido Ambacht/Stekelbaars 20","address":"Stekelbaars 20","city":"Hendrik-Ido-Ambacht","operatorName":"E-Flux by Road","maxPowerKw":14,"isMegawatt":false,"status":"AVAILABLE","source":"ndw","priceKwh":0.5217}},{"type":"Feature","geometry":{"type":"Point","coordinates":[4.646122,51.838547]},"properties":{"type":"charge","layer":"passenger","locationId":"NLLOC020197","name":"NL, Baars 16, 3344 HG Hendrik Ido Ambacht","address":"Baars 16","city":"Hendrik Ido Ambacht","operatorName":"Allego","maxPowerKw":0,"isMegawatt":false,"status":"AVAILABLE","source":"ndw","priceKwh":0.511}},{"type":"Feature","geometry":{"type":"Point","coordinates":[4.620008,51.836003]},"properties":{"type":"charge","layer":"freight","locationId":"355","name":"IONITY Sandelingen Oost","address":"A16 highway","city":"Hendrik-Ido-Ambacht","operatorName":"IONITY","maxPowerKw":350,"isMegawatt":false,"status":"AVAILABLE","source":"ndw","priceKwh":0.6283}},{"type":"Feature","geometry":{"type":"Point","coordinates":[4.618082,51.834832]},"properties":{"type":"charge","layer":"freight","locationId":"356","name":"IONITY Sandelingen West","address":"Sandelingen West 16","city":"Hendrik-Ido-Ambacht","operatorName":"IONITY","maxPowerKw":350,"isMegawatt":false,"status":"AVAILABLE","source":"ndw","priceKwh":0.6283}},{"type":"Feature","geometry":{"type":"MultiPolygon","coordinates":[[[[4.658200542992981,51.85163032881217],[4.6633677853049385,51.84753236624192],[4.6701731777854905,51.84214933831061],[4.672606320029928,51.83865043806568],[4.6724132564746785,51.83588293995311],[4.669208591818981,51.82959883888026],[4.669160732996588,51.82883635763627],[4.670438858893384,51.823589339485004],[4.669692352669843,51.824170917149736],[4.6662975689300765,51.826803880819064],[4.661885890109874,51.83160804063898],[4.659936612746917,51.83106913999161],[4.659891764939413,51.8310581638671],[4.6534402391251595,51.82945058553344],[4.646388285456069,51.82775804456237],[4.644004052079806,51.82752885989546],[4.6428784249384005,51.826502037715436],[4.639853586227065,51.82634850012458],[4.637267283314209,51.825394434929315],[4.632715440637879,51.82694170636484],[4.622367253427015,51.830650971557795],[4.614258325176019,51.833563366908535],[4.600155315133887,51.838730096357104],[4.604913337895617,51.84838446186757],[4.606996056924106,51.84852477493917],[4.608288790892143,51.84941395337839],[4.612501272655515,51.85058743152838],[4.618715754494831,51.8512378425746],[4.6234229119754415,51.85373062313993],[4.626043194104772,51.85451278381305],[4.628758321722216,51.85434604021349],[4.633441160914581,51.85027546966575],[4.636516385869969,51.84966238724264],[4.64249302096336,51.85390734142429],[4.647294449782674,51.857216108766096],[4.6437634680853295,51.859303480276104],[4.640027931791422,51.86252371139663],[4.635449699225273,51.86911734350106],[4.635261534087181,51.8697109226457],[4.6456851130865315,51.86424239462304],[4.647831832849214,51.862672473223874],[4.65310825016135,51.85769606434851],[4.658200542992981,51.85163032881217]]]]},"properties":{"type":"boundary","gemeente":"Hendrik-Ido-Ambacht","code":"GM0531"}}]}