{"type":"FeatureCollection","metadata":{"gemeente":"Hillegom","slug":"hillegom","code":"GM0534","generated_at":"2026-06-02T13:19:22.438Z","total_passenger":103,"total_freight":0,"bounds":[4.542318842705598,52.2712403406438,4.6116756318049985,52.3183825167622],"operators":["Allego","E-Flux by Road","Eneco","Vattenfall InCharge"]},"features":[{"type":"Feature","geometry":{"type":"Point","coordinates":[4.57387,52.29249]},"properties":{"type":"charge","layer":"passenger","locationId":"f8672abe-be6f-11f0-a79d-42010aa400b8","name":"Eneco eMobility Stek Wonen - Hillegom","address":"Wilhelminalaan 3","city":"Hillegom","operatorName":"Eneco","maxPowerKw":11,"isMegawatt":false,"status":"AVAILABLE","source":"ndw"}},{"type":"Feature","geometry":{"type":"Point","coordinates":[4.592003,52.299246]},"properties":{"type":"charge","layer":"passenger","locationId":"20c40522-5ae6-11ed-8019-42010aa40fc0","name":"NL, Tongelaer 106, 2181 LG Hillegom","address":"Tongelaer 106","city":"Hillegom","operatorName":"Allego","maxPowerKw":0,"isMegawatt":false,"status":"AVAILABLE","source":"ndw"}},{"type":"Feature","geometry":{"type":"Point","coordinates":[4.583185,52.290903]},"properties":{"type":"charge","layer":"passenger","locationId":"NLLOC004778","name":"NLD, Jonckheer Mockkade 6, 2181 JH Hillegom","address":"Jonckheer Mockkade 6","city":"Hillegom","operatorName":"Allego","maxPowerKw":0,"isMegawatt":false,"status":"AVAILABLE","source":"ndw"}},{"type":"Feature","geometry":{"type":"Point","coordinates":[4.560597,52.297241]},"properties":{"type":"charge","layer":"passenger","locationId":"672dc921181854a4b3a2f41d","name":"Hillegom/Vredelaan 133","address":"Vredelaan 133","city":"Hillegom","operatorName":"E-Flux by Road","maxPowerKw":14,"isMegawatt":false,"status":"AVAILABLE","source":"ndw"}},{"type":"Feature","geometry":{"type":"Point","coordinates":[4.590262,52.288118]},"properties":{"type":"charge","layer":"passenger","locationId":"NLLOC014678","name":"NL, Ringvaartlaan 48, 2181 NG Hillegom","address":"Ringvaartlaan 48","city":"Hillegom","operatorName":"Allego","maxPowerKw":0,"isMegawatt":false,"status":"AVAILABLE","source":"ndw"}},{"type":"Feature","geometry":{"type":"Point","coordinates":[4.588584,52.288814]},"properties":{"type":"charge","layer":"passenger","locationId":"270129b6-ee36-11ea-9d24-42010a840003","name":"NL, Ringvaartlaan 53, 2181 AG, Hillegom","address":"Ringvaartlaan 53","city":"Hillegom","operatorName":"Allego","maxPowerKw":0,"isMegawatt":false,"status":"AVAILABLE","source":"ndw"}},{"type":"Feature","geometry":{"type":"Point","coordinates":[4.578442,52.286436]},"properties":{"type":"charge","layer":"passenger","locationId":"a0ec9696-ce9f-11e9-894a-42010a840003","name":"NL, Elsbroekerlaan 16C, 2182 TC Hillegom","address":"Elsbroekerlaan 16C","city":"Hillegom","operatorName":"Allego","maxPowerKw":0,"isMegawatt":false,"status":"AVAILABLE","source":"ndw"}},{"type":"Feature","geometry":{"type":"Point","coordinates":[4.579346,52.281595]},"properties":{"type":"charge","layer":"passenger","locationId":"d6fba5a0-3f07-11ea-8578-42010a840003","name":"NL, Frans Halslaan 29, 2182MH, Hillegom","address":"Frans Halslaan 29","city":"Hillegom","operatorName":"Allego","maxPowerKw":0,"isMegawatt":false,"status":"UNAVAILABLE","source":"ndw"}},{"type":"Feature","geometry":{"type":"Point","coordinates":[4.593349,52.294125]},"properties":{"type":"charge","layer":"passenger","locationId":"NLLOC004238","name":"NLD Heemskerklaan 18, 2181 XR Hillegom","address":"Heemskerklaan 18","city":"Hillegom","operatorName":"Allego","maxPowerKw":0,"isMegawatt":false,"status":"CHARGING","source":"ndw"}},{"type":"Feature","geometry":{"type":"Point","coordinates":[4.573401,52.27572]},"properties":{"type":"charge","layer":"passenger","locationId":"59a6d61e-515f-424e-b064-4364a666a086","name":"Arnoudstraat 5","address":"Arnoudstraat 5","city":"Hillegom","operatorName":"Vattenfall InCharge","maxPowerKw":50,"isMegawatt":false,"status":"AVAILABLE","source":"ndw"}},{"type":"Feature","geometry":{"type":"Point","coordinates":[4.582553,52.280757]},"properties":{"type":"charge","layer":"passenger","locationId":"69c6c3a4-e791-11ec-8118-42010aa40fc0","name":"NL, Jan Prinsheem 4, 2182 ZB Hillegom","address":"Jan Prinsheem 4","city":"Hillegom","operatorName":"Allego","maxPowerKw":0,"isMegawatt":false,"status":"AVAILABLE","source":"ndw"}},{"type":"Feature","geometry":{"type":"Point","coordinates":[4.593349,52.294125]},"properties":{"type":"charge","layer":"passenger","locationId":"862973fa-26e7-11f0-8988-42010aa400b8","name":"NLD Heemskerklaan 18, 2181 XR Hillegom","address":"Heemskerklaan 18","city":"Hillegom","operatorName":"Allego","maxPowerKw":0,"isMegawatt":false,"status":"AVAILABLE","source":"ndw"}},{"type":"Feature","geometry":{"type":"Point","coordinates":[4.5805,52.291122]},"properties":{"type":"charge","layer":"passenger","locationId":"f637cba6-cf68-11e9-860d-42010a840003","name":"NLD, Hofzicht 1, 2181 AE Hillegom","address":"Hofzicht 1","city":"Hillegom","operatorName":"Allego","maxPowerKw":0,"isMegawatt":false,"status":"AVAILABLE","source":"ndw"}},{"type":"Feature","geometry":{"type":"Point","coordinates":[4.587869,52.30535]},"properties":{"type":"charge","layer":"passenger","locationId":"682d6e6196f3310fa70f3f7d","name":"Hillegom/Patrimoniumplein 8, 2181GH","address":"Patrimoniumplein 8","city":"Hillegom","operatorName":"E-Flux by Road","maxPowerKw":14,"isMegawatt":false,"status":"AVAILABLE","source":"ndw"}},{"type":"Feature","geometry":{"type":"Point","coordinates":[4.581647,52.284951]},"properties":{"type":"charge","layer":"passenger","locationId":"NLLOC004966","name":"NLD, Elsbroekerlaan 38, 2182 TD Hillegom","address":"Elsbroekerlaan 38","city":"Hillegom","operatorName":"Allego","maxPowerKw":0,"isMegawatt":false,"status":"AVAILABLE","source":"ndw"}},{"type":"Feature","geometry":{"type":"Point","coordinates":[4.593357,52.294139]},"properties":{"type":"charge","layer":"passenger","locationId":"681330a20cd693a3932ca8b6","name":"Hillegom/Heemskerklaan 18","address":"Heemskerklaan 18","city":"Hillegom","operatorName":"E-Flux by Road","maxPowerKw":14,"isMegawatt":false,"status":"AVAILABLE","source":"ndw"}},{"type":"Feature","geometry":{"type":"Point","coordinates":[4.587935,52.283553]},"properties":{"type":"charge","layer":"passenger","locationId":"159f6ade-d032-11e9-965a-42010a840003","name":"NLD Albert Verweijlaan 93, 2182 PV Hillegom","address":"Albert Verweijlaan 93","city":"Hillegom","operatorName":"Allego","maxPowerKw":0,"isMegawatt":false,"status":"AVAILABLE","source":"ndw"}},{"type":"Feature","geometry":{"type":"Point","coordinates":[4.594662,52.297021]},"properties":{"type":"charge","layer":"passenger","locationId":"17508736-af31-11e9-bfac-42010a840003","name":"NLD Hertog Reynout 25, 2181 WD Hillegom","address":"Hertog Reynout 25","city":"Hillegom","operatorName":"Allego","maxPowerKw":0,"isMegawatt":false,"status":"AVAILABLE","source":"ndw"}},{"type":"Feature","geometry":{"type":"Point","coordinates":[4.582389,52.291316]},"properties":{"type":"charge","layer":"passenger","locationId":"1ac9386c-9e4b-11eb-afbb-42010a840003","name":"NLD, Prins Hendrikstraat 31, 2181 AN Hillegom","address":"Prins Hendrikstraat 31","city":"Hillegom","operatorName":"Allego","maxPowerKw":0,"isMegawatt":false,"status":"AVAILABLE","source":"ndw"}},{"type":"Feature","geometry":{"type":"Point","coordinates":[4.57387,52.29249]},"properties":{"type":"charge","layer":"passenger","locationId":"32bcf67e-4e72-11e8-84be-42010a840002","name":"Eneco eMobility Stek Wonen - Hillegom","address":"Wilhelminalaan 3","city":"Hillegom","operatorName":"Eneco","maxPowerKw":11,"isMegawatt":false,"status":"AVAILABLE","source":"ndw"}},{"type":"Feature","geometry":{"type":"Point","coordinates":[4.560832,52.297131]},"properties":{"type":"charge","layer":"passenger","locationId":"1abcaeb2-9e4b-11eb-ba51-42010a840003","name":"NL, Vredelaan 61, 2182NN Hillegom","address":"Vredelaan 61","city":"Hillegom","operatorName":"Allego","maxPowerKw":0,"isMegawatt":false,"status":"AVAILABLE","source":"ndw"}},{"type":"Feature","geometry":{"type":"Point","coordinates":[4.583352,52.298757]},"properties":{"type":"charge","layer":"passenger","locationId":"NLLOC004884","name":"NLD, Marellaan 31, 2181 DW, Hillegom","address":"Marellaan 31","city":"Hillegom","operatorName":"Allego","maxPowerKw":0,"isMegawatt":false,"status":"AVAILABLE","source":"ndw"}},{"type":"Feature","geometry":{"type":"Point","coordinates":[4.578832,52.296338]},"properties":{"type":"charge","layer":"passenger","locationId":"85a2b0ce-efa0-11e9-b817-42010a840003","name":"NLD, Sixlaan 15, 2182 AA Hillegom","address":"Sixlaan 15","city":"Hillegom","operatorName":"Allego","maxPowerKw":0,"isMegawatt":false,"status":"AVAILABLE","source":"ndw"}},{"type":"Feature","geometry":{"type":"Point","coordinates":[4.563826,52.29913]},"properties":{"type":"charge","layer":"passenger","locationId":"681ccc438d2e7ffe55d3bf68","name":"Hillegom/2e Loosterweg 108","address":"2e Loosterweg 108","city":"Hillegom","operatorName":"E-Flux by Road","maxPowerKw":14,"isMegawatt":false,"status":"AVAILABLE","source":"ndw"}},{"type":"Feature","geometry":{"type":"Point","coordinates":[4.582963,52.288651]},"properties":{"type":"charge","layer":"passenger","locationId":"697b17a64d1ca3f96d9b0311","name":"Hillegom/ Reinier Staatshof 2","address":"Reinier Staatshof 2","city":"Hillegom","operatorName":"E-Flux by Road","maxPowerKw":14,"isMegawatt":false,"status":"AVAILABLE","source":"ndw"}},{"type":"Feature","geometry":{"type":"Point","coordinates":[4.582553,52.280757]},"properties":{"type":"charge","layer":"passenger","locationId":"NLLOC021160","name":"NL, Jan Prinsheem 4, 2182 ZB Hillegom","address":"Jan Prinsheem 4","city":"Hillegom","operatorName":"Allego","maxPowerKw":0,"isMegawatt":false,"status":"AVAILABLE","source":"ndw"}},{"type":"Feature","geometry":{"type":"Point","coordinates":[4.578184,52.294135]},"properties":{"type":"charge","layer":"passenger","locationId":"565770dc-3439-11eb-b5a5-42010a840003","name":"NL, Van den Endelaan, 24, 2181EK, Hillegom","address":"Van den Endelaan 24","city":"Hillegom","operatorName":"Allego","maxPowerKw":0,"isMegawatt":false,"status":"CHARGING","source":"ndw"}},{"type":"Feature","geometry":{"type":"Point","coordinates":[4.590262,52.288118]},"properties":{"type":"charge","layer":"passenger","locationId":"5b177dc0-d613-11eb-a53d-42010a840003","name":"NL, Ringvaartlaan 48, 2181 NG Hillegom","address":"Ringvaartlaan 48","city":"Hillegom","operatorName":"Allego","maxPowerKw":0,"isMegawatt":false,"status":"AVAILABLE","source":"ndw"}},{"type":"Feature","geometry":{"type":"Point","coordinates":[4.583352,52.298757]},"properties":{"type":"charge","layer":"passenger","locationId":"f88e52b8-d8d6-11e9-934f-42010a840003","name":"NLD, Marellaan 31, 2181 DW, Hillegom","address":"Marellaan 31","city":"Hillegom","operatorName":"Allego","maxPowerKw":0,"isMegawatt":false,"status":"AVAILABLE","source":"ndw"}},{"type":"Feature","geometry":{"type":"Point","coordinates":[4.586476,52.280323]},"properties":{"type":"charge","layer":"passenger","locationId":"67f4d4aa163e55053b3fa119","name":"Hillegom/Guido Gezellelaan 54","address":"Guido Gezellelaan 54","city":"Hillegom","operatorName":"E-Flux by Road","maxPowerKw":14,"isMegawatt":false,"status":"AVAILABLE","source":"ndw"}},{"type":"Feature","geometry":{"type":"Point","coordinates":[4.581291,52.302867]},"properties":{"type":"charge","layer":"passenger","locationId":"19563ccc-0285-11ea-87bb-42010a840003","name":"NLD, Hillegom, Burgemeester van Niekerklaan 28","address":"Burgemeester van Niekerklaan 28","city":"Hillegom","operatorName":"Allego","maxPowerKw":0,"isMegawatt":false,"status":"AVAILABLE","source":"ndw"}},{"type":"Feature","geometry":{"type":"Point","coordinates":[4.583185,52.290903]},"properties":{"type":"charge","layer":"passenger","locationId":"e83938a8-d41f-11e9-986c-42010a840003","name":"NLD, Jonckheer Mockkade 6, 2181 JH Hillegom","address":"Jonckheer Mockkade 6","city":"Hillegom","operatorName":"Allego","maxPowerKw":0,"isMegawatt":false,"status":"AVAILABLE","source":"ndw"}},{"type":"Feature","geometry":{"type":"Point","coordinates":[4.585776,52.283554]},"properties":{"type":"charge","layer":"passenger","locationId":"NLLOC013745","name":"NL, Lodewijk van Deyssellaan 19, 2182vn, Hillegom","address":"Lodewijk van Deyssellaan 19","city":"Hillegom","operatorName":"Allego","maxPowerKw":0,"isMegawatt":false,"status":"AVAILABLE","source":"ndw"}},{"type":"Feature","geometry":{"type":"Point","coordinates":[4.581647,52.284951]},"properties":{"type":"charge","layer":"passenger","locationId":"a03bda70-e0b2-11e9-a46b-42010a840003","name":"NLD, Elsbroekerlaan 38, 2182 TD Hillegom","address":"Elsbroekerlaan 38","city":"Hillegom","operatorName":"Allego","maxPowerKw":0,"isMegawatt":false,"status":"AVAILABLE","source":"ndw"}},{"type":"Feature","geometry":{"type":"Point","coordinates":[4.573155,52.284403]},"properties":{"type":"charge","layer":"passenger","locationId":"d8267b10-fc5a-11ea-a04d-42010a840033","name":"Leidsestraat 79 2182DJ Hillegom","address":"Leidsestraat 79","city":"Hillegom","operatorName":"Allego","maxPowerKw":0,"isMegawatt":false,"status":"CHARGING","source":"ndw"}},{"type":"Feature","geometry":{"type":"Point","coordinates":[4.591729,52.287208]},"properties":{"type":"charge","layer":"passenger","locationId":"f80eefa6-5f3f-11ea-ade6-42010a840003","name":"NL, Ringvaartlaan 1, 2181 NG, Hillegom","address":"Ringvaartlaan 1","city":"Hillegom","operatorName":"Allego","maxPowerKw":0,"isMegawatt":false,"status":"AVAILABLE","source":"ndw"}},{"type":"Feature","geometry":{"type":"Point","coordinates":[4.58692,52.292995]},"properties":{"type":"charge","layer":"passenger","locationId":"f018fc06-9630-11ea-bb50-42010a840003","name":"NL, Mauritslaan 7, 2181 SK, Hillegom","address":"Mauritslaan 7","city":"Hillegom","operatorName":"Allego","maxPowerKw":0,"isMegawatt":false,"status":"AVAILABLE","source":"ndw"}},{"type":"Feature","geometry":{"type":"Point","coordinates":[4.590472,52.292004]},"properties":{"type":"charge","layer":"passenger","locationId":"386f835a-7c7f-11eb-887e-42010a840003","name":"NL, Willem de Zwijgerlaan 63, 2181 TP, Hillegom","address":"Willem de Zwijgerlaan 63","city":"Hillegom","operatorName":"Allego","maxPowerKw":0,"isMegawatt":false,"status":"AVAILABLE","source":"ndw"}},{"type":"Feature","geometry":{"type":"Point","coordinates":[4.592309,52.290511]},"properties":{"type":"charge","layer":"passenger","locationId":"64f64d40-c6eb-11ea-a48c-42010a840003","name":"NL, Kuyperlaan 12, 2181 VK, Hillegom","address":"Kuyperlaan 12","city":"Hillegom","operatorName":"Allego","maxPowerKw":0,"isMegawatt":false,"status":"AVAILABLE","source":"ndw"}},{"type":"Feature","geometry":{"type":"Point","coordinates":[4.58889,52.298615]},"properties":{"type":"charge","layer":"passenger","locationId":"d96e0f20-c91f-11e9-99fc-42010a840003","name":"NL, Biljoen 4, 2181 MP Hillegom","address":"Biljoen 4","city":"Hillegom","operatorName":"Allego","maxPowerKw":0,"isMegawatt":false,"status":"AVAILABLE","source":"ndw"}},{"type":"Feature","geometry":{"type":"Point","coordinates":[4.568964,52.294728]},"properties":{"type":"charge","layer":"passenger","locationId":"6b3733e0-d3ba-11eb-9dcf-42010a840003","name":"NL, Wilhelminalaan 86, 2182 CE Hillegom","address":"Wilhelminalaan 86","city":"Hillegom","operatorName":"Allego","maxPowerKw":0,"isMegawatt":false,"status":"AVAILABLE","source":"ndw"}},{"type":"Feature","geometry":{"type":"Point","coordinates":[4.583784,52.287167]},"properties":{"type":"charge","layer":"passenger","locationId":"8cd1b058-65b4-11eb-8962-42010a840003","name":"NL, Sportlaan 44, 2182 KT Hillegom","address":"Sportlaan 44","city":"Hillegom","operatorName":"Allego","maxPowerKw":0,"isMegawatt":false,"status":"AVAILABLE","source":"ndw"}},{"type":"Feature","geometry":{"type":"Point","coordinates":[4.584386,52.293446]},"properties":{"type":"charge","layer":"passenger","locationId":"c857f06c-125b-11eb-9927-42010a840033","name":"NL, Prinses Marijkestraat 51, 2181 RM, Hillegom","address":"Prinses Marijkestraat 51","city":"Hillegom","operatorName":"Allego","maxPowerKw":0,"isMegawatt":false,"status":"CHARGING","source":"ndw"}},{"type":"Feature","geometry":{"type":"Point","coordinates":[4.585776,52.283554]},"properties":{"type":"charge","layer":"passenger","locationId":"6b25b782-d3ba-11eb-b5ad-42010a840003","name":"NL, Lodewijk van Deyssellaan 19, 2182vn, Hillegom","address":"Lodewijk van Deyssellaan 19","city":"Hillegom","operatorName":"Allego","maxPowerKw":0,"isMegawatt":false,"status":"CHARGING","source":"ndw"}},{"type":"Feature","geometry":{"type":"Point","coordinates":[4.581968,52.301856]},"properties":{"type":"charge","layer":"passenger","locationId":"64ea9aae-c6eb-11ea-b198-42010a840003","name":"NL, Burgemeester Wentholtstraat 20, 2182GN, Hillegom","address":"Burgemeester Wentholtstraat 20","city":"Hillegom","operatorName":"Allego","maxPowerKw":0,"isMegawatt":false,"status":"AVAILABLE","source":"ndw"}},{"type":"Feature","geometry":{"type":"Point","coordinates":[4.586631,52.295906]},"properties":{"type":"charge","layer":"passenger","locationId":"69ac32f4-55fd-11eb-96a3-42010a840003","name":"NL, Kastanjelaan 73, 2181 KL, Hillegom","address":"Kastanjelaan 73","city":"Hillegom","operatorName":"Allego","maxPowerKw":0,"isMegawatt":false,"status":"AVAILABLE","source":"ndw"}},{"type":"Feature","geometry":{"type":"Point","coordinates":[4.578183,52.283033]},"properties":{"type":"charge","layer":"passenger","locationId":"cccf6a80-ed6c-11ea-90a3-42010a840003","name":"NL, Mesdaglaan 22, 2182 SW Hillegom","address":"Mesdaglaan 22","city":"Hillegom","operatorName":"Allego","maxPowerKw":0,"isMegawatt":false,"status":"AVAILABLE","source":"ndw"}},{"type":"Feature","geometry":{"type":"Point","coordinates":[4.584752,52.284876]},"properties":{"type":"charge","layer":"passenger","locationId":"d678c7fc-ad9e-11e9-b949-42010a840003","name":"NLD Hillinenweg 33, 2182 VA Hillegom","address":"Hillinenweg 33","city":"Hillegom","operatorName":"Allego","maxPowerKw":0,"isMegawatt":false,"status":"AVAILABLE","source":"ndw"}},{"type":"Feature","geometry":{"type":"Point","coordinates":[4.58889,52.298615]},"properties":{"type":"charge","layer":"passenger","locationId":"NLLOC027439","name":"NL, Biljoen 4, 2181 MP Hillegom","address":"Biljoen 4","city":"Hillegom","operatorName":"Allego","maxPowerKw":0,"isMegawatt":false,"status":"AVAILABLE","source":"ndw"}},{"type":"Feature","geometry":{"type":"Point","coordinates":[4.589437,52.316404]},"properties":{"type":"charge","layer":"passenger","locationId":"96d752de-bbea-11ea-979a-42010a840003","name":"NL, Haarlemmerstraat 110, 2181 HE, Hillegom","address":"Haarlemmerstraat 110","city":"Hillegom","operatorName":"Allego","maxPowerKw":0,"isMegawatt":false,"status":"AVAILABLE","source":"ndw"}},{"type":"Feature","geometry":{"type":"Point","coordinates":[4.577022,52.287748]},"properties":{"type":"charge","layer":"passenger","locationId":"efa6dd3c-d8d6-11e9-bd72-42010a840003","name":"NLD, Hillegom, Clusiushof 2","address":"Clusiushof 2","city":"Hillegom","operatorName":"Allego","maxPowerKw":0,"isMegawatt":false,"status":"AVAILABLE","source":"ndw"}},{"type":"Feature","geometry":{"type":"Point","coordinates":[4.584386,52.293446]},"properties":{"type":"charge","layer":"passenger","locationId":"NLLOC006139","name":"NL, Prinses Marijkestraat 51, 2181 RM, Hillegom","address":"Prinses Marijkestraat 51","city":"Hillegom","operatorName":"Allego","maxPowerKw":0,"isMegawatt":false,"status":"AVAILABLE","source":"ndw"}},{"type":"Feature","geometry":{"type":"Point","coordinates":[4.579346,52.281595]},"properties":{"type":"charge","layer":"passenger","locationId":"NLLOC006395","name":"NL, Frans Halslaan 29, 2182MH, Hillegom","address":"Frans Halslaan 29","city":"Hillegom","operatorName":"Allego","maxPowerKw":0,"isMegawatt":false,"status":"AVAILABLE","source":"ndw"}},{"type":"Feature","geometry":{"type":"Point","coordinates":[4.584528,52.282243]},"properties":{"type":"charge","layer":"passenger","locationId":"a910a3ea-04e0-11ea-a330-42010a840003","name":"NLD, Van de Woestijneheem 113, Hillegom","address":"Van de Woestijneheem 113","city":"Hillegom","operatorName":"Allego","maxPowerKw":0,"isMegawatt":false,"status":"AVAILABLE","source":"ndw"}},{"type":"Feature","geometry":{"type":"Point","coordinates":[4.573155,52.284403]},"properties":{"type":"charge","layer":"passenger","locationId":"NLLOC009391","name":"Leidsestraat 79 2182DJ Hillegom","address":"Leidsestraat 79","city":"Hillegom","operatorName":"Allego","maxPowerKw":0,"isMegawatt":false,"status":"AVAILABLE","source":"ndw"}},{"type":"Feature","geometry":{"type":"Point","coordinates":[4.577555,52.293514]},"properties":{"type":"charge","layer":"passenger","locationId":"67c9a9c824339140179b5159","name":"Hillegom/van den Endelaan 42","address":"van den Endelaan 42","city":"Hillegom","operatorName":"E-Flux by Road","maxPowerKw":14,"isMegawatt":false,"status":"AVAILABLE","source":"ndw"}},{"type":"Feature","geometry":{"type":"Point","coordinates":[4.576362,52.292596]},"properties":{"type":"charge","layer":"passenger","locationId":"6819fc6ee3de1e907ca32614","name":"Hillegom/Van Den Endelaan 64","address":"Van Den Endelaan 64","city":"Hillegom","operatorName":"E-Flux by Road","maxPowerKw":14,"isMegawatt":false,"status":"AVAILABLE","source":"ndw"}},{"type":"Feature","geometry":{"type":"Point","coordinates":[4.592003,52.299246]},"properties":{"type":"charge","layer":"passenger","locationId":"NLLOC020834","name":"NL, Tongelaer 106, 2181 LG Hillegom","address":"Tongelaer 106","city":"Hillegom","operatorName":"Allego","maxPowerKw":0,"isMegawatt":false,"status":"AVAILABLE","source":"ndw"}},{"type":"Feature","geometry":{"type":"Point","coordinates":[4.587935,52.283553]},"properties":{"type":"charge","layer":"passenger","locationId":"NLLOC004693","name":"NLD Albert Verweijlaan 93, 2182 PV Hillegom","address":"Albert Verweijlaan 93","city":"Hillegom","operatorName":"Allego","maxPowerKw":0,"isMegawatt":false,"status":"AVAILABLE","source":"ndw"}},{"type":"Feature","geometry":{"type":"Point","coordinates":[4.591449,52.297204]},"properties":{"type":"charge","layer":"passenger","locationId":"687601d26abc1c56c5bafd7d","name":"Hillegom /Maurick 2","address":"Maurick 2","city":"Hillegom","operatorName":"E-Flux by Road","maxPowerKw":14,"isMegawatt":false,"status":"AVAILABLE","source":"ndw"}},{"type":"Feature","geometry":{"type":"Point","coordinates":[4.577022,52.287748]},"properties":{"type":"charge","layer":"passenger","locationId":"NLLOC004882","name":"NLD, Hillegom, Clusiushof 2","address":"Clusiushof 2","city":"Hillegom","operatorName":"Allego","maxPowerKw":0,"isMegawatt":false,"status":"AVAILABLE","source":"ndw"}},{"type":"Feature","geometry":{"type":"Point","coordinates":[4.588715,52.285351]},"properties":{"type":"charge","layer":"passenger","locationId":"673f2eb371731a63d2c83159","name":"Hillegom/Bilderdijkwende 10","address":"Bilderdijkwende 10","city":"Hillegom","operatorName":"E-Flux by Road","maxPowerKw":14,"isMegawatt":false,"status":"AVAILABLE","source":"ndw"}},{"type":"Feature","geometry":{"type":"Point","coordinates":[4.561652,52.293394]},"properties":{"type":"charge","layer":"passenger","locationId":"653f8e489dc084001cc85cbf","name":"HOS BV Hillegom","address":"3e Loosterweg 40","city":"Hillegom","operatorName":"E-Flux by Road","maxPowerKw":11,"isMegawatt":false,"status":"AVAILABLE","source":"ndw"}},{"type":"Feature","geometry":{"type":"Point","coordinates":[4.58112,52.280095]},"properties":{"type":"charge","layer":"passenger","locationId":"67486172edd023d941e782c5","name":"Hillegom/Jan Prinsheem 98","address":"Jan Prinsheem 98","city":"Hillegom","operatorName":"E-Flux by Road","maxPowerKw":14,"isMegawatt":false,"status":"AVAILABLE","source":"ndw"}},{"type":"Feature","geometry":{"type":"Point","coordinates":[4.588584,52.288814]},"properties":{"type":"charge","layer":"passenger","locationId":"NLLOC006903","name":"NL, Ringvaartlaan 53, 2181 AG, Hillegom","address":"Ringvaartlaan 53","city":"Hillegom","operatorName":"Allego","maxPowerKw":0,"isMegawatt":false,"status":"AVAILABLE","source":"ndw"}},{"type":"Feature","geometry":{"type":"Point","coordinates":[4.592309,52.290511]},"properties":{"type":"charge","layer":"passenger","locationId":"NLLOC007434","name":"NL, Kuyperlaan 12, 2181 VK, Hillegom","address":"Kuyperlaan 12","city":"Hillegom","operatorName":"Allego","maxPowerKw":0,"isMegawatt":false,"status":"AVAILABLE","source":"ndw"}},{"type":"Feature","geometry":{"type":"Point","coordinates":[4.583077,52.283108]},"properties":{"type":"charge","layer":"passenger","locationId":"68304d0bc945efe1775ea562","name":"Hillegom/Hillinenweg 84, 2182VD","address":"Hillinenweg 84","city":"Hillegom","operatorName":"E-Flux by Road","maxPowerKw":14,"isMegawatt":false,"status":"AVAILABLE","source":"ndw"}},{"type":"Feature","geometry":{"type":"Point","coordinates":[4.593146,52.289688]},"properties":{"type":"charge","layer":"passenger","locationId":"681cc8aa5c84a29f4cf41a9c","name":"Hillegom/Schaepmanlaan 16","address":"Schaepmanlaan 16","city":"Hillegom","operatorName":"E-Flux by Road","maxPowerKw":14,"isMegawatt":false,"status":"AVAILABLE","source":"ndw"}},{"type":"Feature","geometry":{"type":"Point","coordinates":[4.582184,52.287326]},"properties":{"type":"charge","layer":"passenger","locationId":"6821e79668b0dd5d77881003","name":"Hillegom/Brouwerplein 28","address":"Brouwerplein 28","city":"Hillegom","operatorName":"E-Flux by Road","maxPowerKw":14,"isMegawatt":false,"status":"AVAILABLE","source":"ndw"}},{"type":"Feature","geometry":{"type":"Point","coordinates":[4.578184,52.294135]},"properties":{"type":"charge","layer":"passenger","locationId":"NLLOC009139","name":"NL, Van den Endelaan, 24, 2181EK, Hillegom","address":"Van den Endelaan 24","city":"Hillegom","operatorName":"Allego","maxPowerKw":0,"isMegawatt":false,"status":"AVAILABLE","source":"ndw"}},{"type":"Feature","geometry":{"type":"Point","coordinates":[4.589437,52.316404]},"properties":{"type":"charge","layer":"passenger","locationId":"NLLOC007445","name":"NL, Haarlemmerstraat 110, 2181 HE, Hillegom","address":"Haarlemmerstraat 110","city":"Hillegom","operatorName":"Allego","maxPowerKw":0,"isMegawatt":false,"status":"AVAILABLE","source":"ndw"}},{"type":"Feature","geometry":{"type":"Point","coordinates":[4.59097,52.295209]},"properties":{"type":"charge","layer":"passenger","locationId":"6724bc0741c6e1032cf6781b","name":"Hillegom/Vosselaan 156","address":"Vosselaan 156","city":"Hillegom","operatorName":"E-Flux by Road","maxPowerKw":14,"isMegawatt":false,"status":"AVAILABLE","source":"ndw"}},{"type":"Feature","geometry":{"type":"Point","coordinates":[4.581968,52.301856]},"properties":{"type":"charge","layer":"passenger","locationId":"NLLOC006687","name":"NL, Burgemeester Wentholtstraat 20, 2182GN, Hillegom","address":"Burgemeester Wentholtstraat 20","city":"Hillegom","operatorName":"Allego","maxPowerKw":0,"isMegawatt":false,"status":"AVAILABLE","source":"ndw"}},{"type":"Feature","geometry":{"type":"Point","coordinates":[4.582389,52.291316]},"properties":{"type":"charge","layer":"passenger","locationId":"NLLOC027837","name":"NLD, Prins Hendrikstraat 31, 2181 AN Hillegom","address":"Prins Hendrikstraat 31","city":"Hillegom","operatorName":"Allego","maxPowerKw":0,"isMegawatt":false,"status":"AVAILABLE","source":"ndw"}},{"type":"Feature","geometry":{"type":"Point","coordinates":[4.5805,52.291122]},"properties":{"type":"charge","layer":"passenger","locationId":"NLLOC004686","name":"NLD, Hofzicht 1, 2181 AE Hillegom","address":"Hofzicht 1","city":"Hillegom","operatorName":"Allego","maxPowerKw":0,"isMegawatt":false,"status":"CHARGING","source":"ndw"}},{"type":"Feature","geometry":{"type":"Point","coordinates":[4.588633,52.312271]},"properties":{"type":"charge","layer":"passenger","locationId":"68aed10429f306dd21053b7d","name":"Wijn Wine Wein","address":"Haarlemmerstraat 13A","city":"Hillegom","operatorName":"E-Flux by Road","maxPowerKw":22,"isMegawatt":false,"status":"AVAILABLE","source":"ndw"}},{"type":"Feature","geometry":{"type":"Point","coordinates":[4.568964,52.294728]},"properties":{"type":"charge","layer":"passenger","locationId":"NLLOC012712","name":"NL, Wilhelminalaan 86, 2182 CE Hillegom","address":"Wilhelminalaan 86","city":"Hillegom","operatorName":"Allego","maxPowerKw":0,"isMegawatt":false,"status":"AVAILABLE","source":"ndw"}},{"type":"Feature","geometry":{"type":"Point","coordinates":[4.594662,52.297021]},"properties":{"type":"charge","layer":"passenger","locationId":"NLLOC004538","name":"NLD Hertog Reynout 25, 2181 WD Hillegom","address":"Hertog Reynout 25","city":"Hillegom","operatorName":"Allego","maxPowerKw":0,"isMegawatt":false,"status":"AVAILABLE","source":"ndw"}},{"type":"Feature","geometry":{"type":"Point","coordinates":[4.581031,52.300814]},"properties":{"type":"charge","layer":"passenger","locationId":"67f3c440177af140e0af3c9f","name":"Koen Scheefhals 's station","address":"Burgemeester Hermanslaan  1","city":"Hillegom","operatorName":"E-Flux by Road","maxPowerKw":11,"isMegawatt":false,"status":"AVAILABLE","source":"ndw"}},{"type":"Feature","geometry":{"type":"Point","coordinates":[4.575952,52.282999]},"properties":{"type":"charge","layer":"passenger","locationId":"6749be16ff42d0d9a60eb248","name":"Hillegom/Jozef Israëlslaan 19","address":"Jozef Israëlslaan 19","city":"Hillegom","operatorName":"E-Flux by Road","maxPowerKw":14,"isMegawatt":false,"status":"AVAILABLE","source":"ndw"}},{"type":"Feature","geometry":{"type":"Point","coordinates":[4.583686,52.286704]},"properties":{"type":"charge","layer":"passenger","locationId":"6979eda3832e387af19bd65d","name":"Hillegom/ Avenbeeck 84","address":"Avenbeeck 84","city":"Hillegom","operatorName":"E-Flux by Road","maxPowerKw":14,"isMegawatt":false,"status":"AVAILABLE","source":"ndw"}},{"type":"Feature","geometry":{"type":"Point","coordinates":[4.58678,52.296373]},"properties":{"type":"charge","layer":"passenger","locationId":"67e542f3879f51a90707550c","name":"Hillegom/Kastanjelaan-Vosselaan 116","address":"Vosselaan 116","city":"Hillegom","operatorName":"E-Flux by Road","maxPowerKw":14,"isMegawatt":false,"status":"AVAILABLE","source":"ndw"}},{"type":"Feature","geometry":{"type":"Point","coordinates":[4.560832,52.297131]},"properties":{"type":"charge","layer":"passenger","locationId":"NLLOC012170","name":"NL, Vredelaan 61, 2182NN Hillegom","address":"Vredelaan 61","city":"Hillegom","operatorName":"Allego","maxPowerKw":0,"isMegawatt":false,"status":"AVAILABLE","source":"ndw"}},{"type":"Feature","geometry":{"type":"Point","coordinates":[4.597015,52.297192]},"properties":{"type":"charge","layer":"passenger","locationId":"65c4f2bbae9ba2001c9bbbe1","name":"E flux lader Schellinkhout Hillegom","address":"Schellinkhout","city":"Hillegom","operatorName":"E-Flux by Road","maxPowerKw":22,"isMegawatt":false,"status":"AVAILABLE","source":"ndw"}},{"type":"Feature","geometry":{"type":"Point","coordinates":[4.578442,52.286436]},"properties":{"type":"charge","layer":"passenger","locationId":"NLLOC004722","name":"NL, Elsbroekerlaan 16C, 2182 TC Hillegom","address":"Elsbroekerlaan 16C","city":"Hillegom","operatorName":"Allego","maxPowerKw":0,"isMegawatt":false,"status":"AVAILABLE","source":"ndw"}},{"type":"Feature","geometry":{"type":"Point","coordinates":[4.585111,52.292992]},"properties":{"type":"charge","layer":"passenger","locationId":"673215bc185640a06dfbd0e1","name":"Hillegom/Prinses Beatrixlaan 22","address":"Prinses Beatrixlaan 22","city":"Hillegom","operatorName":"E-Flux by Road","maxPowerKw":14,"isMegawatt":false,"status":"AVAILABLE","source":"ndw"}},{"type":"Feature","geometry":{"type":"Point","coordinates":[4.584528,52.282243]},"properties":{"type":"charge","layer":"passenger","locationId":"NLLOC005509","name":"NLD, Van de Woestijneheem 113, Hillegom","address":"Van de Woestijneheem 113","city":"Hillegom","operatorName":"Allego","maxPowerKw":0,"isMegawatt":false,"status":"AVAILABLE","source":"ndw"}},{"type":"Feature","geometry":{"type":"Point","coordinates":[4.581291,52.302867]},"properties":{"type":"charge","layer":"passenger","locationId":"NLLOC004665","name":"NLD, Hillegom, Burgemeester van Niekerklaan 28","address":"Burgemeester van Niekerklaan 28","city":"Hillegom","operatorName":"Allego","maxPowerKw":0,"isMegawatt":false,"status":"AVAILABLE","source":"ndw"}},{"type":"Feature","geometry":{"type":"Point","coordinates":[4.577655,52.282099]},"properties":{"type":"charge","layer":"passenger","locationId":"67f4d183617297f1b31838c0","name":"Hillegom/Johannes Vermeerlaan 11","address":"Johannes Vermeerlaan 11","city":"Hillegom","operatorName":"E-Flux by Road","maxPowerKw":14,"isMegawatt":false,"status":"AVAILABLE","source":"ndw"}},{"type":"Feature","geometry":{"type":"Point","coordinates":[4.584793,52.302637]},"properties":{"type":"charge","layer":"passenger","locationId":"615af2a3ff44bea8f25d3d26","name":"3angles station","address":"Weerlaan 4 B","city":"Hillegom","operatorName":"E-Flux by Road","maxPowerKw":15,"isMegawatt":false,"status":"CHARGING","source":"ndw"}},{"type":"Feature","geometry":{"type":"Point","coordinates":[4.58692,52.292995]},"properties":{"type":"charge","layer":"passenger","locationId":"NLLOC007050","name":"NL, Mauritslaan 7, 2181 SK, Hillegom","address":"Mauritslaan 7","city":"Hillegom","operatorName":"Allego","maxPowerKw":0,"isMegawatt":false,"status":"AVAILABLE","source":"ndw"}},{"type":"Feature","geometry":{"type":"Point","coordinates":[4.584752,52.284876]},"properties":{"type":"charge","layer":"passenger","locationId":"NLLOC004520","name":"NLD Hillinenweg 33, 2182 VA Hillegom","address":"Hillinenweg 33","city":"Hillegom","operatorName":"Allego","maxPowerKw":0,"isMegawatt":false,"status":"AVAILABLE","source":"ndw"}},{"type":"Feature","geometry":{"type":"Point","coordinates":[4.591729,52.287208]},"properties":{"type":"charge","layer":"passenger","locationId":"NLLOC007500","name":"NL, Ringvaartlaan 1, 2181 NG, Hillegom","address":"Ringvaartlaan 1","city":"Hillegom","operatorName":"Allego","maxPowerKw":0,"isMegawatt":false,"status":"AVAILABLE","source":"ndw"}},{"type":"Feature","geometry":{"type":"Point","coordinates":[4.578183,52.283033]},"properties":{"type":"charge","layer":"passenger","locationId":"NLLOC007340","name":"NL, Mesdaglaan 22, 2182 SW Hillegom","address":"Mesdaglaan 22","city":"Hillegom","operatorName":"Allego","maxPowerKw":0,"isMegawatt":false,"status":"AVAILABLE","source":"ndw"}},{"type":"Feature","geometry":{"type":"Point","coordinates":[4.59,52.299062]},"properties":{"type":"charge","layer":"passenger","locationId":"675fe81e0823c8e5443fcafc","name":"Hillegom/Assumburgh 21","address":"Assumburgh 21","city":"Hillegom","operatorName":"E-Flux by Road","maxPowerKw":14,"isMegawatt":false,"status":"AVAILABLE","source":"ndw"}},{"type":"Feature","geometry":{"type":"Point","coordinates":[4.580103,52.300386]},"properties":{"type":"charge","layer":"passenger","locationId":"69b81e712df26b55a18d8323","name":"Hillegom/ Michiel De Ruyterstraat 73","address":"Michiel De Ruyterstraat 73","city":"Hillegom","operatorName":"E-Flux by Road","maxPowerKw":14,"isMegawatt":false,"status":"AVAILABLE","source":"ndw"}},{"type":"Feature","geometry":{"type":"Point","coordinates":[4.586631,52.295906]},"properties":{"type":"charge","layer":"passenger","locationId":"NLLOC006935","name":"NL, Kastanjelaan 73, 2181 KL, Hillegom","address":"Kastanjelaan 73","city":"Hillegom","operatorName":"Allego","maxPowerKw":0,"isMegawatt":false,"status":"AVAILABLE","source":"ndw"}},{"type":"Feature","geometry":{"type":"Point","coordinates":[4.583784,52.287167]},"properties":{"type":"charge","layer":"passenger","locationId":"NLLOC008688","name":"NL, Sportlaan 44, 2182 KT Hillegom","address":"Sportlaan 44","city":"Hillegom","operatorName":"Allego","maxPowerKw":0,"isMegawatt":false,"status":"AVAILABLE","source":"ndw"}},{"type":"Feature","geometry":{"type":"Point","coordinates":[4.590472,52.292004]},"properties":{"type":"charge","layer":"passenger","locationId":"NLLOC006187","name":"NL, Willem de Zwijgerlaan 63, 2181 TP, Hillegom","address":"Willem de Zwijgerlaan 63","city":"Hillegom","operatorName":"Allego","maxPowerKw":0,"isMegawatt":false,"status":"AVAILABLE","source":"ndw"}},{"type":"Feature","geometry":{"type":"Point","coordinates":[4.578832,52.296338]},"properties":{"type":"charge","layer":"passenger","locationId":"NLLOC005135","name":"NLD, Sixlaan 15, 2182 AA Hillegom","address":"Sixlaan 15","city":"Hillegom","operatorName":"Allego","maxPowerKw":0,"isMegawatt":false,"status":"AVAILABLE","source":"ndw"}},{"type":"Feature","geometry":{"type":"Point","coordinates":[4.593595,52.295576]},"properties":{"type":"charge","layer":"passenger","locationId":"67e2b2af91c468d0ec478877","name":"Hillegom/Leeghwater 6","address":"Leeghwater 6","city":"Hillegom","operatorName":"E-Flux by Road","maxPowerKw":14,"isMegawatt":false,"status":"AVAILABLE","source":"ndw"}},{"type":"Feature","geometry":{"type":"Point","coordinates":[4.570662,52.301134]},"properties":{"type":"charge","layer":"passenger","locationId":"6806369f3d6d62df00936b0e","name":"Hillegom/Hofduynlaan 33","address":"Hofduynlaan 33","city":"Hillegom","operatorName":"E-Flux by Road","maxPowerKw":14,"isMegawatt":false,"status":"AVAILABLE","source":"ndw"}},{"type":"Feature","geometry":{"type":"Point","coordinates":[4.584552,52.302213]},"properties":{"type":"charge","layer":"passenger","locationId":"698b2e7ff04032fb6f461cc8","name":"Hillegom/ Satellietbaan 9","address":"Satellietbaan 9","city":"Hillegom","operatorName":"E-Flux by Road","maxPowerKw":14,"isMegawatt":false,"status":"AVAILABLE","source":"ndw"}},{"type":"Feature","geometry":{"type":"MultiPolygon","coordinates":[[[[4.586888634875227,52.316995613592574],[4.587468730691533,52.316763340371836],[4.587990524408016,52.316939519525846],[4.587686137320327,52.317881085019586],[4.591033360934284,52.317789289807045],[4.593312843762369,52.31777801536286],[4.593320987378752,52.317777974759686],[4.595087390057874,52.31767639113919],[4.596572549692997,52.317706250751456],[4.599455653204618,52.31710117670475],[4.599457457571798,52.31710065753355],[4.601456843433823,52.316521408284615],[4.602885572014751,52.315846703918446],[4.6116756318049985,52.31356012786797],[4.611532691398743,52.312240309961005],[4.610263760380549,52.31087960746788],[4.6047374366091125,52.306279148691054],[4.602332597043968,52.303243262176096],[4.599827892930312,52.29987008218382],[4.598243522341632,52.29773605676373],[4.5964761320939775,52.29444599357118],[4.59635823095529,52.29184339867267],[4.595595579890129,52.29079889372486],[4.593737358526349,52.28870114174983],[4.59133656780135,52.28595828485204],[4.589535873083567,52.282479002172416],[4.5888719205787485,52.28110824434491],[4.588206709287626,52.28023267549439],[4.584873848847781,52.27833292181376],[4.584143504555519,52.27791563525856],[4.577190909512793,52.27384332683606],[4.577121878153816,52.27380288720349],[4.57274859290163,52.2712403406438],[4.567596481453665,52.27350102499301],[4.567566818080724,52.27351758479075],[4.55344581412125,52.28203902807473],[4.548472551317343,52.2843286060875],[4.548692220785097,52.28468021520827],[4.546895790326313,52.28499780106119],[4.54255006545876,52.286644389935276],[4.542318842705598,52.28737829669424],[4.551795089843256,52.2971233132875],[4.554459458547294,52.29941193500703],[4.555375945680056,52.2991442508184],[4.563707232373594,52.309298171707894],[4.568446611979799,52.315641857407854],[4.569075271917563,52.31648317346184],[4.573240336025661,52.31535567269607],[4.583435103713052,52.3183825167622],[4.585792246773023,52.31819753232288],[4.585936249819124,52.317570728104556],[4.5860900481278,52.31731536376716],[4.5866102043430015,52.317011582730686],[4.586888634875227,52.316995613592574]]]]},"properties":{"type":"boundary","gemeente":"Hillegom","code":"GM0534"}}]}