{"type":"FeatureCollection","metadata":{"gemeente":"Hilvarenbeek","slug":"hilvarenbeek","code":"GM0798","generated_at":"2026-06-07T19:22:09.578Z","total_passenger":48,"total_freight":0,"bounds":[5.048791126169767,51.428240131100964,5.251248873894162,51.545918817705484],"operators":["ChargeCars B.V.","DAEN Mobility","E-Flux by Road","Opcharge","PowerGo","Van Mossel Energie Lease","Vattenfall InCharge"]},"features":[{"type":"Feature","geometry":{"type":"Point","coordinates":[5.107387,51.509624]},"properties":{"type":"charge","layer":"passenger","locationId":"36f59368-e2d3-11ed-a7d0-42010aa40fc0","name":"Hilvaria Studio's (PowerGo)","address":"Goirlesedijk 12b","city":"Tilburg","operatorName":"PowerGo","maxPowerKw":0,"isMegawatt":false,"status":"AVAILABLE","source":"ndw"}},{"type":"Feature","geometry":{"type":"Point","coordinates":[5.176894,51.477981]},"properties":{"type":"charge","layer":"passenger","locationId":"d2373dff-df43-4ef4-bbe6-1601b0c741fa","name":"Willibrordusstraat","address":"Willibrordusstraat 10","city":"Diessen","operatorName":"Vattenfall InCharge","maxPowerKw":11,"isMegawatt":false,"status":"AVAILABLE","source":"ndw"}},{"type":"Feature","geometry":{"type":"Point","coordinates":[5.1073871,51.5096245]},"properties":{"type":"charge","layer":"passenger","locationId":"12191","name":"Hilvaria Studio's (PowerGo)","address":"Goirlesedijk 12b","city":"Tilburg","operatorName":"PowerGo","maxPowerKw":0,"isMegawatt":false,"status":"AVAILABLE","source":"ndw"}},{"type":"Feature","geometry":{"type":"Point","coordinates":[5.173341,51.472554]},"properties":{"type":"charge","layer":"passenger","locationId":"e844afa70c46dc55716273b4b93b7ede","name":"Acacialaan 37","address":"Acacialaan 37","city":"Diessen","operatorName":"Vattenfall InCharge","maxPowerKw":11,"isMegawatt":false,"status":"AVAILABLE","source":"ndw"}},{"type":"Feature","geometry":{"type":"Point","coordinates":[5.1364,51.482368]},"properties":{"type":"charge","layer":"passenger","locationId":"02248281-a79b-4976-a8a9-7f181c9c7879","name":"Deken Cauthalsstraat","address":"Deken Cauthalsstraat 56","city":"Hilvarenbeek","operatorName":"Vattenfall InCharge","maxPowerKw":11,"isMegawatt":false,"status":"AVAILABLE","source":"ndw"}},{"type":"Feature","geometry":{"type":"Point","coordinates":[5.174978,51.474035]},"properties":{"type":"charge","layer":"passenger","locationId":"c616ffec-cfff-4e33-a600-d89878bc84b7","name":"Gildeweide","address":"Gildeweide 2","city":"Diessen","operatorName":"Vattenfall InCharge","maxPowerKw":11,"isMegawatt":false,"status":"AVAILABLE","source":"ndw"}},{"type":"Feature","geometry":{"type":"Point","coordinates":[5.139051,51.464232]},"properties":{"type":"charge","layer":"passenger","locationId":"3304693b-07bc-478c-9c85-5822b9e2fa29","name":"Lowerik","address":"Lowerik 56","city":"Esbeek","operatorName":"Vattenfall InCharge","maxPowerKw":11,"isMegawatt":false,"status":"AVAILABLE","source":"ndw"}},{"type":"Feature","geometry":{"type":"Point","coordinates":[5.142023,51.484718]},"properties":{"type":"charge","layer":"passenger","locationId":"9146bbeda34b48559ff0","name":"Hotel Brabant Hilvarenbeek","address":"Diessenseweg 61","city":"Hilvarenbeek","operatorName":"Opcharge","maxPowerKw":22,"isMegawatt":false,"status":"AVAILABLE","source":"ndw","priceKwh":0.49}},{"type":"Feature","geometry":{"type":"Point","coordinates":[5.107387,51.509624]},"properties":{"type":"charge","layer":"passenger","locationId":"36f59368-e2d3-11ed-a7d0-42010aa40fc0","name":"Hilvaria Studio's (PowerGo)","address":"Goirlesedijk 12b","city":"Tilburg","operatorName":"PowerGo","maxPowerKw":0,"isMegawatt":false,"status":"AVAILABLE","source":"ndw"}},{"type":"Feature","geometry":{"type":"Point","coordinates":[5.1369,51.47998]},"properties":{"type":"charge","layer":"passenger","locationId":"d080b963bb193b8a7d8673fea04a1f48","name":"Zadelmaker 10","address":"Zadelmaker 10","city":"Hilvarenbeek","operatorName":"Vattenfall InCharge","maxPowerKw":11,"isMegawatt":false,"status":"AVAILABLE","source":"ndw"}},{"type":"Feature","geometry":{"type":"Point","coordinates":[5.14456,51.489954]},"properties":{"type":"charge","layer":"passenger","locationId":"9551aff33bb3526b25b9393c5f32cc25","name":"Vinkenslag 1","address":"Vinkenslag 1","city":"Hilvarenbeek","operatorName":"Vattenfall InCharge","maxPowerKw":11,"isMegawatt":false,"status":"CHARGING","source":"ndw"}},{"type":"Feature","geometry":{"type":"Point","coordinates":[5.130433,51.517185]},"properties":{"type":"charge","layer":"passenger","locationId":"6109279705c5aa37406d2489","name":"Westrik 8, Hilvarenbeek","address":"Westrik 8","city":"Hilvarenbeek","operatorName":"E-Flux by Road","maxPowerKw":11,"isMegawatt":false,"status":"CHARGING","source":"ndw","priceKwh":0.71}},{"type":"Feature","geometry":{"type":"Point","coordinates":[5.185474,51.477002]},"properties":{"type":"charge","layer":"passenger","locationId":"6a0c8f39343c5bdf3badcd20","name":"jurgen mulders 's station","address":"turkaaweg  2a","city":"Diessen","operatorName":"Van Mossel Energie Lease","maxPowerKw":21,"isMegawatt":false,"status":"AVAILABLE","source":"ndw","priceKwh":0.1679}},{"type":"Feature","geometry":{"type":"Point","coordinates":[5.167195,51.478222]},"properties":{"type":"charge","layer":"passenger","locationId":"6185397eeb15054a56e59248","name":"De Meiraap","address":"Meiraap, 2B","city":"Diessen","operatorName":"E-Flux by Road","maxPowerKw":22,"isMegawatt":false,"status":"AVAILABLE","source":"ndw","priceKwh":0.38}},{"type":"Feature","geometry":{"type":"Point","coordinates":[5.134187,51.484483]},"properties":{"type":"charge","layer":"passenger","locationId":"b81ff69d-88c6-43f4-9146-87f1fc5d54d9","name":"Achter 't Raadhuis 1","address":"Achter 't Raadhuis 1","city":"HILVARENBEEK","operatorName":"Vattenfall InCharge","maxPowerKw":11,"isMegawatt":false,"status":"AVAILABLE","source":"ndw"}},{"type":"Feature","geometry":{"type":"Point","coordinates":[5.142023,51.484718]},"properties":{"type":"charge","layer":"passenger","locationId":"61ea849ae9da7f49de87a787","name":"Hotel Brabant Hilvarenbeek","address":"Diessenseweg 61","city":"Hilvarenbeek","operatorName":"E-Flux by Road","maxPowerKw":11,"isMegawatt":false,"status":"UNAVAILABLE","source":"ndw"}},{"type":"Feature","geometry":{"type":"Point","coordinates":[5.159353,51.507308]},"properties":{"type":"charge","layer":"passenger","locationId":"f74042f1-e4c8-4594-9c3c-5205f3998091","name":"Antoniusstraat","address":"Antoniusstraat 1","city":"Biest-Houtakker","operatorName":"Vattenfall InCharge","maxPowerKw":11,"isMegawatt":false,"status":"AVAILABLE","source":"ndw"}},{"type":"Feature","geometry":{"type":"Point","coordinates":[5.14148,51.48729]},"properties":{"type":"charge","layer":"passenger","locationId":"38fac578-80e6-4d7e-b334-e1188882a124","name":"Bloemenstraat 42","address":"Bloemenstraat 42","city":"Hilvarenbeek","operatorName":"Vattenfall InCharge","maxPowerKw":11,"isMegawatt":false,"status":"AVAILABLE","source":"ndw"}},{"type":"Feature","geometry":{"type":"Point","coordinates":[5.206071,51.497229]},"properties":{"type":"charge","layer":"passenger","locationId":"64c7daa3-221d-4d50-9d1b-83214ee40aca","name":"Witvenstraat","address":"Witvenstraat 4","city":"Haghorst","operatorName":"Vattenfall InCharge","maxPowerKw":11,"isMegawatt":false,"status":"AVAILABLE","source":"ndw"}},{"type":"Feature","geometry":{"type":"Point","coordinates":[5.146152,51.486498]},"properties":{"type":"charge","layer":"passenger","locationId":"68c17f0268370b6382261255","name":"BRIGHT Software laadstation 1","address":"Bukkumweg  24F","city":"Hilvarenbeek","operatorName":"ChargeCars B.V.","maxPowerKw":11,"isMegawatt":false,"status":"AVAILABLE","source":"ndw","priceKwh":0.37}},{"type":"Feature","geometry":{"type":"Point","coordinates":[5.177929,51.475486]},"properties":{"type":"charge","layer":"passenger","locationId":"61daf953-1fad-4956-bd7e-1af3670735eb","name":"Molenstraat","address":"Molenstraat 9","city":"Diessen","operatorName":"Vattenfall InCharge","maxPowerKw":11,"isMegawatt":false,"status":"AVAILABLE","source":"ndw"}},{"type":"Feature","geometry":{"type":"Point","coordinates":[5.142159,51.494272]},"properties":{"type":"charge","layer":"passenger","locationId":"0020cd8503c631b5f4a462b8d0f0baae","name":"Ooievaarshoek 25","address":"Ooievaarshoek 25","city":"Hilvarenbeek","operatorName":"Vattenfall InCharge","maxPowerKw":11,"isMegawatt":false,"status":"AVAILABLE","source":"ndw"}},{"type":"Feature","geometry":{"type":"Point","coordinates":[5.129223,51.487767]},"properties":{"type":"charge","layer":"passenger","locationId":"b2d30e79-6a09-408c-8700-c57ed0bde0ef","name":"Herlaerstraat","address":"Herlaerstraat 43","city":"Hilvarenbeek","operatorName":"Vattenfall InCharge","maxPowerKw":11,"isMegawatt":false,"status":"CHARGING","source":"ndw"}},{"type":"Feature","geometry":{"type":"Point","coordinates":[5.169372,51.479247]},"properties":{"type":"charge","layer":"passenger","locationId":"68d11d773baca1a24bf2c916","name":"Elings Craftbeer & Drinks","address":"De Buskes 6","city":"Diessen","operatorName":"E-Flux by Road","maxPowerKw":22,"isMegawatt":false,"status":"AVAILABLE","source":"ndw","priceKwh":0.56}},{"type":"Feature","geometry":{"type":"Point","coordinates":[5.174496,51.47679]},"properties":{"type":"charge","layer":"passenger","locationId":"0b3c9b52-5574-4b6b-b416-fb8781d90d49","name":"Maternusstraat","address":"Maternusstraat 23B","city":"Diessen","operatorName":"Vattenfall InCharge","maxPowerKw":11,"isMegawatt":false,"status":"AVAILABLE","source":"ndw"}},{"type":"Feature","geometry":{"type":"Point","coordinates":[5.13228,51.48627]},"properties":{"type":"charge","layer":"passenger","locationId":"08e01fc1e4a87eb8d58716b081370b75","name":"Plein 40-45 12","address":"Plein 40-45 12","city":"Hilvarenbeek","operatorName":"Vattenfall InCharge","maxPowerKw":11,"isMegawatt":false,"status":"AVAILABLE","source":"ndw"}},{"type":"Feature","geometry":{"type":"Point","coordinates":[5.116125,51.523075]},"properties":{"type":"charge","layer":"passenger","locationId":"68b93edaef8e55a378a2a146","name":"Gastenservice Safaripark","address":"Safaripark Beekse Bergen 1","city":"Hilvarenbeek","operatorName":"E-Flux by Road","maxPowerKw":22,"isMegawatt":false,"status":"AVAILABLE","source":"ndw","priceKwh":0.43}},{"type":"Feature","geometry":{"type":"Point","coordinates":[5.146152,51.486498]},"properties":{"type":"charge","layer":"passenger","locationId":"68c3c4366c445b18ab27fac7","name":"BRIGHT Software laadstation 2","address":"Bukkumweg  24F","city":"Hilvarenbeek","operatorName":"ChargeCars B.V.","maxPowerKw":11,"isMegawatt":false,"status":"AVAILABLE","source":"ndw","priceKwh":0.37}},{"type":"Feature","geometry":{"type":"Point","coordinates":[5.167649,51.476207]},"properties":{"type":"charge","layer":"passenger","locationId":"1d43a87f5dce37a62933c6e01455c7f2","name":"Meiraap 66","address":"Meiraap 66","city":"Diessen","operatorName":"Vattenfall InCharge","maxPowerKw":11,"isMegawatt":false,"status":"AVAILABLE","source":"ndw"}},{"type":"Feature","geometry":{"type":"Point","coordinates":[5.133307,51.492804]},"properties":{"type":"charge","layer":"passenger","locationId":"cb0d0ca7-87f3-45d5-91e8-bd936e448c48","name":"Glennstraat","address":"Glennstraat 20","city":"Hilvarenbeek","operatorName":"Vattenfall InCharge","maxPowerKw":11,"isMegawatt":false,"status":"AVAILABLE","source":"ndw"}},{"type":"Feature","geometry":{"type":"Point","coordinates":[5.133037,51.488734]},"properties":{"type":"charge","layer":"passenger","locationId":"1d329c751c44457957704af6c9059304","name":"Sint Jorisstraat 9","address":"Sint Jorisstraat 9","city":"Hilvarenbeek","operatorName":"Vattenfall InCharge","maxPowerKw":11,"isMegawatt":false,"status":"AVAILABLE","source":"ndw"}},{"type":"Feature","geometry":{"type":"Point","coordinates":[5.135228,51.489893]},"properties":{"type":"charge","layer":"passenger","locationId":"6637a33b-a82f-4b5b-9293-4e9bfc3ce2a6","name":"Voortsepad 55","address":"Voortsepad 55","city":"Hilvarenbeek","operatorName":"Vattenfall InCharge","maxPowerKw":11,"isMegawatt":false,"status":"AVAILABLE","source":"ndw"}},{"type":"Feature","geometry":{"type":"Point","coordinates":[5.137653,51.463197]},"properties":{"type":"charge","layer":"passenger","locationId":"6709e6078cb62215aed01dce18337450","name":"Heuvelaar 10","address":"Heuvelaar 10","city":"Esbeek","operatorName":"Vattenfall InCharge","maxPowerKw":11,"isMegawatt":false,"status":"AVAILABLE","source":"ndw"}},{"type":"Feature","geometry":{"type":"Point","coordinates":[5.167952,51.477546]},"properties":{"type":"charge","layer":"passenger","locationId":"73e40c8b-cb18-4103-b16d-e048ed81f666","name":"Postelein ","address":"Postelein  2","city":"Diessen","operatorName":"Vattenfall InCharge","maxPowerKw":11,"isMegawatt":false,"status":"AVAILABLE","source":"ndw"}},{"type":"Feature","geometry":{"type":"Point","coordinates":[5.13689,51.489051]},"properties":{"type":"charge","layer":"passenger","locationId":"02f1ba88-7d7b-4db6-92a5-c4ea2b60e301","name":"Doelenstraat","address":"Doelenstraat 36","city":"Hilvarenbeek","operatorName":"Vattenfall InCharge","maxPowerKw":11,"isMegawatt":false,"status":"AVAILABLE","source":"ndw"}},{"type":"Feature","geometry":{"type":"Point","coordinates":[5.138942,51.483783]},"properties":{"type":"charge","layer":"passenger","locationId":"f173325d-ffe7-43f4-8a25-c2ebffa59a28","name":"Hilverstraat","address":"Hilverstraat 97","city":"Hilvarenbeek","operatorName":"Vattenfall InCharge","maxPowerKw":11,"isMegawatt":false,"status":"AVAILABLE","source":"ndw"}},{"type":"Feature","geometry":{"type":"Point","coordinates":[5.139592,51.483737]},"properties":{"type":"charge","layer":"passenger","locationId":"6a841d1f-4f34-406d-8444-0b2487d08cf4","name":"Hilverstraat","address":"Hilverstraat 99","city":"Hilvarenbeek","operatorName":"Vattenfall InCharge","maxPowerKw":11,"isMegawatt":false,"status":"AVAILABLE","source":"ndw"}},{"type":"Feature","geometry":{"type":"Point","coordinates":[5.180303,51.47693]},"properties":{"type":"charge","layer":"passenger","locationId":"923360","name":"PBLR-0012242","address":"Rijtseweg 46","city":"Diessen","operatorName":"DAEN Mobility","maxPowerKw":11,"isMegawatt":false,"status":"UNAVAILABLE","source":"ndw","priceKwh":0.36}},{"type":"Feature","geometry":{"type":"Point","coordinates":[5.135198,51.486732]},"properties":{"type":"charge","layer":"passenger","locationId":"1fa88b82-dc74-4c18-97d7-9b7ec07ad9f1","name":"Sint Sebastiaanstraat 13","address":"Sint Sebastiaanstraat 13","city":"Hilvarenbeek","operatorName":"Vattenfall InCharge","maxPowerKw":11,"isMegawatt":false,"status":"AVAILABLE","source":"ndw"}},{"type":"Feature","geometry":{"type":"Point","coordinates":[5.167871,51.476636]},"properties":{"type":"charge","layer":"passenger","locationId":"8587ba87-506c-469c-862c-04a3593cc0df","name":"Meiraap 25","address":"Meiraap 25","city":"Diessen","operatorName":"Vattenfall InCharge","maxPowerKw":11,"isMegawatt":false,"status":"AVAILABLE","source":"ndw"}},{"type":"Feature","geometry":{"type":"Point","coordinates":[5.147862,51.484448]},"properties":{"type":"charge","layer":"passenger","locationId":"4d92d7ea79709d17191cbc9f8d4c1dbe","name":"Diessenseweg 105","address":"Diessenseweg 105","city":"Hilvarenbeek","operatorName":"Vattenfall InCharge","maxPowerKw":11,"isMegawatt":false,"status":"AVAILABLE","source":"ndw"}},{"type":"Feature","geometry":{"type":"Point","coordinates":[5.133906,51.484014]},"properties":{"type":"charge","layer":"passenger","locationId":"f3dcd970cd20228e2d82e9c856ad726c","name":"Koestraat 40","address":"Koestraat 40","city":"Hilvarenbeek","operatorName":"Vattenfall InCharge","maxPowerKw":11,"isMegawatt":false,"status":"AVAILABLE","source":"ndw"}},{"type":"Feature","geometry":{"type":"Point","coordinates":[5.138258,51.479576]},"properties":{"type":"charge","layer":"passenger","locationId":"a9062764-af77-49fc-b3d4-0080b4829f54","name":"Schoenmaker","address":"Schoenmaker 21","city":"Hilvarenbeek","operatorName":"Vattenfall InCharge","maxPowerKw":11,"isMegawatt":false,"status":"AVAILABLE","source":"ndw"}},{"type":"Feature","geometry":{"type":"Point","coordinates":[5.13635,51.48256]},"properties":{"type":"charge","layer":"passenger","locationId":"aceafece356f7e3733ffea56abeeec1b","name":"Deken Cauthalsstraat 9","address":"Deken Cauthalsstraat 9","city":"Hilvarenbeek","operatorName":"Vattenfall InCharge","maxPowerKw":11,"isMegawatt":false,"status":"AVAILABLE","source":"ndw"}},{"type":"Feature","geometry":{"type":"Point","coordinates":[5.137298,51.461665]},"properties":{"type":"charge","layer":"passenger","locationId":"ce6205f1d8c4c71dfa4132a0c9fc4300","name":"Dorpsstraat 17B","address":"Dorpsstraat 17B","city":"Esbeek","operatorName":"Vattenfall InCharge","maxPowerKw":11,"isMegawatt":false,"status":"AVAILABLE","source":"ndw"}},{"type":"Feature","geometry":{"type":"Point","coordinates":[5.131383,51.484519]},"properties":{"type":"charge","layer":"passenger","locationId":"092bb854f96e43ade55354f14c508daa","name":"Wouwerdries 76","address":"Wouwerdries 76","city":"Hilvarenbeek","operatorName":"Vattenfall InCharge","maxPowerKw":11,"isMegawatt":false,"status":"AVAILABLE","source":"ndw"}},{"type":"Feature","geometry":{"type":"Point","coordinates":[5.204719,51.496211]},"properties":{"type":"charge","layer":"passenger","locationId":"b59a20f224fa7e8518db301e3c66853c","name":"Pastoor Jilesenstraat 13","address":"Pastoor Jilesenstraat 13","city":"Haghorst","operatorName":"Vattenfall InCharge","maxPowerKw":11,"isMegawatt":false,"status":"AVAILABLE","source":"ndw"}},{"type":"Feature","geometry":{"type":"Point","coordinates":[5.134589,51.483714]},"properties":{"type":"charge","layer":"passenger","locationId":"b488047ac59011f3f090e6cd8f4e6194","name":"Koestraat 18","address":"Koestraat 18","city":"Hilvarenbeek","operatorName":"Vattenfall InCharge","maxPowerKw":11,"isMegawatt":false,"status":"AVAILABLE","source":"ndw"}},{"type":"Feature","geometry":{"type":"MultiPolygon","coordinates":[[[[5.118798785917966,51.545918817705484],[5.127060139038765,51.53235365121691],[5.13019540015261,51.53029774634664],[5.144965699536292,51.521493642872684],[5.149204174228737,51.52342167228293],[5.15236191470793,51.52107884601874],[5.163496491607868,51.51539178311629],[5.170206448433224,51.511135202886614],[5.173853328173452,51.51049174206576],[5.17658188636663,51.51121461594963],[5.1793053081856835,51.50859755024681],[5.183858250019418,51.508746456219264],[5.18425410960759,51.507958848386195],[5.190587667119335,51.50758794634543],[5.195400455126211,51.5097327901984],[5.203708613537987,51.510092139329515],[5.214731521516207,51.51172617179081],[5.224433944023553,51.517148353164096],[5.226533291640955,51.507473570731584],[5.232362290198546,51.50891969235747],[5.235941700600655,51.513909497954],[5.251248873894162,51.50963075252413],[5.250075351742498,51.50800084058125],[5.250968207379725,51.506208919196105],[5.247891144117576,51.50633598879879],[5.24710983908199,51.49887847733443],[5.2284430667127975,51.498699913203886],[5.2306052685846645,51.490938571229194],[5.229966030186014,51.489726679733444],[5.226154313069981,51.489110736894],[5.225255256848013,51.48837424084747],[5.223119646434945,51.48157371083228],[5.220434134213591,51.47287942496344],[5.2097294837893156,51.46561297586808],[5.191024266036602,51.43022490378382],[5.1910193877286,51.43021572710834],[5.1901818655420575,51.430112304266764],[5.184980199199877,51.42876393313779],[5.1781529438434655,51.430260934230986],[5.1734577771129775,51.428240131100964],[5.170765070658849,51.42973299504489],[5.158552674154031,51.43217416922327],[5.157947723274363,51.42883077338051],[5.153211012051682,51.428354240692094],[5.152499293750855,51.428968466840615],[5.119458625920564,51.42827476042716],[5.102020065028805,51.428922654082996],[5.104572116103055,51.431348815064815],[5.080306641988421,51.46926252731634],[5.078563628978468,51.4714444020625],[5.049740172385364,51.471108032881745],[5.0498648206851025,51.471825719292845],[5.048791126169767,51.47191341659092],[5.051579606791422,51.48713182204792],[5.068367248566847,51.48533461856948],[5.06929244530447,51.48683574524085],[5.062722297195562,51.49285210340586],[5.076914353631322,51.500796371228546],[5.072997313818092,51.50287488980795],[5.088186203416303,51.51129735539799],[5.0960347117381835,51.50991204291887],[5.098440901575773,51.515360449467956],[5.095023029734699,51.51725144727462],[5.100946571518903,51.52051954936187],[5.098750035966105,51.52200630212986],[5.100489386825017,51.52296956574852],[5.098140385545056,51.524952224135234],[5.105059997409556,51.528175734358385],[5.100058650933058,51.53145482265209],[5.104527993557631,51.533836459737806],[5.1056521112844235,51.533337237655175],[5.109588243856092,51.53680524633793],[5.108678236638607,51.537232082838095],[5.110644631377614,51.538902206553836],[5.10981988295748,51.53938301478905],[5.112520245759335,51.540023110372815],[5.113660097961637,51.54100690408728],[5.113485859654785,51.54234949070914],[5.118798785917966,51.545918817705484]]]]},"properties":{"type":"boundary","gemeente":"Hilvarenbeek","code":"GM0798"}}]}