{"type":"FeatureCollection","metadata":{"gemeente":"Hof van Twente","slug":"hof-van-twente","code":"GM1735","generated_at":"2026-06-07T19:22:09.578Z","total_passenger":116,"total_freight":0,"bounds":[6.416395433966234,52.163166395404964,6.752960219014006,52.30861024823729],"operators":["Allego","E-Flux by Road","Eneco","Fleet Charge Services","Laadnet","Lanova Laadpalen","Lidl","Vattenfall InCharge"]},"features":[{"type":"Feature","geometry":{"type":"Point","coordinates":[6.508537,52.243221]},"properties":{"type":"charge","layer":"passenger","locationId":"65d8915738bb5e001c2e5602","name":"Herberg de Pot","address":"Potdijk 9","city":"Markelo","operatorName":"E-Flux by Road","maxPowerKw":22,"isMegawatt":false,"status":"AVAILABLE","source":"ndw","priceKwh":0.46}},{"type":"Feature","geometry":{"type":"Point","coordinates":[6.598002,52.248195]},"properties":{"type":"charge","layer":"passenger","locationId":"60bdd57e28d15f920d01c9a7","name":"SunCatch Solarsystems","address":"Dammaten 18-1","city":"Goor","operatorName":"E-Flux by Road","maxPowerKw":22,"isMegawatt":false,"status":"AVAILABLE","source":"ndw","priceKwh":0.62}},{"type":"Feature","geometry":{"type":"Point","coordinates":[6.682153,52.259257]},"properties":{"type":"charge","layer":"passenger","locationId":"627ec692ce103c1a34d10b71","name":"Hotel Wapen van Delden","address":"Langestraat  242","city":"Delden","operatorName":"E-Flux by Road","maxPowerKw":22,"isMegawatt":false,"status":"CHARGING","source":"ndw","priceKwh":0.63}},{"type":"Feature","geometry":{"type":"Point","coordinates":[6.592007,52.196509]},"properties":{"type":"charge","layer":"passenger","locationId":"65fad7e5691e04001c2c4845","name":"Pitch&Putt's station","address":"Hengevelderweg 3","city":"Diepenheim","operatorName":"Lanova Laadpalen","maxPowerKw":11,"isMegawatt":false,"status":"AVAILABLE","source":"ndw","priceKwh":0.56}},{"type":"Feature","geometry":{"type":"Point","coordinates":[6.638607,52.197473]},"properties":{"type":"charge","layer":"passenger","locationId":"NLLOC005480","name":"NLD, Bretelerstraat 16, Hengevelde","address":"Bretelerstraat 16","city":"Hengevelde","operatorName":"Allego","maxPowerKw":0,"isMegawatt":false,"status":"AVAILABLE","source":"ndw","priceKwh":0.3488}},{"type":"Feature","geometry":{"type":"Point","coordinates":[6.520276,52.265551]},"properties":{"type":"charge","layer":"passenger","locationId":"6408ed3a0ddcfd0012ae5c58","name":"Camping de Bovenberg","address":"Bovenbergweg 14","city":"Markelo","operatorName":"E-Flux by Road","maxPowerKw":11,"isMegawatt":false,"status":"AVAILABLE","source":"ndw","priceKwh":0.61}},{"type":"Feature","geometry":{"type":"Point","coordinates":[6.569673,52.242202]},"properties":{"type":"charge","layer":"passenger","locationId":"eea2ac12-35fa-11ec-ac60-42010a840003","name":"NL, Scherpenzeelseweg 67, 7471GN, Goor","address":"Scherpenzeelseweg 67","city":"Goor","operatorName":"Allego","maxPowerKw":0,"isMegawatt":false,"status":"AVAILABLE","source":"ndw"}},{"type":"Feature","geometry":{"type":"Point","coordinates":[6.707554,52.25684]},"properties":{"type":"charge","layer":"passenger","locationId":"d02d7a38e0889299b377ae1ee5af035e","name":"Bernhardstraat 62","address":"Bernhardstraat 62","city":"Delden","operatorName":"Vattenfall InCharge","maxPowerKw":11,"isMegawatt":false,"status":"CHARGING","source":"ndw"}},{"type":"Feature","geometry":{"type":"Point","coordinates":[6.717648,52.253978]},"properties":{"type":"charge","layer":"passenger","locationId":"126bcb520c3ccd39527241d1e03d6353","name":"Rauwland 7","address":"Rauwland 7","city":"Delden","operatorName":"Vattenfall InCharge","maxPowerKw":11,"isMegawatt":false,"status":"AVAILABLE","source":"ndw"}},{"type":"Feature","geometry":{"type":"Point","coordinates":[6.571196,52.238386]},"properties":{"type":"charge","layer":"passenger","locationId":"db179c4b-42db-4b4d-ab34-d8f224a6cffc","name":"Paulus Potterstraat","address":"Paulus Potterstraat 8","city":"Goor","operatorName":"Vattenfall InCharge","maxPowerKw":11,"isMegawatt":false,"status":"AVAILABLE","source":"ndw"}},{"type":"Feature","geometry":{"type":"Point","coordinates":[6.709018,52.261133]},"properties":{"type":"charge","layer":"passenger","locationId":"NLLOC005789","name":"NLD, De Kolk 3, Delden","address":"De Kolk 3","city":"Delden","operatorName":"Allego","maxPowerKw":0,"isMegawatt":false,"status":"AVAILABLE","source":"ndw","priceKwh":0.3488}},{"type":"Feature","geometry":{"type":"Point","coordinates":[6.57531,52.24417]},"properties":{"type":"charge","layer":"passenger","locationId":"7D9F6FE3-7971-440B-BA3C-422A4D403B8F","name":"Eneco eMobility Broekhuis Autoschade Carplus Goor","address":"Wheedwarsweg 3","city":"Goor","operatorName":"Eneco","maxPowerKw":11,"isMegawatt":false,"status":"AVAILABLE","source":"ndw","priceKwh":0.45}},{"type":"Feature","geometry":{"type":"Point","coordinates":[6.582136,52.232853]},"properties":{"type":"charge","layer":"passenger","locationId":"9cb9b644-37c1-11f0-82e8-42010aa400b8","name":"Lidl Goor","address":"Laarstraat","city":"Goor","operatorName":"Lidl","maxPowerKw":50,"isMegawatt":false,"status":"AVAILABLE","source":"ndw","priceKwh":0.45}},{"type":"Feature","geometry":{"type":"Point","coordinates":[6.576885,52.245149]},"properties":{"type":"charge","layer":"passenger","locationId":"B5A33D45-B406-4C0A-9BFA-1A8ECD77CBD9","name":"Eneco eMobility Aannemersbedrijf W.J. Haafkes en Zonen B.V.","address":"Wheedwarsweg 9","city":"Goor","operatorName":"Eneco","maxPowerKw":22,"isMegawatt":false,"status":"UNAVAILABLE","source":"ndw","priceKwh":0.35}},{"type":"Feature","geometry":{"type":"Point","coordinates":[6.580916,52.231306]},"properties":{"type":"charge","layer":"passenger","locationId":"3c09ada8-52ad-11ea-bc94-42010a840003","name":"NL, Diepenheimseweg 1, 7471 LW, Goor","address":"Diepenheimseweg 1","city":"Goor","operatorName":"Allego","maxPowerKw":0,"isMegawatt":false,"status":"AVAILABLE","source":"ndw"}},{"type":"Feature","geometry":{"type":"Point","coordinates":[6.704242,52.260918]},"properties":{"type":"charge","layer":"passenger","locationId":"f9013b94-3ede-11e9-9008-42010a840003","name":"NLD, Peperkampweg 61, 7491 GH, Delden","address":"Peperkampweg 61","city":"Delden","operatorName":"Allego","maxPowerKw":0,"isMegawatt":false,"status":"AVAILABLE","source":"ndw"}},{"type":"Feature","geometry":{"type":"Point","coordinates":[6.596116,52.244437]},"properties":{"type":"charge","layer":"passenger","locationId":"c67601c3-44ec-40d7-99be-04bb2b9be388","name":"Wanyng ","address":"Wanyng  43","city":"Goor","operatorName":"Vattenfall InCharge","maxPowerKw":11,"isMegawatt":false,"status":"AVAILABLE","source":"ndw"}},{"type":"Feature","geometry":{"type":"Point","coordinates":[6.703291,52.253396]},"properties":{"type":"charge","layer":"passenger","locationId":"NLLOC006988","name":"NL, De Dinkel 27, 7491 MK, Delden","address":"De Dinkel 27","city":"Delden","operatorName":"Allego","maxPowerKw":0,"isMegawatt":false,"status":"AVAILABLE","source":"ndw","priceKwh":0.3488}},{"type":"Feature","geometry":{"type":"Point","coordinates":[6.580916,52.231306]},"properties":{"type":"charge","layer":"passenger","locationId":"NLLOC006631","name":"NL, Diepenheimseweg 1, 7471 LW, Goor","address":"Diepenheimseweg 1","city":"Goor","operatorName":"Allego","maxPowerKw":0,"isMegawatt":false,"status":"AVAILABLE","source":"ndw","priceKwh":0.3488}},{"type":"Feature","geometry":{"type":"Point","coordinates":[6.595806,52.242658]},"properties":{"type":"charge","layer":"passenger","locationId":"640ef4ca2074920012acbe59","name":"Wezemer","address":"Cobrugge 14","city":"goor","operatorName":"E-Flux by Road","maxPowerKw":22,"isMegawatt":false,"status":"AVAILABLE","source":"ndw","priceKwh":0.33}},{"type":"Feature","geometry":{"type":"Point","coordinates":[6.501825,52.24215]},"properties":{"type":"charge","layer":"passenger","locationId":"995895451e6447e4a08d3d1402199344","name":"Autobedrijf Sjouke Dijkstra","address":"Rijssenseweg 19a","city":"Markelo","operatorName":"","maxPowerKw":22,"isMegawatt":false,"status":"AVAILABLE","source":"ndw","priceKwh":0.4}},{"type":"Feature","geometry":{"type":"Point","coordinates":[6.582136,52.232853]},"properties":{"type":"charge","layer":"passenger","locationId":"38fac903-e606-49ac-964a-3495764144c0","name":"Lidl Goor","address":"Laarstraat","city":"Goor","operatorName":"Lidl","maxPowerKw":50,"isMegawatt":false,"status":"UNAVAILABLE","source":"ndw"}},{"type":"Feature","geometry":{"type":"Point","coordinates":[6.501825,52.24215]},"properties":{"type":"charge","layer":"passenger","locationId":"7fee718eb13f41ed8a83b6be369320f0","name":"Autobedrijf Sjouke Dijkstra","address":"Rijssenseweg 19a","city":"Markelo","operatorName":"","maxPowerKw":11,"isMegawatt":false,"status":"AVAILABLE","source":"ndw","priceKwh":0.4}},{"type":"Feature","geometry":{"type":"Point","coordinates":[6.730158,52.256179]},"properties":{"type":"charge","layer":"passenger","locationId":"3433660","name":"Laadnet Aparthotel Delden","address":"Sportlaan 7","city":"Delden","operatorName":"Laadnet","maxPowerKw":22,"isMegawatt":false,"status":"AVAILABLE","source":"ndw"}},{"type":"Feature","geometry":{"type":"Point","coordinates":[6.599677,52.249414]},"properties":{"type":"charge","layer":"passenger","locationId":"2652168","name":"Laadnet Baktotaal Bouwhuis B.V.","address":"Klavermaten 61","city":"Goor","operatorName":"Laadnet","maxPowerKw":22,"isMegawatt":false,"status":"AVAILABLE","source":"ndw"}},{"type":"Feature","geometry":{"type":"Point","coordinates":[6.57951,52.234697]},"properties":{"type":"charge","layer":"passenger","locationId":"3a8b6f0a-97a3-473b-9e9b-a738a936ad36","name":"Van Kollaan 28","address":"Van Kollaan 28","city":"Goor","operatorName":"Vattenfall InCharge","maxPowerKw":11,"isMegawatt":false,"status":"AVAILABLE","source":"ndw"}},{"type":"Feature","geometry":{"type":"Point","coordinates":[6.58906,52.233092]},"properties":{"type":"charge","layer":"passenger","locationId":"NLLOC009518","name":"NL, Rozenstraat 2C, 7271 JN, Goor","address":"Rozenstraat 2C","city":"Goor","operatorName":"Allego","maxPowerKw":0,"isMegawatt":false,"status":"AVAILABLE","source":"ndw","priceKwh":0.3488}},{"type":"Feature","geometry":{"type":"Point","coordinates":[6.726672,52.255414]},"properties":{"type":"charge","layer":"passenger","locationId":"d7eb2ac6-cf02-11eb-8892-42010a840003","name":"NL, De Mors 3, 7491 DZ Delden","address":"De Mors 3","city":"Delden","operatorName":"Allego","maxPowerKw":0,"isMegawatt":false,"status":"AVAILABLE","source":"ndw"}},{"type":"Feature","geometry":{"type":"Point","coordinates":[6.596972,52.231794]},"properties":{"type":"charge","layer":"passenger","locationId":"9f87dbf8d0fd4ed0030fc3ae0e77c8a6","name":"Oude Haaksbergerweg 17","address":"Oude Haaksbergerweg 17","city":"Goor","operatorName":"Vattenfall InCharge","maxPowerKw":11,"isMegawatt":false,"status":"AVAILABLE","source":"ndw"}},{"type":"Feature","geometry":{"type":"Point","coordinates":[6.7234,52.25799]},"properties":{"type":"charge","layer":"passenger","locationId":"9ad5601c025236e17c0b4b0b0258de11","name":"Merelstraat 12","address":"Merelstraat 12","city":"Delden","operatorName":"Vattenfall InCharge","maxPowerKw":11,"isMegawatt":false,"status":"AVAILABLE","source":"ndw"}},{"type":"Feature","geometry":{"type":"Point","coordinates":[6.489371,52.236892]},"properties":{"type":"charge","layer":"passenger","locationId":"c17cbe15-b7bf-49eb-be84-9840b5c7cc31","name":"Holterweg","address":"Holterweg 6","city":"Markelo","operatorName":"Vattenfall InCharge","maxPowerKw":11,"isMegawatt":false,"status":"AVAILABLE","source":"ndw"}},{"type":"Feature","geometry":{"type":"Point","coordinates":[6.709018,52.261133]},"properties":{"type":"charge","layer":"passenger","locationId":"72d0914a-162a-11ea-b83f-42010a840003","name":"NLD, De Kolk 3, Delden","address":"De Kolk 3","city":"Delden","operatorName":"Allego","maxPowerKw":0,"isMegawatt":false,"status":"CHARGING","source":"ndw"}},{"type":"Feature","geometry":{"type":"Point","coordinates":[6.713332,52.258259]},"properties":{"type":"charge","layer":"passenger","locationId":"4763480","name":"Laadnet Hairfashion Ellis","address":"Van Erckelensstraat 10","city":"Delden","operatorName":"Laadnet","maxPowerKw":22,"isMegawatt":false,"status":"CHARGING","source":"ndw"}},{"type":"Feature","geometry":{"type":"Point","coordinates":[6.674138,52.28938]},"properties":{"type":"charge","layer":"passenger","locationId":"62b2dafee2341868d10da632","name":"EViiGO – Twentsche Golfclub","address":"Almelosestraat 17","city":"Ambt Delden","operatorName":"E-Flux by Road","maxPowerKw":11,"isMegawatt":false,"status":"AVAILABLE","source":"ndw","priceKwh":0.4428}},{"type":"Feature","geometry":{"type":"Point","coordinates":[6.514204,52.21535]},"properties":{"type":"charge","layer":"passenger","locationId":"4bd38c65-d268-48b5-9568-d2c5d8a6d251","name":"Stokkumerweg","address":"Stokkumerweg 42","city":"Markelo","operatorName":"Vattenfall InCharge","maxPowerKw":11,"isMegawatt":false,"status":"AVAILABLE","source":"ndw"}},{"type":"Feature","geometry":{"type":"Point","coordinates":[6.594139,52.247067]},"properties":{"type":"charge","layer":"passenger","locationId":"640ef207ebd7340012d9ae34","name":"Kantoor","address":"Nieuwenkampsmaten 6-10","city":"GOOR","operatorName":"E-Flux by Road","maxPowerKw":11,"isMegawatt":false,"status":"AVAILABLE","source":"ndw","priceKwh":0.43}},{"type":"Feature","geometry":{"type":"Point","coordinates":[6.726916,52.256864]},"properties":{"type":"charge","layer":"passenger","locationId":"82420a82-9f79-11e9-b662-42010a840003","name":"NLD, Torenvalkstraat 31, Delden","address":"Torenvalkstraat 31","city":"Delden","operatorName":"Allego","maxPowerKw":0,"isMegawatt":false,"status":"AVAILABLE","source":"ndw"}},{"type":"Feature","geometry":{"type":"Point","coordinates":[6.58906,52.233092]},"properties":{"type":"charge","layer":"passenger","locationId":"c9f5dfe2-7890-11eb-9f8a-42010a840033","name":"NL, Rozenstraat 2C, 7271 JN, Goor","address":"Rozenstraat 2C","city":"Goor","operatorName":"Allego","maxPowerKw":0,"isMegawatt":false,"status":"AVAILABLE","source":"ndw"}},{"type":"Feature","geometry":{"type":"Point","coordinates":[6.594341,52.251576]},"properties":{"type":"charge","layer":"passenger","locationId":"4246384","name":"Laadnet BRP GO110","address":"Klavermaten 42","city":"Goor","operatorName":"Laadnet","maxPowerKw":22,"isMegawatt":false,"status":"AVAILABLE","source":"ndw"}},{"type":"Feature","geometry":{"type":"Point","coordinates":[6.494718,52.236384]},"properties":{"type":"charge","layer":"passenger","locationId":"NLLOC005291","name":"NLD, Taets van Amerongenstraat 15b, 7475BT, Markelo","address":"Taets van Amerongenstraat 15b","city":"Markelo","operatorName":"Allego","maxPowerKw":0,"isMegawatt":false,"status":"CHARGING","source":"ndw","priceKwh":0.3488}},{"type":"Feature","geometry":{"type":"Point","coordinates":[6.585071,52.233383]},"properties":{"type":"charge","layer":"passenger","locationId":"6866696a-76fe-11eb-ab07-42010a840033","name":"NL, de Höfte 7, 7471DK, Goor","address":"de Höfte 7","city":"Goor","operatorName":"Allego","maxPowerKw":0,"isMegawatt":false,"status":"CHARGING","source":"ndw"}},{"type":"Feature","geometry":{"type":"Point","coordinates":[6.705863,52.259474]},"properties":{"type":"charge","layer":"passenger","locationId":"866a963e-582d-11ea-bc82-42010a840003","name":"NL, Ranninkstraat 68, 7491XX, Hof van Twente","address":"Ranninkstraat 68","city":"Hof van Twente","operatorName":"Allego","maxPowerKw":0,"isMegawatt":false,"status":"AVAILABLE","source":"ndw"}},{"type":"Feature","geometry":{"type":"Point","coordinates":[6.638607,52.197473]},"properties":{"type":"charge","layer":"passenger","locationId":"2c52ac16-0285-11ea-b9fe-42010a840003","name":"NLD, Bretelerstraat 16, Hengevelde","address":"Bretelerstraat 16","city":"Hengevelde","operatorName":"Allego","maxPowerKw":0,"isMegawatt":false,"status":"AVAILABLE","source":"ndw"}},{"type":"Feature","geometry":{"type":"Point","coordinates":[6.647236,52.248565]},"properties":{"type":"charge","layer":"passenger","locationId":"14bfdbe5-05f4-466e-8427-9ef721d4c057","name":"Tankinksweg","address":"Tankinksweg 4","city":"Ambt Delden","operatorName":"Vattenfall InCharge","maxPowerKw":11,"isMegawatt":false,"status":"AVAILABLE","source":"ndw"}},{"type":"Feature","geometry":{"type":"Point","coordinates":[6.703291,52.253396]},"properties":{"type":"charge","layer":"passenger","locationId":"8c3b7654-85b0-11ea-9d2e-42010a840003","name":"NL, De Dinkel 27, 7491 MK, Delden","address":"De Dinkel 27","city":"Delden","operatorName":"Allego","maxPowerKw":0,"isMegawatt":false,"status":"AVAILABLE","source":"ndw"}},{"type":"Feature","geometry":{"type":"Point","coordinates":[6.70242,52.260511]},"properties":{"type":"charge","layer":"passenger","locationId":"bf1c185c-ed6c-11ea-b821-42010a840003","name":"NL,Langestraat 118a, 7491 AK Delden","address":"Langestraat 118a","city":"Delden","operatorName":"Allego","maxPowerKw":0,"isMegawatt":false,"status":"AVAILABLE","source":"ndw"}},{"type":"Feature","geometry":{"type":"Point","coordinates":[6.680792,52.224824]},"properties":{"type":"charge","layer":"passenger","locationId":"ff9aa0e6-fd04-11e9-ab1d-42010a840003","name":"NLD, Burgemeester Buyvoetsplein 76, Bentelo","address":"Burgemeester Buyvoetsplein 76","city":"Bentelo","operatorName":"Allego","maxPowerKw":0,"isMegawatt":false,"status":"AVAILABLE","source":"ndw"}},{"type":"Feature","geometry":{"type":"Point","coordinates":[6.508423,52.243171]},"properties":{"type":"charge","layer":"passenger","locationId":"65d891dca6f69e001c7475e7","name":"Herberg de Pot","address":"Potdijk 9","city":"Markelo","operatorName":"E-Flux by Road","maxPowerKw":22,"isMegawatt":false,"status":"CHARGING","source":"ndw","priceKwh":0.46}},{"type":"Feature","geometry":{"type":"Point","coordinates":[6.564691,52.240161]},"properties":{"type":"charge","layer":"passenger","locationId":"6d543564-4163-11ea-b390-42010a840003","name":"NL, Pieter Langendijkstraat 70, 7471 ND, Goor","address":"Pieter Langendijkstraat 70","city":"Goor","operatorName":"Allego","maxPowerKw":0,"isMegawatt":false,"status":"AVAILABLE","source":"ndw"}},{"type":"Feature","geometry":{"type":"Point","coordinates":[6.558397,52.205069]},"properties":{"type":"charge","layer":"passenger","locationId":"9396ab22-74dc-11ec-846e-42010a840003","name":"NL, Doctor C.A.J. Quantstraat 79, 7478 XA Diepenheim","address":"Dr. C.A.J. Quantstraat 79","city":"Diepenheim","operatorName":"Allego","maxPowerKw":0,"isMegawatt":false,"status":"AVAILABLE","source":"ndw"}},{"type":"Feature","geometry":{"type":"Point","coordinates":[6.554854,52.201041]},"properties":{"type":"charge","layer":"passenger","locationId":"e4fd32f2-4be9-11e9-b637-42010a840003","name":"NLD, Kuimgaarden 15, Diepenheim","address":"Kuimgaarden 15","city":"Diepenheim","operatorName":"Allego","maxPowerKw":0,"isMegawatt":false,"status":"CHARGING","source":"ndw"}},{"type":"Feature","geometry":{"type":"Point","coordinates":[6.494718,52.236384]},"properties":{"type":"charge","layer":"passenger","locationId":"2b0a5a4a-f5ea-11e9-be42-42010a840003","name":"NLD, Taets van Amerongenstraat 15b, 7475BT, Markelo","address":"Taets van Amerongenstraat 15b","city":"Markelo","operatorName":"Allego","maxPowerKw":0,"isMegawatt":false,"status":"AVAILABLE","source":"ndw"}},{"type":"Feature","geometry":{"type":"Point","coordinates":[6.713942,52.262638]},"properties":{"type":"charge","layer":"passenger","locationId":"d005a276-8b30-11ea-a199-42010a840003","name":"NL, Zuidwal 32 a, 7491 AM, Delden","address":"Zuidwal 32 a","city":"Hof van Twente","operatorName":"Allego","maxPowerKw":0,"isMegawatt":false,"status":"AVAILABLE","source":"ndw"}},{"type":"Feature","geometry":{"type":"Point","coordinates":[6.696871,52.253545]},"properties":{"type":"charge","layer":"passenger","locationId":"6421a7163021bb00129b4379","name":"Watson-Marlow Bredel","address":"Sluisstraat 7","city":"Delden","operatorName":"E-Flux by Road","maxPowerKw":11,"isMegawatt":false,"status":"AVAILABLE","source":"ndw","priceKwh":0.33}},{"type":"Feature","geometry":{"type":"Point","coordinates":[6.552823,52.200791]},"properties":{"type":"charge","layer":"passenger","locationId":"cbb0436dbdc99efa31236bfbc138b822","name":"Hagen 3","address":"Hagen 3","city":"Diepenheim","operatorName":"Vattenfall InCharge","maxPowerKw":11,"isMegawatt":false,"status":"AVAILABLE","source":"ndw"}},{"type":"Feature","geometry":{"type":"Point","coordinates":[6.56857,52.24182]},"properties":{"type":"charge","layer":"passenger","locationId":"311f6372139779fb9b06a0b67551a0ae","name":"van Eedenstraat 41","address":"van Eedenstraat 41","city":"Goor","operatorName":"Vattenfall InCharge","maxPowerKw":11,"isMegawatt":false,"status":"AVAILABLE","source":"ndw"}},{"type":"Feature","geometry":{"type":"Point","coordinates":[6.680792,52.224824]},"properties":{"type":"charge","layer":"passenger","locationId":"NLLOC005404","name":"NLD, Burgemeester Buyvoetsplein 76, Bentelo","address":"Burgemeester Buyvoetsplein 76","city":"Bentelo","operatorName":"Allego","maxPowerKw":0,"isMegawatt":false,"status":"AVAILABLE","source":"ndw","priceKwh":0.3488}},{"type":"Feature","geometry":{"type":"Point","coordinates":[6.633056,52.203622]},"properties":{"type":"charge","layer":"passenger","locationId":"686fb78684b1336d3910d516","name":"Lesscher Hengevelde","address":"Assink  4","city":"Hengevelde","operatorName":"Lanova Laadpalen","maxPowerKw":50,"isMegawatt":false,"status":"AVAILABLE","source":"ndw","priceKwh":0.53}},{"type":"Feature","geometry":{"type":"Point","coordinates":[6.564691,52.240161]},"properties":{"type":"charge","layer":"passenger","locationId":"NLLOC006771","name":"NL, Pieter Langendijkstraat 70, 7471 ND, Goor","address":"Pieter Langendijkstraat 70","city":"Goor","operatorName":"Allego","maxPowerKw":0,"isMegawatt":false,"status":"AVAILABLE","source":"ndw","priceKwh":0.3488}},{"type":"Feature","geometry":{"type":"Point","coordinates":[6.528362,52.225313]},"properties":{"type":"charge","layer":"passenger","locationId":"62e395fc6b8d4fc93cfea232","name":"Finspark Herikerberg - Suomi Leisure B.V.","address":"Driebelterweg  2","city":"Markelo","operatorName":"Fleet Charge Services","maxPowerKw":22,"isMegawatt":false,"status":"AVAILABLE","source":"ndw","priceKwh":0.54}},{"type":"Feature","geometry":{"type":"Point","coordinates":[6.58292,52.23262]},"properties":{"type":"charge","layer":"passenger","locationId":"7A2B2FAB-DA7C-4B65-97B7-CA6A2103B865","name":"Eneco eMobility Grotestraat 126 Goor","address":"Grotestraat 126","city":"Goor","operatorName":"Eneco","maxPowerKw":22,"isMegawatt":false,"status":"AVAILABLE","source":"ndw","priceKwh":0.32}},{"type":"Feature","geometry":{"type":"Point","coordinates":[6.696871,52.253545]},"properties":{"type":"charge","layer":"passenger","locationId":"6421a3b64f763a00121c8410","name":"Watson-Marlow Bredel","address":"Sluisstraat 7","city":"Delden","operatorName":"E-Flux by Road","maxPowerKw":11,"isMegawatt":false,"status":"AVAILABLE","source":"ndw","priceKwh":0.33}},{"type":"Feature","geometry":{"type":"Point","coordinates":[6.504475,52.23625]},"properties":{"type":"charge","layer":"passenger","locationId":"cc09af8b8c877a8ba0263438e33848ee","name":"W. Göttelaan 3","address":"W. Göttelaan 3","city":"Markelo","operatorName":"Vattenfall InCharge","maxPowerKw":11,"isMegawatt":false,"status":"AVAILABLE","source":"ndw"}},{"type":"Feature","geometry":{"type":"Point","coordinates":[6.51169,52.24029]},"properties":{"type":"charge","layer":"passenger","locationId":"5c86f8b5863c8a0d37f26c7a907fe362","name":"Potdijk 5","address":"Potdijk 5","city":"Markelo","operatorName":"Vattenfall InCharge","maxPowerKw":11,"isMegawatt":false,"status":"AVAILABLE","source":"ndw"}},{"type":"Feature","geometry":{"type":"Point","coordinates":[6.569673,52.242202]},"properties":{"type":"charge","layer":"passenger","locationId":"NLLOC014804","name":"NL, Scherpenzeelseweg 67, 7471GN, Goor","address":"Scherpenzeelseweg 67","city":"Goor","operatorName":"Allego","maxPowerKw":0,"isMegawatt":false,"status":"AVAILABLE","source":"ndw","priceKwh":0.3488}},{"type":"Feature","geometry":{"type":"Point","coordinates":[6.558397,52.205069]},"properties":{"type":"charge","layer":"passenger","locationId":"NLLOC012798","name":"NL, Doctor C.A.J. Quantstraat 79, 7478 XA Diepenheim","address":"Dr. C.A.J. Quantstraat 79","city":"Diepenheim","operatorName":"Allego","maxPowerKw":0,"isMegawatt":false,"status":"AVAILABLE","source":"ndw","priceKwh":0.3488}},{"type":"Feature","geometry":{"type":"Point","coordinates":[6.598979,52.249766]},"properties":{"type":"charge","layer":"passenger","locationId":"6374f526c3b53b9e0b9dbdd9","name":"Evert Haandrikman 's station","address":"klavermaten 65-17","city":"Goor","operatorName":"E-Flux by Road","maxPowerKw":11,"isMegawatt":false,"status":"AVAILABLE","source":"ndw","priceKwh":0.45}},{"type":"Feature","geometry":{"type":"Point","coordinates":[6.55513,52.19954]},"properties":{"type":"charge","layer":"passenger","locationId":"d3d0c692bb8ed3cbca5a6bd3d0c8aaed","name":"Goorseweg 1/01","address":"Goorseweg 1/01","city":"Diepenheim","operatorName":"Vattenfall InCharge","maxPowerKw":11,"isMegawatt":false,"status":"AVAILABLE","source":"ndw"}},{"type":"Feature","geometry":{"type":"Point","coordinates":[6.599996,52.246404]},"properties":{"type":"charge","layer":"passenger","locationId":"67d411e4de21dbabdd333855","name":"WIJS","address":"Klavermaten 10","city":"Goor","operatorName":"E-Flux by Road","maxPowerKw":60,"isMegawatt":false,"status":"AVAILABLE","source":"ndw","priceKwh":0.63}},{"type":"Feature","geometry":{"type":"Point","coordinates":[6.705611,52.262207]},"properties":{"type":"charge","layer":"passenger","locationId":"e913764084289501cd0a47fc0fb862e1","name":"Langestraat 82A","address":"Langestraat 82A","city":"Delden","operatorName":"Vattenfall InCharge","maxPowerKw":11,"isMegawatt":false,"status":"AVAILABLE","source":"ndw"}},{"type":"Feature","geometry":{"type":"Point","coordinates":[6.726916,52.256864]},"properties":{"type":"charge","layer":"passenger","locationId":"NLLOC004401","name":"NLD, Torenvalkstraat 31, Delden","address":"Torenvalkstraat 31","city":"Delden","operatorName":"Allego","maxPowerKw":0,"isMegawatt":false,"status":"AVAILABLE","source":"ndw","priceKwh":0.3488}},{"type":"Feature","geometry":{"type":"Point","coordinates":[6.713942,52.262638]},"properties":{"type":"charge","layer":"passenger","locationId":"NLLOC007015","name":"NL, Zuidwal 32 a, 7491 AM, Delden","address":"Zuidwal 32 a","city":"Hof van Twente","operatorName":"Allego","maxPowerKw":0,"isMegawatt":false,"status":"AVAILABLE","source":"ndw","priceKwh":0.3488}},{"type":"Feature","geometry":{"type":"Point","coordinates":[6.705863,52.259474]},"properties":{"type":"charge","layer":"passenger","locationId":"NLLOC006587","name":"NL, Ranninkstraat 68, 7491XX, Hof van Twente","address":"Ranninkstraat 68","city":"Hof van Twente","operatorName":"Allego","maxPowerKw":0,"isMegawatt":false,"status":"AVAILABLE","source":"ndw","priceKwh":0.3488}},{"type":"Feature","geometry":{"type":"Point","coordinates":[6.49852,52.23581]},"properties":{"type":"charge","layer":"passenger","locationId":"84580bd3d1e7c1662fb6e3a59e5b9322","name":"Wehmekamp 4","address":"Wehmekamp 4","city":"Markelo","operatorName":"Vattenfall InCharge","maxPowerKw":11,"isMegawatt":false,"status":"AVAILABLE","source":"ndw"}},{"type":"Feature","geometry":{"type":"Point","coordinates":[6.512124,52.262374]},"properties":{"type":"charge","layer":"passenger","locationId":"653bc21b1c9d0f001c27381b","name":"Erve Hartgerink 1","address":"Oude Rijssenseweg 20","city":"Markelo","operatorName":"Lanova Laadpalen","maxPowerKw":11,"isMegawatt":false,"status":"AVAILABLE","source":"ndw","priceKwh":0.58}},{"type":"Feature","geometry":{"type":"Point","coordinates":[6.600936,52.233158]},"properties":{"type":"charge","layer":"passenger","locationId":"3f764e6a-6aae-4434-b2b1-8969937875d8","name":"Meidoornstraat","address":"Meidoornstraat 29","city":"Goor","operatorName":"Vattenfall InCharge","maxPowerKw":11,"isMegawatt":false,"status":"AVAILABLE","source":"ndw"}},{"type":"Feature","geometry":{"type":"Point","coordinates":[6.498752,52.231418]},"properties":{"type":"charge","layer":"passenger","locationId":"f602ef2100d268c7089efd769f5559aa","name":"Wansink","address":"Wansink 34","city":"Markelo","operatorName":"Vattenfall InCharge","maxPowerKw":11,"isMegawatt":false,"status":"AVAILABLE","source":"ndw"}},{"type":"Feature","geometry":{"type":"Point","coordinates":[6.714392,52.253984]},"properties":{"type":"charge","layer":"passenger","locationId":"63fcb9178492590012100a19","name":"Kamille Delden","address":"Kamille 35","city":"Delden","operatorName":"E-Flux by Road","maxPowerKw":11,"isMegawatt":false,"status":"AVAILABLE","source":"ndw","priceKwh":0.479}},{"type":"Feature","geometry":{"type":"Point","coordinates":[6.575257,52.240551]},"properties":{"type":"charge","layer":"passenger","locationId":"e47b690daadcb2fb0650107a390f3062","name":"Korhoenstraat 16","address":"Korhoenstraat 16","city":"Goor","operatorName":"Vattenfall InCharge","maxPowerKw":11,"isMegawatt":false,"status":"AVAILABLE","source":"ndw"}},{"type":"Feature","geometry":{"type":"Point","coordinates":[6.696871,52.253545]},"properties":{"type":"charge","layer":"passenger","locationId":"6421a7d86b199e0011aa43a4","name":"Watson-Marlow Bredel","address":"Sluisstraat 7","city":"Delden","operatorName":"E-Flux by Road","maxPowerKw":11,"isMegawatt":false,"status":"AVAILABLE","source":"ndw","priceKwh":0.33}},{"type":"Feature","geometry":{"type":"Point","coordinates":[6.63004,52.19834]},"properties":{"type":"charge","layer":"passenger","locationId":"dafa1b72084df53c3d9fde560b12aa8c","name":"De Bleek 1","address":"De Bleek 1","city":"Hengevelde","operatorName":"Vattenfall InCharge","maxPowerKw":11,"isMegawatt":false,"status":"UNAVAILABLE","source":"ndw"}},{"type":"Feature","geometry":{"type":"Point","coordinates":[6.633001,52.203562]},"properties":{"type":"charge","layer":"passenger","locationId":"612c92e423cd23f7b2b50032","name":"Lesscher Hengevelde","address":"Het Assink 4","city":"Hengevelde","operatorName":"E-Flux by Road","maxPowerKw":22,"isMegawatt":false,"status":"UNAVAILABLE","source":"ndw"}},{"type":"Feature","geometry":{"type":"Point","coordinates":[6.593322,52.246372]},"properties":{"type":"charge","layer":"passenger","locationId":"6409faf8cbdc74001214b5a9","name":"Service Station Hoek BV","address":"Enterseweg  10","city":"Goor","operatorName":"E-Flux by Road","maxPowerKw":150,"isMegawatt":false,"status":"AVAILABLE","source":"ndw","priceKwh":0.6746}},{"type":"Feature","geometry":{"type":"Point","coordinates":[6.70242,52.260511]},"properties":{"type":"charge","layer":"passenger","locationId":"NLLOC009906","name":"NL,Langestraat 118a, 7491 AK Delden","address":"Langestraat 118a","city":"Delden","operatorName":"Allego","maxPowerKw":0,"isMegawatt":false,"status":"AVAILABLE","source":"ndw","priceKwh":0.3488}},{"type":"Feature","geometry":{"type":"Point","coordinates":[6.718343,52.262976]},"properties":{"type":"charge","layer":"passenger","locationId":"618a46f4e7dfee2b12fe3d6f","name":"Het witte Paard","address":"Hengelosestraat  8","city":"Delden","operatorName":"E-Flux by Road","maxPowerKw":22,"isMegawatt":false,"status":"AVAILABLE","source":"ndw","priceKwh":0.68}},{"type":"Feature","geometry":{"type":"Point","coordinates":[6.532852,52.257714]},"properties":{"type":"charge","layer":"passenger","locationId":"fa305016-7f47-46a5-8bcf-f12636c42ad2","name":"Plasdijk","address":"Plasdijk 2A","city":"Markelo","operatorName":"Vattenfall InCharge","maxPowerKw":11,"isMegawatt":false,"status":"AVAILABLE","source":"ndw"}},{"type":"Feature","geometry":{"type":"Point","coordinates":[6.693268,52.240779]},"properties":{"type":"charge","layer":"passenger","locationId":"69e7bef1007abbb00d92e22f","name":"Short Golf Hof van Twente","address":"Bentelosestraat 54","city":"Bentelo","operatorName":"Lanova Laadpalen","maxPowerKw":11,"isMegawatt":false,"status":"AVAILABLE","source":"ndw","priceKwh":0.58}},{"type":"Feature","geometry":{"type":"Point","coordinates":[6.682153,52.259257]},"properties":{"type":"charge","layer":"passenger","locationId":"627fa80035a8425b15b6ce2c","name":"Hotel Wapen van Delden","address":"Langestraat 242","city":"Delden","operatorName":"E-Flux by Road","maxPowerKw":22,"isMegawatt":false,"status":"AVAILABLE","source":"ndw","priceKwh":0.63}},{"type":"Feature","geometry":{"type":"Point","coordinates":[6.704242,52.260918]},"properties":{"type":"charge","layer":"passenger","locationId":"NLLOC003519","name":"NLD, Peperkampweg 61, 7491 GH, Delden","address":"Peperkampweg 61","city":"Delden","operatorName":"Allego","maxPowerKw":0,"isMegawatt":false,"status":"AVAILABLE","source":"ndw","priceKwh":0.3488}},{"type":"Feature","geometry":{"type":"Point","coordinates":[6.579976,52.235822]},"properties":{"type":"charge","layer":"passenger","locationId":"c5c6200a-f940-4012-9d0d-80f7c971800b","name":"van Kollaan ","address":"van Kollaan  68","city":"Goor","operatorName":"Vattenfall InCharge","maxPowerKw":11,"isMegawatt":false,"status":"AVAILABLE","source":"ndw"}},{"type":"Feature","geometry":{"type":"Point","coordinates":[6.585071,52.233383]},"properties":{"type":"charge","layer":"passenger","locationId":"NLLOC006040","name":"NL, de Höfte 7, 7471DK, Goor","address":"de Höfte 7","city":"Goor","operatorName":"Allego","maxPowerKw":0,"isMegawatt":false,"status":"AVAILABLE","source":"ndw","priceKwh":0.3488}},{"type":"Feature","geometry":{"type":"Point","coordinates":[6.584919,52.236895]},"properties":{"type":"charge","layer":"passenger","locationId":"6718cc0a1563e9001cdc6dfc","name":"Herfstzon Goor","address":"Javastraat 2","city":"Goor","operatorName":"E-Flux by Road","maxPowerKw":21,"isMegawatt":false,"status":"AVAILABLE","source":"ndw","priceKwh":0.42}},{"type":"Feature","geometry":{"type":"Point","coordinates":[6.568103,52.237579]},"properties":{"type":"charge","layer":"passenger","locationId":"392d8f7e-e048-4765-935b-ff3e49476b80","name":"Huygensstraat","address":"Huygensstraat 11","city":"Goor","operatorName":"Vattenfall InCharge","maxPowerKw":11,"isMegawatt":false,"status":"AVAILABLE","source":"ndw"}},{"type":"Feature","geometry":{"type":"Point","coordinates":[6.710912,52.264066]},"properties":{"type":"charge","layer":"passenger","locationId":"07f14594-0fae-4a96-87b8-f66c8d88182e","name":"Zuidwal 32","address":"Zuidwal 32","city":"Delden","operatorName":"Vattenfall InCharge","maxPowerKw":11,"isMegawatt":false,"status":"AVAILABLE","source":"ndw"}},{"type":"Feature","geometry":{"type":"Point","coordinates":[6.597848,52.244014]},"properties":{"type":"charge","layer":"passenger","locationId":"61af38af5666acc1b82eef67","name":"Marcel Kappert","address":"Wanyng 61","city":"Goor","operatorName":"E-Flux by Road","maxPowerKw":22,"isMegawatt":false,"status":"AVAILABLE","source":"ndw","priceKwh":0.1982}},{"type":"Feature","geometry":{"type":"Point","coordinates":[6.554854,52.201041]},"properties":{"type":"charge","layer":"passenger","locationId":"NLLOC003590","name":"NLD, Kuimgaarden 15, Diepenheim","address":"Kuimgaarden 15","city":"Diepenheim","operatorName":"Allego","maxPowerKw":0,"isMegawatt":false,"status":"AVAILABLE","source":"ndw","priceKwh":0.3488}},{"type":"Feature","geometry":{"type":"Point","coordinates":[6.580678,52.243917]},"properties":{"type":"charge","layer":"passenger","locationId":"68d50c8673ea1084db3f0b13","name":"Hogeweg Goor B.V.","address":"Gruttostraat 77","city":"Goor","operatorName":"E-Flux by Road","maxPowerKw":11,"isMegawatt":false,"status":"AVAILABLE","source":"ndw","priceKwh":0.33}},{"type":"Feature","geometry":{"type":"Point","coordinates":[6.682153,52.259257]},"properties":{"type":"charge","layer":"passenger","locationId":"627ec616ce103ca069d103b3","name":"Hotel Wapen van Delden","address":"Langestraat  242","city":"Delden","operatorName":"E-Flux by Road","maxPowerKw":22,"isMegawatt":false,"status":"AVAILABLE","source":"ndw","priceKwh":0.63}},{"type":"Feature","geometry":{"type":"Point","coordinates":[6.68466,52.224]},"properties":{"type":"charge","layer":"passenger","locationId":"a769c1a95dfac0b70f3bb5928526b668","name":"'t Kemerink 1","address":"'t Kemerink 1","city":"Bentelo","operatorName":"Vattenfall InCharge","maxPowerKw":11,"isMegawatt":false,"status":"AVAILABLE","source":"ndw"}},{"type":"Feature","geometry":{"type":"Point","coordinates":[6.703969,52.256653]},"properties":{"type":"charge","layer":"passenger","locationId":"87bbeff2c7514f92059136113f2910f0","name":"Bernhardstraat 47","address":"Bernhardstraat 47","city":"Delden","operatorName":"Vattenfall InCharge","maxPowerKw":11,"isMegawatt":false,"status":"AVAILABLE","source":"ndw"}},{"type":"Feature","geometry":{"type":"Point","coordinates":[6.726672,52.255414]},"properties":{"type":"charge","layer":"passenger","locationId":"NLLOC012807","name":"NL, De Mors 3, 7491 DZ Delden","address":"De Mors 3","city":"Delden","operatorName":"Allego","maxPowerKw":0,"isMegawatt":false,"status":"AVAILABLE","source":"ndw","priceKwh":0.3488}},{"type":"Feature","geometry":{"type":"Point","coordinates":[6.633406,52.195231]},"properties":{"type":"charge","layer":"passenger","locationId":"1a2dddbb-4f63-483c-b17c-4dcb96e176c6","name":"bolscher","address":"bolscher 18","city":"Hengevelde","operatorName":"Vattenfall InCharge","maxPowerKw":11,"isMegawatt":false,"status":"AVAILABLE","source":"ndw"}},{"type":"Feature","geometry":{"type":"Point","coordinates":[6.706897,52.253673]},"properties":{"type":"charge","layer":"passenger","locationId":"58d41172619f47ed6d3664fa9080ac64","name":"Hassinkstraat 13","address":"Hassinkstraat 13","city":"Delden","operatorName":"Vattenfall InCharge","maxPowerKw":11,"isMegawatt":false,"status":"AVAILABLE","source":"ndw"}},{"type":"Feature","geometry":{"type":"Point","coordinates":[6.57151,52.24393]},"properties":{"type":"charge","layer":"passenger","locationId":"7f5c12ea-1d5b-45ed-925b-d9776c3acd8e","name":"Spechtstraat","address":"Spechtstraat 37","city":"Goor","operatorName":"Vattenfall InCharge","maxPowerKw":11,"isMegawatt":false,"status":"AVAILABLE","source":"ndw"}},{"type":"Feature","geometry":{"type":"Point","coordinates":[6.501001,52.239169]},"properties":{"type":"charge","layer":"passenger","locationId":"b7077074-89c5-4844-918b-47f31d167e4e","name":"G.W.B. Wondaalstraat 40","address":"G.W.B. Wondaalstraat 40","city":"Markelo","operatorName":"Vattenfall InCharge","maxPowerKw":11,"isMegawatt":false,"status":"AVAILABLE","source":"ndw"}},{"type":"Feature","geometry":{"type":"Point","coordinates":[6.597533,52.234868]},"properties":{"type":"charge","layer":"passenger","locationId":"d448b72375495242ada316412ccd7683","name":"Lindelaan 84","address":"Lindelaan 84","city":"Goor","operatorName":"Vattenfall InCharge","maxPowerKw":11,"isMegawatt":false,"status":"AVAILABLE","source":"ndw"}},{"type":"Feature","geometry":{"type":"Point","coordinates":[6.493952,52.233658]},"properties":{"type":"charge","layer":"passenger","locationId":"816c2d2c-5a58-45c6-a3c3-4a66565dc9a7","name":"Schoolstraat 1","address":"Schoolstraat 1","city":"Markelo","operatorName":"Vattenfall InCharge","maxPowerKw":11,"isMegawatt":false,"status":"AVAILABLE","source":"ndw"}},{"type":"Feature","geometry":{"type":"Point","coordinates":[6.637969,52.199297]},"properties":{"type":"charge","layer":"passenger","locationId":"9a7cd241-ce6d-4901-a23c-7678fc4dd0be","name":"De Höfte","address":"De Höfte 1","city":"Hengevelde","operatorName":"Vattenfall InCharge","maxPowerKw":11,"isMegawatt":false,"status":"AVAILABLE","source":"ndw"}},{"type":"Feature","geometry":{"type":"Point","coordinates":[6.584,52.236662]},"properties":{"type":"charge","layer":"passenger","locationId":"6cad42a5-27d1-419c-af73-80d3c37aacbe","name":"De Blauwververij","address":"De Blauwververij 48","city":"Goor","operatorName":"Vattenfall InCharge","maxPowerKw":11,"isMegawatt":false,"status":"AVAILABLE","source":"ndw"}},{"type":"Feature","geometry":{"type":"Point","coordinates":[6.71046,52.25432]},"properties":{"type":"charge","layer":"passenger","locationId":"9625f47c5272494d7b5eb810dcee149b","name":"Sleutelbloem 78","address":"Sleutelbloem 78","city":"Delden","operatorName":"Vattenfall InCharge","maxPowerKw":11,"isMegawatt":false,"status":"AVAILABLE","source":"ndw"}},{"type":"Feature","geometry":{"type":"Point","coordinates":[6.596034,52.236018]},"properties":{"type":"charge","layer":"passenger","locationId":"37832f04-92ad-4881-a45c-d133eada8d77","name":"Van Hoevellstraat","address":"Van Hoevellstraat 38","city":"Goor","operatorName":"Vattenfall InCharge","maxPowerKw":11,"isMegawatt":false,"status":"AVAILABLE","source":"ndw"}},{"type":"Feature","geometry":{"type":"Point","coordinates":[6.512309,52.239658]},"properties":{"type":"charge","layer":"passenger","locationId":"cbd05c1becba4ac3056dfdbcabb6afa9","name":"Potdijk 3a","address":"Potdijk 3a","city":"Markelo","operatorName":"Vattenfall InCharge","maxPowerKw":11,"isMegawatt":false,"status":"AVAILABLE","source":"ndw"}},{"type":"Feature","geometry":{"type":"Point","coordinates":[6.709016,52.26122]},"properties":{"type":"charge","layer":"passenger","locationId":"9a95dd4dc4c82574aa940b66df283bf5","name":"De Kolk  1 z","address":"De Kolk  1 z","city":"Delden","operatorName":"Vattenfall InCharge","maxPowerKw":11,"isMegawatt":false,"status":"AVAILABLE","source":"ndw"}},{"type":"Feature","geometry":{"type":"Point","coordinates":[6.592889,52.236342]},"properties":{"type":"charge","layer":"passenger","locationId":"22085e54-1e33-47b9-8252-3e4f34aa8e91","name":"Van Coeverdenstraat","address":"Van Coeverdenstraat 9","city":"Goor","operatorName":"Vattenfall InCharge","maxPowerKw":11,"isMegawatt":false,"status":"AVAILABLE","source":"ndw"}},{"type":"Feature","geometry":{"type":"Point","coordinates":[6.596704,52.24165]},"properties":{"type":"charge","layer":"passenger","locationId":"a6cfd3d1-fb77-4a0f-843d-0cc40b0a1afc","name":"Van Heeckerenweg","address":"Van Heeckerenweg 27","city":"Goor","operatorName":"Vattenfall InCharge","maxPowerKw":11,"isMegawatt":false,"status":"AVAILABLE","source":"ndw"}},{"type":"Feature","geometry":{"type":"Point","coordinates":[6.717598,52.255157]},"properties":{"type":"charge","layer":"passenger","locationId":"8de1f89e-2678-4143-8077-84f5bf4f7da4","name":"De Kosterskamp","address":"De Kosterskamp 1","city":"Delden","operatorName":"Vattenfall InCharge","maxPowerKw":11,"isMegawatt":false,"status":"AVAILABLE","source":"ndw"}},{"type":"Feature","geometry":{"type":"MultiPolygon","coordinates":[[[[6.749398337969143,52.26938460147167],[6.748821402281332,52.26708542260432],[6.747915202837971,52.266853812520594],[6.748981762960453,52.26528609992175],[6.750752960680068,52.261157144904594],[6.752960219014006,52.25236920826297],[6.748845217771539,52.25173185364166],[6.729370980481821,52.25254908189766],[6.724282076116404,52.252705530489074],[6.723591027241177,52.252011111172386],[6.71961699166733,52.24861639579759],[6.717927347946903,52.24351396081716],[6.7200560251749595,52.24374196237869],[6.721509367647097,52.239150816537034],[6.7208285311449885,52.23802151988512],[6.718774936079802,52.23786381637163],[6.718800457045675,52.23917583518461],[6.717088474395116,52.240980222029904],[6.716306907072258,52.23861930730775],[6.712140330030919,52.226028771764014],[6.703240066332686,52.219441928153095],[6.7020397203845095,52.2168213817697],[6.712388376071087,52.20633127022288],[6.704279747054188,52.19923542173288],[6.697494670096624,52.19624788221637],[6.683776631010777,52.19729388972893],[6.675646855297467,52.19791301752668],[6.672050940026745,52.19818668966932],[6.653082381261482,52.19370071994297],[6.624484760812941,52.18887935690591],[6.63080677306682,52.18629861745505],[6.6344541603559986,52.185955272024266],[6.640123925287051,52.18128058538288],[6.641391742020053,52.18090628491438],[6.642755354578523,52.18144718903207],[6.647294462054604,52.17689535987084],[6.645041079903394,52.17419434172086],[6.640280472203096,52.16740523746043],[6.634841832315647,52.17217738463382],[6.631041337550661,52.17314236017687],[6.629101319965561,52.17203276202245],[6.625839945471207,52.172499350596134],[6.625286123238648,52.172172039173596],[6.626564127867393,52.17145701543595],[6.624952510428535,52.16864992156305],[6.621989779663042,52.168373051882156],[6.617356987922787,52.16529101678805],[6.612147419503481,52.163166395404964],[6.609270542362636,52.16514338039685],[6.607354953325791,52.16463101076364],[6.602851521060478,52.169121392320335],[6.603185021723239,52.17072190430223],[6.606207644063328,52.17236922123024],[6.60632704277545,52.173082523653036],[6.596115355901854,52.179835308615736],[6.591077482315383,52.18226368819075],[6.589953851578707,52.182487886929785],[6.5879825108107575,52.182010683053555],[6.58494891522396,52.18152989172926],[6.555349480778699,52.17725558274462],[6.517641932225858,52.18126700616254],[6.513240924817828,52.18123050617066],[6.495839287496154,52.177145324339456],[6.492401065463654,52.177371816681955],[6.490646872993166,52.1798629245973],[6.479031619478192,52.18259953031461],[6.478356909755199,52.18382716973933],[6.472699946000671,52.189040389714414],[6.46999894356026,52.19269037789887],[6.4694644320021535,52.19828193152042],[6.470269521129006,52.19937968646575],[6.467118299902103,52.20039523383724],[6.457287067582051,52.200964538353766],[6.456133289800835,52.20170910678166],[6.4534912696317805,52.204172329348026],[6.452745813295472,52.20647705337876],[6.446311049758862,52.2128007586507],[6.439967882020591,52.217066976636104],[6.431573788626129,52.22124403805962],[6.429342423877501,52.22313559775248],[6.421975102675346,52.23292551458764],[6.416807548062538,52.237126086738975],[6.416395433966234,52.239524894436045],[6.41642241894076,52.242166091689896],[6.421032716163974,52.24512678102839],[6.42381926543275,52.24707868822973],[6.4262263466781215,52.248862171354325],[6.428486288208184,52.24820304338576],[6.431821424139764,52.25090127028014],[6.429603517600815,52.251513126369346],[6.42968476045305,52.251697777681414],[6.436938073275343,52.25406099604114],[6.439043526250727,52.25473000578755],[6.441490300552404,52.25659684549463],[6.4478121885081405,52.25784317231554],[6.457087843832787,52.261595645546166],[6.466541228992273,52.26549579186749],[6.471001557492306,52.26768587461256],[6.472062802902909,52.26971203612959],[6.477075887195975,52.27188337656249],[6.486661512692118,52.274944401333805],[6.490511025157982,52.27600190132025],[6.515760563955525,52.282224906203396],[6.517263588947832,52.2830439880154],[6.522542498664899,52.28343127588475],[6.5350285904940435,52.28297673013701],[6.535795321044829,52.28270432178273],[6.541561801249336,52.282683178941575],[6.541546644273899,52.28226662710845],[6.554008746125593,52.283312895634964],[6.562252656117492,52.274358805543564],[6.5681182323511464,52.27018834041433],[6.574099472747912,52.26931718209817],[6.586964434589527,52.2703701886943],[6.595148644267163,52.27119842406833],[6.605397944146998,52.27072037955546],[6.612131802834752,52.27691934835879],[6.626066700517277,52.28997379713199],[6.647465128586885,52.29371080120617],[6.657520374955564,52.29485409754498],[6.6660957974961885,52.2982518532165],[6.6836372117173095,52.30620463531079],[6.690940854019193,52.30839085597258],[6.697460900020191,52.30861024823729],[6.701088727185476,52.308068802237145],[6.711992762451064,52.303667930304016],[6.723698032793203,52.29606523797351],[6.727838597588535,52.29205526139048],[6.732892529060954,52.289812829135904],[6.742887162405258,52.2831131431309],[6.7428983229216595,52.283092516954376],[6.744232918668813,52.28171450623551],[6.745766928611206,52.28013047077405],[6.7481355226022,52.27604842404441],[6.749368622141671,52.27101598041658],[6.7485649001770005,52.270166342197534],[6.749398337969143,52.26938460147167]]]]},"properties":{"type":"boundary","gemeente":"Hof van Twente","code":"GM1735"}}]}