{"type":"FeatureCollection","metadata":{"gemeente":"Hoogeveen","slug":"hoogeveen","code":"GM0118","generated_at":"2026-06-07T19:22:09.578Z","total_passenger":208,"total_freight":0,"bounds":[6.40359885007126,52.65450748745323,6.632413300985521,52.80055695357613],"operators":["Allego","Alva Charging Services","Blink Charging","ChargePoint","DAEN Mobility","E-Flux by Road","EQUANS","Eneco","Green Planet Pesse BV","Laadnet","Lanova Laadpalen","OPCHARGE","Pluq","SMA eMobility Portal","bp pulse"]},"features":[{"type":"Feature","geometry":{"type":"Point","coordinates":[6.510861,52.733682]},"properties":{"type":"charge","layer":"passenger","locationId":"68d10cf346828f66c8b9f11d","name":"Zonnebeek 3","address":"Parmentierstraat  2","city":"Hoogeveen","operatorName":"E-Flux by Road","maxPowerKw":11,"isMegawatt":false,"status":"AVAILABLE","source":"ndw"}},{"type":"Feature","geometry":{"type":"Point","coordinates":[6.444896,52.773979]},"properties":{"type":"charge","layer":"passenger","locationId":"6582e46af874ff001d9209cd","name":"Green Planet Cars","address":"Bultinge 2","city":"Pesse","operatorName":"Green Planet Pesse BV","maxPowerKw":300,"isMegawatt":false,"status":"AVAILABLE","source":"ndw","priceKwh":0.67}},{"type":"Feature","geometry":{"type":"Point","coordinates":[6.508475,52.721274]},"properties":{"type":"charge","layer":"passenger","locationId":"NLLOC010849","name":"NL, Saturnus 44, 7904 GB, Hoogeveen","address":"Saturnus 44","city":"Hoogeveen","operatorName":"Allego","maxPowerKw":0,"isMegawatt":false,"status":"UNAVAILABLE","source":"ndw","priceKwh":0.374}},{"type":"Feature","geometry":{"type":"Point","coordinates":[6.510001,52.733633]},"properties":{"type":"charge","layer":"passenger","locationId":"68d10b5d6aa214bc0e9b39bb","name":"GGM Gastro","address":"Parmentierstraat  2b","city":"Hoogeveen","operatorName":"E-Flux by Road","maxPowerKw":22,"isMegawatt":false,"status":"AVAILABLE","source":"ndw","priceKwh":0.43}},{"type":"Feature","geometry":{"type":"Point","coordinates":[6.505955,52.729498]},"properties":{"type":"charge","layer":"passenger","locationId":"61dc3849be126f6846675da5","name":"Parkeerplaats vlaggenmast","address":"Stephensonstraat 3VM","city":"Hoogeveen","operatorName":"E-Flux by Road","maxPowerKw":22,"isMegawatt":false,"status":"AVAILABLE","source":"ndw","priceKwh":0.28}},{"type":"Feature","geometry":{"type":"Point","coordinates":[6.513251,52.709271]},"properties":{"type":"charge","layer":"passenger","locationId":"1260c6a8-e881-11ee-8e90-42010aa400b8","name":"FOURCE BV BUITENVAART 4","address":"1003 Buitenvaart","city":"Hoogeveen","operatorName":"ChargePoint","maxPowerKw":22,"isMegawatt":false,"status":"UNAVAILABLE","source":"ndw"}},{"type":"Feature","geometry":{"type":"Point","coordinates":[6.50423,52.73447]},"properties":{"type":"charge","layer":"passenger","locationId":"33a24ea6-fc36-11ec-8948-42010aa4001d","name":"Eneco eMobility Edisonstraat 1 Hoogeveen","address":"Edisonstraat 1","city":"Hoogeveen","operatorName":"Eneco","maxPowerKw":22,"isMegawatt":false,"status":"AVAILABLE","source":"ndw","priceKwh":0.32}},{"type":"Feature","geometry":{"type":"Point","coordinates":[6.513013,52.710212]},"properties":{"type":"charge","layer":"passenger","locationId":"ba3b7f14-da5b-11ee-89ce-42010aa40fc0","name":"FOURCE BV BUITENVAART 1","address":"1003 Buitenvaart","city":"Hoogeveen","operatorName":"ChargePoint","maxPowerKw":22,"isMegawatt":false,"status":"UNAVAILABLE","source":"ndw"}},{"type":"Feature","geometry":{"type":"Point","coordinates":[6.493559,52.712727]},"properties":{"type":"charge","layer":"passenger","locationId":"NLLOC020946","name":"NL, Spireastraat 24, 7906 KJ Hoogeveen","address":"Spireastraat 24","city":"Hoogeveen","operatorName":"Allego","maxPowerKw":0,"isMegawatt":false,"status":"AVAILABLE","source":"ndw","priceKwh":0.374}},{"type":"Feature","geometry":{"type":"Point","coordinates":[6.50353,52.73137]},"properties":{"type":"charge","layer":"passenger","locationId":"f8a84d5c-1dfd-11ed-823e-42010aa40fc1","name":"Eneco eMobility Terwolde Renault Hoogeveen","address":"Edisonstraat 24","city":"Hoogeveen","operatorName":"Eneco","maxPowerKw":22,"isMegawatt":false,"status":"AVAILABLE","source":"ndw","priceKwh":0.36}},{"type":"Feature","geometry":{"type":"Point","coordinates":[6.518928,52.735948]},"properties":{"type":"charge","layer":"passenger","locationId":"67ab63909d12f051d7d2017e","name":"AVH Autoverhuur station","address":"Plesmanstraat  89","city":"Hoogeveen","operatorName":"E-Flux by Road","maxPowerKw":11,"isMegawatt":false,"status":"UNAVAILABLE","source":"ndw"}},{"type":"Feature","geometry":{"type":"Point","coordinates":[6.51643,52.7121]},"properties":{"type":"charge","layer":"passenger","locationId":"56d82f90-f8ff-11ee-8b3b-42010aa400b8","name":"Eneco eMobility Van der Linden Auto's - Hoogeveen","address":"Buitenvaart 1107A","city":"Hoogeveen","operatorName":"Eneco","maxPowerKw":22,"isMegawatt":false,"status":"AVAILABLE","source":"ndw","priceKwh":0.6}},{"type":"Feature","geometry":{"type":"Point","coordinates":[6.5081,52.719389]},"properties":{"type":"charge","layer":"passenger","locationId":"NLLOC015140","name":"NL, Roerdomplaan 230, 7905 EM Hoogeveen","address":"Roerdomplaan 230","city":"Hoogeveen","operatorName":"Allego","maxPowerKw":0,"isMegawatt":false,"status":"AVAILABLE","source":"ndw","priceKwh":0.374}},{"type":"Feature","geometry":{"type":"Point","coordinates":[6.451028,52.719312]},"properties":{"type":"charge","layer":"passenger","locationId":"b581da52-181d-11ec-b47e-42010a840003","name":"NL, De Weide 4, 7908AB, Hoogeveen","address":"de Weide 4","city":"Hoogeveen","operatorName":"Allego","maxPowerKw":0,"isMegawatt":false,"status":"AVAILABLE","source":"ndw"}},{"type":"Feature","geometry":{"type":"Point","coordinates":[6.48473,52.71642]},"properties":{"type":"charge","layer":"passenger","locationId":"91145178","name":"Equans Groningen Drenthe Middenweg 1","address":"Middenweg 1","city":"Hoogeveen","operatorName":"EQUANS","maxPowerKw":0,"isMegawatt":false,"status":"AVAILABLE","source":"ndw"}},{"type":"Feature","geometry":{"type":"Point","coordinates":[6.519044,52.732285]},"properties":{"type":"charge","layer":"passenger","locationId":"91145171","name":"Equans Groningen Drenthe Plesmanstraat 2","address":"Plesmanstraat 2","city":"Hoogeveen","operatorName":"EQUANS","maxPowerKw":0,"isMegawatt":false,"status":"AVAILABLE","source":"ndw"}},{"type":"Feature","geometry":{"type":"Point","coordinates":[6.537105,52.722881]},"properties":{"type":"charge","layer":"passenger","locationId":"2e4409bc-ae8f-11ec-bf6e-42010a840003","name":"NL, Jan Naardingweg 4, 7914 PM Noordscheschut","address":"Jan Naardingweg 4","city":"Noordscheschut","operatorName":"Allego","maxPowerKw":0,"isMegawatt":false,"status":"AVAILABLE","source":"ndw"}},{"type":"Feature","geometry":{"type":"Point","coordinates":[6.448792,52.711767]},"properties":{"type":"charge","layer":"passenger","locationId":"959f3d0a-aa14-11eb-94e9-42010a840003","name":"NL, Keizersmantel 69, 7908XA, Hoogeveen","address":"Keizersmantel 69","city":"Hoogeveen","operatorName":"Allego","maxPowerKw":0,"isMegawatt":false,"status":"AVAILABLE","source":"ndw"}},{"type":"Feature","geometry":{"type":"Point","coordinates":[6.514573,52.712087]},"properties":{"type":"charge","layer":"passenger","locationId":"029b6555-29d6-47aa-b574-dfa5e5b61bda","name":"DWB - Bert Jansen -Vanesch - Hoogeveen","address":"Buitenvaart 1206","city":"Hoogeveen","operatorName":"Blink Charging","maxPowerKw":0,"isMegawatt":false,"status":"AVAILABLE","source":"ndw","priceKwh":0.42}},{"type":"Feature","geometry":{"type":"Point","coordinates":[6.493559,52.712727]},"properties":{"type":"charge","layer":"passenger","locationId":"2d80189c-a663-11ec-9876-42010a840003","name":"NL, Spireastraat 24, 7906 KJ Hoogeveen","address":"Spireastraat 24","city":"Hoogeveen","operatorName":"Allego","maxPowerKw":0,"isMegawatt":false,"status":"AVAILABLE","source":"ndw"}},{"type":"Feature","geometry":{"type":"Point","coordinates":[6.50604,52.720157]},"properties":{"type":"charge","layer":"passenger","locationId":"d8c18456-f370-11ed-9aff-42010aa40fc0","name":"bp pulse Zuid Oost","address":"Buizerdlaan 147","city":"Hoogeveen","operatorName":"bp pulse","maxPowerKw":150,"isMegawatt":false,"status":"AVAILABLE","source":"ndw","priceKwh":0.7}},{"type":"Feature","geometry":{"type":"Point","coordinates":[6.513149,52.70927]},"properties":{"type":"charge","layer":"passenger","locationId":"1293e4de-e881-11ee-b5d4-42010aa400b8","name":"FOURCE BV BUITENVAART 5","address":"1003 Buitenvaart","city":"Hoogeveen","operatorName":"ChargePoint","maxPowerKw":22,"isMegawatt":false,"status":"UNAVAILABLE","source":"ndw"}},{"type":"Feature","geometry":{"type":"Point","coordinates":[6.50954,52.73493]},"properties":{"type":"charge","layer":"passenger","locationId":"6b71e34c-de1b-11ed-9f46-42010aa40fc0","name":"Eneco eMobility Europaweg 8A, Hoogeveen","address":"Europaweg 8A","city":"Hoogeveen","operatorName":"Eneco","maxPowerKw":22,"isMegawatt":false,"status":"AVAILABLE","source":"ndw","priceKwh":0.32}},{"type":"Feature","geometry":{"type":"Point","coordinates":[6.50604,52.720157]},"properties":{"type":"charge","layer":"passenger","locationId":"d8c18456-f370-11ed-9aff-42010aa40fc0","name":"bp pulse Zuid Oost","address":"Buizerdlaan 147","city":"Hoogeveen","operatorName":"bp pulse","maxPowerKw":150,"isMegawatt":false,"status":"AVAILABLE","source":"ndw","priceKwh":0.7}},{"type":"Feature","geometry":{"type":"Point","coordinates":[6.495187,52.721328]},"properties":{"type":"charge","layer":"passenger","locationId":"91145163","name":"Equans Groningen Drenthe Sportveldenweg 1T","address":"Sportveldenweg 1T","city":"Hoogeveen","operatorName":"EQUANS","maxPowerKw":0,"isMegawatt":false,"status":"AVAILABLE","source":"ndw"}},{"type":"Feature","geometry":{"type":"Point","coordinates":[6.513889,52.710084]},"properties":{"type":"charge","layer":"passenger","locationId":"22c757a2-12f0-11ef-ac00-42010aa400b8","name":"FOURCE BV BUITENVAART 2","address":"1003 Buitenvaart","city":"Hoogeveen","operatorName":"ChargePoint","maxPowerKw":22,"isMegawatt":false,"status":"UNAVAILABLE","source":"ndw"}},{"type":"Feature","geometry":{"type":"Point","coordinates":[6.475606,52.722677]},"properties":{"type":"charge","layer":"passenger","locationId":"91193730","name":"Equans Groningen Drenthe Bilderdijklaan 115","address":"Bilderdijklaan 115","city":"Hoogeveen","operatorName":"EQUANS","maxPowerKw":0,"isMegawatt":false,"status":"AVAILABLE","source":"ndw"}},{"type":"Feature","geometry":{"type":"Point","coordinates":[6.51526,52.72605]},"properties":{"type":"charge","layer":"passenger","locationId":"91145205","name":"Equans Groningen Drenthe Zenithlaan 226","address":"Zenithlaan 226","city":"Hoogeveen","operatorName":"EQUANS","maxPowerKw":0,"isMegawatt":false,"status":"AVAILABLE","source":"ndw"}},{"type":"Feature","geometry":{"type":"Point","coordinates":[6.486863,52.722481]},"properties":{"type":"charge","layer":"passenger","locationId":"NLLOC019293","name":"NL, K de Raadstraat 18, 7902JD, Hoogeveen","address":"K de Raadstraat 18","city":"Hoogeveen","operatorName":"Allego","maxPowerKw":0,"isMegawatt":false,"status":"AVAILABLE","source":"ndw","priceKwh":0.374}},{"type":"Feature","geometry":{"type":"Point","coordinates":[6.48599,52.726678]},"properties":{"type":"charge","layer":"passenger","locationId":"NLLOC018667","name":"NL, Julianastraat 16, 7902 NK Hoogeveen","address":"Julianastraat 16","city":"Hoogeveen","operatorName":"Allego","maxPowerKw":0,"isMegawatt":false,"status":"AVAILABLE","source":"ndw","priceKwh":0.374}},{"type":"Feature","geometry":{"type":"Point","coordinates":[6.479809,52.726648]},"properties":{"type":"charge","layer":"passenger","locationId":"NLLOC019294","name":"NL, Tamboerpassage 40, 7902GN, Hoogeveen","address":"Tamboerpassage 40","city":"Hoogeveen","operatorName":"Allego","maxPowerKw":0,"isMegawatt":false,"status":"AVAILABLE","source":"ndw","priceKwh":0.374}},{"type":"Feature","geometry":{"type":"Point","coordinates":[6.51633,52.71403]},"properties":{"type":"charge","layer":"passenger","locationId":"D564E9A2-2416-447E-80F1-6C2B8D7C356A","name":"Eneco eMobility Broekhuis Volvo Ford Hoogeveen","address":"Buitenvaart 1113","city":"Hoogeveen","operatorName":"Eneco","maxPowerKw":22,"isMegawatt":false,"status":"AVAILABLE","source":"ndw","priceKwh":0.45}},{"type":"Feature","geometry":{"type":"Point","coordinates":[6.45989,52.72716]},"properties":{"type":"charge","layer":"passenger","locationId":"2fc77def025d424788308b84473f1658","name":"Hoogeveen Bethesda P3 (Treant)","address":"Dr G.H. Amshoffweg 1","city":"Hoogeveen","operatorName":"OPCHARGE","maxPowerKw":22,"isMegawatt":false,"status":"AVAILABLE","source":"ndw","priceKwh":0.48}},{"type":"Feature","geometry":{"type":"Point","coordinates":[6.508111,52.71791]},"properties":{"type":"charge","layer":"passenger","locationId":"NLLOC010873","name":"NL, Leeuweriklaan 118, 7905 CD, Hoogeveen","address":"Leeuweriklaan 118","city":"Hoogeveen","operatorName":"Allego","maxPowerKw":0,"isMegawatt":false,"status":"AVAILABLE","source":"ndw","priceKwh":0.374}},{"type":"Feature","geometry":{"type":"Point","coordinates":[6.508475,52.721274]},"properties":{"type":"charge","layer":"passenger","locationId":"4db768f0-2ac6-11eb-89c4-42010a840003","name":"NL, Saturnus 44, 7904 GB, Hoogeveen","address":"Saturnus 44","city":"Hoogeveen","operatorName":"Allego","maxPowerKw":0,"isMegawatt":false,"status":"AVAILABLE","source":"ndw"}},{"type":"Feature","geometry":{"type":"Point","coordinates":[6.508111,52.71791]},"properties":{"type":"charge","layer":"passenger","locationId":"4e0a14ba-2ac6-11eb-bb90-42010a840003","name":"NL, Leeuweriklaan 118, 7905 CD, Hoogeveen","address":"Leeuweriklaan 118","city":"Hoogeveen","operatorName":"Allego","maxPowerKw":0,"isMegawatt":false,"status":"AVAILABLE","source":"ndw"}},{"type":"Feature","geometry":{"type":"Point","coordinates":[6.53515,52.70574]},"properties":{"type":"charge","layer":"passenger","locationId":"91145204","name":"Equans Groningen Drenthe Kreuzestraat 5","address":"Kreuzestraat 5","city":"Hollandscheveld","operatorName":"EQUANS","maxPowerKw":0,"isMegawatt":false,"status":"CHARGING","source":"ndw"}},{"type":"Feature","geometry":{"type":"Point","coordinates":[6.609856,52.695864]},"properties":{"type":"charge","layer":"passenger","locationId":"6688f42c-4163-11ea-aaa7-42010a840003","name":"NL, Akkerweg 28, 7918 TH, Nieuwlande","address":"Akkerweg 28","city":"Nieuwlande","operatorName":"Allego","maxPowerKw":0,"isMegawatt":false,"status":"AVAILABLE","source":"ndw"}},{"type":"Feature","geometry":{"type":"Point","coordinates":[6.442463,52.720308]},"properties":{"type":"charge","layer":"passenger","locationId":"fa7dbcea-aa51-11ec-b85a-42010a840003","name":"NL, Tilber 7, 7908 PB Hoogeveen","address":"Tilber 7","city":"Hoogeveen","operatorName":"Allego","maxPowerKw":0,"isMegawatt":false,"status":"AVAILABLE","source":"ndw"}},{"type":"Feature","geometry":{"type":"Point","coordinates":[6.48599,52.726678]},"properties":{"type":"charge","layer":"passenger","locationId":"289f118a-181e-11ec-bc26-42010a840003","name":"NL, Julianastraat 16, 7902 NK Hoogeveen","address":"Julianastraat 16","city":"Hoogeveen","operatorName":"Allego","maxPowerKw":0,"isMegawatt":false,"status":"AVAILABLE","source":"ndw"}},{"type":"Feature","geometry":{"type":"Point","coordinates":[6.513149,52.70927]},"properties":{"type":"charge","layer":"passenger","locationId":"NLCPIL6899125","name":"FOURCE BV BUITENVAART 5","address":"1003 Buitenvaart","city":"Hoogeveen","operatorName":"ChargePoint","maxPowerKw":22,"isMegawatt":false,"status":"AVAILABLE","source":"ndw","priceKwh":0.5}},{"type":"Feature","geometry":{"type":"Point","coordinates":[6.517537,52.72917]},"properties":{"type":"charge","layer":"passenger","locationId":"2652173","name":"Laadnet SW Hoogeveen","address":"Stephensonstraat 55","city":"Hoogeveen","operatorName":"Laadnet","maxPowerKw":22,"isMegawatt":false,"status":"AVAILABLE","source":"ndw"}},{"type":"Feature","geometry":{"type":"Point","coordinates":[6.488192,52.712706]},"properties":{"type":"charge","layer":"passenger","locationId":"4e1da4e4-2ac6-11eb-8de9-42010a840003","name":"NL, Begoniastraat 31, 7906 JA, Hoogeveen","address":"Begoniastraat 31","city":"Hoogeveen","operatorName":"Allego","maxPowerKw":0,"isMegawatt":false,"status":"AVAILABLE","source":"ndw"}},{"type":"Feature","geometry":{"type":"Point","coordinates":[6.514573,52.712087]},"properties":{"type":"charge","layer":"passenger","locationId":"ecce8080-5cb3-11f0-aeb9-42010aa400b8","name":"DWB - Bert Jansen -Vanesch - Hoogeveen","address":"Buitenvaart 1206","city":"Hoogeveen","operatorName":"Blink Charging","maxPowerKw":0,"isMegawatt":false,"status":"AVAILABLE","source":"ndw"}},{"type":"Feature","geometry":{"type":"Point","coordinates":[6.53832,52.725168]},"properties":{"type":"charge","layer":"passenger","locationId":"4233734","name":"Laadnet Eurogros BV","address":"Meester Kosterweg 10","city":"Noordscheschut","operatorName":"Laadnet","maxPowerKw":11,"isMegawatt":false,"status":"AVAILABLE","source":"ndw"}},{"type":"Feature","geometry":{"type":"Point","coordinates":[6.444548,52.708866]},"properties":{"type":"charge","layer":"passenger","locationId":"91145045","name":"Equans Groningen Drenthe Citroenvlinder 68","address":"Citroenvlinder 68","city":"Hoogeveen","operatorName":"EQUANS","maxPowerKw":0,"isMegawatt":false,"status":"AVAILABLE","source":"ndw"}},{"type":"Feature","geometry":{"type":"Point","coordinates":[6.445379,52.710256]},"properties":{"type":"charge","layer":"passenger","locationId":"NLLOC011316","name":"NL, Zilvervlek, 47, 7908vl, Hoogeveen","address":"Zilvervlek 47","city":"Hoogeveen","operatorName":"Allego","maxPowerKw":0,"isMegawatt":false,"status":"AVAILABLE","source":"ndw","priceKwh":0.374}},{"type":"Feature","geometry":{"type":"Point","coordinates":[6.508564,52.733285]},"properties":{"type":"charge","layer":"passenger","locationId":"3651045","name":"Laadnet LB Hoogeveen","address":"Europaweg 1","city":"Hoogeveen","operatorName":"Laadnet","maxPowerKw":22,"isMegawatt":false,"status":"AVAILABLE","source":"ndw"}},{"type":"Feature","geometry":{"type":"Point","coordinates":[6.457105,52.71155]},"properties":{"type":"charge","layer":"passenger","locationId":"3964876","name":"Laadnet Snijders","address":"Damhert 15","city":"Hoogeveen","operatorName":"Laadnet","maxPowerKw":11,"isMegawatt":false,"status":"CHARGING","source":"ndw"}},{"type":"Feature","geometry":{"type":"Point","coordinates":[6.51633,52.71403]},"properties":{"type":"charge","layer":"passenger","locationId":"15e7c75c-63b3-11ee-be38-42010aa40fc0","name":"Eneco eMobility Broekhuis Volvo Ford Hoogeveen","address":"Buitenvaart 1113","city":"Hoogeveen","operatorName":"Eneco","maxPowerKw":22,"isMegawatt":false,"status":"AVAILABLE","source":"ndw","priceKwh":0.45}},{"type":"Feature","geometry":{"type":"Point","coordinates":[6.514659,52.729401]},"properties":{"type":"charge","layer":"passenger","locationId":"3966648","name":"Laadnet Concordia Hoogeveen","address":"Stephensonstraat 39","city":"Hoogeveen","operatorName":"Laadnet","maxPowerKw":22,"isMegawatt":false,"status":"AVAILABLE","source":"ndw"}},{"type":"Feature","geometry":{"type":"Point","coordinates":[6.51643,52.7121]},"properties":{"type":"charge","layer":"passenger","locationId":"46E91708-BD00-49DA-BECF-6B25F8325E44","name":"Eneco eMobility Van der Linden Auto's - Hoogeveen","address":"Buitenvaart 1107A","city":"Hoogeveen","operatorName":"Eneco","maxPowerKw":22,"isMegawatt":false,"status":"AVAILABLE","source":"ndw","priceKwh":0.6}},{"type":"Feature","geometry":{"type":"Point","coordinates":[6.498035,52.717236]},"properties":{"type":"charge","layer":"passenger","locationId":"2ee67ffc-81d8-11ef-a7b6-42010aa400b8","name":"Equans Groningen Drenthe De Wielewaal 2","address":"De Wielewaal 2","city":"Hoogeveen","operatorName":"EQUANS","maxPowerKw":0,"isMegawatt":false,"status":"AVAILABLE","source":"ndw","priceKwh":0.35}},{"type":"Feature","geometry":{"type":"Point","coordinates":[6.441416,52.72191]},"properties":{"type":"charge","layer":"passenger","locationId":"765cfa18-a146-11ef-99ad-42010aa400b8","name":"Equans Groningen Drenthe Kalmoes 1","address":"Kalmoes 1","city":"Hoogeveen","operatorName":"EQUANS","maxPowerKw":0,"isMegawatt":false,"status":"AVAILABLE","source":"ndw","priceKwh":0.35}},{"type":"Feature","geometry":{"type":"Point","coordinates":[6.48616,52.718295]},"properties":{"type":"charge","layer":"passenger","locationId":"025753a0-31da-11f0-8feb-42010aa400b8","name":"Equans Groningen Drenthe Den Bestenstraat 24","address":"Den Bestenstraat 24","city":"Hoogeveen","operatorName":"EQUANS","maxPowerKw":0,"isMegawatt":false,"status":"AVAILABLE","source":"ndw","priceKwh":0.35}},{"type":"Feature","geometry":{"type":"Point","coordinates":[6.609846,52.695839]},"properties":{"type":"charge","layer":"passenger","locationId":"6688f42c-4163-11ea-aaa7-42010a840003","name":"Equans Groningen Drenthe Akkerweg 28","address":"Akkerweg 28","city":"Nieuwlande","operatorName":"EQUANS","maxPowerKw":0,"isMegawatt":false,"status":"AVAILABLE","source":"ndw","priceKwh":0.35}},{"type":"Feature","geometry":{"type":"Point","coordinates":[6.572674,52.699365]},"properties":{"type":"charge","layer":"passenger","locationId":"82eb957c-6d98-11f0-b9eb-42010aa400b8","name":"Equans Groningen Drenthe Marten Kuilerweg 47","address":"Marten Kuilerweg 47","city":"Hollandscheveld","operatorName":"EQUANS","maxPowerKw":0,"isMegawatt":false,"status":"AVAILABLE","source":"ndw","priceKwh":0.35}},{"type":"Feature","geometry":{"type":"Point","coordinates":[6.580372,52.682391]},"properties":{"type":"charge","layer":"passenger","locationId":"c78b68c2-2227-11f0-b469-42010aa400b8","name":"Equans Groningen Drenthe Dorpstraat 216","address":"Dorpstraat 216","city":"Elim","operatorName":"EQUANS","maxPowerKw":0,"isMegawatt":false,"status":"AVAILABLE","source":"ndw","priceKwh":0.35}},{"type":"Feature","geometry":{"type":"Point","coordinates":[6.497885,52.713]},"properties":{"type":"charge","layer":"passenger","locationId":"eae26154-813b-11f0-b8de-42010aa400b8","name":"Equans Groningen Drenthe De Grutto 4","address":"De Grutto 4","city":"Hoogeveen","operatorName":"EQUANS","maxPowerKw":0,"isMegawatt":false,"status":"AVAILABLE","source":"ndw","priceKwh":0.35}},{"type":"Feature","geometry":{"type":"Point","coordinates":[6.469555,52.71847]},"properties":{"type":"charge","layer":"passenger","locationId":"7c54e41c-6810-11eb-ba88-42010a840003","name":"NL, Oldenbandringhstraat 7, 7907CT, Hoogeveen","address":"Oldenbandringhstraat 7","city":"Hoogeveen","operatorName":"Allego","maxPowerKw":0,"isMegawatt":false,"status":"AVAILABLE","source":"ndw"}},{"type":"Feature","geometry":{"type":"Point","coordinates":[6.449414,52.714516]},"properties":{"type":"charge","layer":"passenger","locationId":"b58fed2c-181d-11ec-bccb-42010a840003","name":"NL, Booyenverlaat 6, 7908EE, Hoogeveen","address":"Booyenverlaat 6","city":"Hoogeveen","operatorName":"Allego","maxPowerKw":0,"isMegawatt":false,"status":"AVAILABLE","source":"ndw"}},{"type":"Feature","geometry":{"type":"Point","coordinates":[6.491099,52.716755]},"properties":{"type":"charge","layer":"passenger","locationId":"c0886938-0a60-11ea-a20f-42010a840003","name":"NLD, Hoogeveen, Tamboerlaan 16","address":"Tamboerlaan 16","city":"Hoogeveen","operatorName":"Allego","maxPowerKw":0,"isMegawatt":false,"status":"CHARGING","source":"ndw"}},{"type":"Feature","geometry":{"type":"Point","coordinates":[6.478827,52.718764]},"properties":{"type":"charge","layer":"passenger","locationId":"2658415","name":"Laadnet Fantastic Sports","address":"Beukemaplein 66","city":"Hoogeveen","operatorName":"Laadnet","maxPowerKw":22,"isMegawatt":false,"status":"AVAILABLE","source":"ndw"}},{"type":"Feature","geometry":{"type":"Point","coordinates":[6.517013,52.724955]},"properties":{"type":"charge","layer":"passenger","locationId":"d325a98a-3f07-11ea-9db8-42010a840003","name":"NL, Spica 14, 7904 KH, Hoogeveen","address":"Spica 14","city":"Hoogeveen","operatorName":"Allego","maxPowerKw":0,"isMegawatt":false,"status":"AVAILABLE","source":"ndw"}},{"type":"Feature","geometry":{"type":"Point","coordinates":[6.476572,52.72131]},"properties":{"type":"charge","layer":"passenger","locationId":"ca146ac6-4875-11ea-89bf-42010a840003","name":"NL, Reviusplein 71, 7901 EW, Hoogeveen","address":"Reviusplein 71","city":"Hoogeveen","operatorName":"Allego","maxPowerKw":0,"isMegawatt":false,"status":"AVAILABLE","source":"ndw"}},{"type":"Feature","geometry":{"type":"Point","coordinates":[6.473562,52.721127]},"properties":{"type":"charge","layer":"passenger","locationId":"87b4bd6c-68df-11f0-9889-42010aa400b8","name":"Equans Groningen Drenthe Da Costastraat 110","address":"Da Costastraat 110","city":"Hoogeveen","operatorName":"EQUANS","maxPowerKw":0,"isMegawatt":false,"status":"AVAILABLE","source":"ndw","priceKwh":0.35}},{"type":"Feature","geometry":{"type":"Point","coordinates":[6.455061,52.771176]},"properties":{"type":"charge","layer":"passenger","locationId":"NLLOC023896","name":"NL, Veldbrake 5, 7933 PW Pesse","address":"Veldbrake 5","city":"Pesse","operatorName":"Allego","maxPowerKw":0,"isMegawatt":false,"status":"AVAILABLE","source":"ndw","priceKwh":0.374}},{"type":"Feature","geometry":{"type":"Point","coordinates":[6.483079,52.770876]},"properties":{"type":"charge","layer":"passenger","locationId":"626265111238c14d41dd1f0b","name":"De Oosterweide","address":"Oostering 51","city":"Pesse","operatorName":"E-Flux by Road","maxPowerKw":22,"isMegawatt":false,"status":"AVAILABLE","source":"ndw","priceKwh":0.28}},{"type":"Feature","geometry":{"type":"Point","coordinates":[6.455061,52.771176]},"properties":{"type":"charge","layer":"passenger","locationId":"153cb1e8-103d-11ed-9e61-42010aa40fc0","name":"NL, Veldbrake 5, 7933 PW Pesse","address":"Veldbrake 5","city":"Pesse","operatorName":"Allego","maxPowerKw":0,"isMegawatt":false,"status":"AVAILABLE","source":"ndw"}},{"type":"Feature","geometry":{"type":"Point","coordinates":[6.467457,52.712873]},"properties":{"type":"charge","layer":"passenger","locationId":"4282117","name":"Laadnet Ballista","address":"Beukencamp 6","city":"Hoogeveen","operatorName":"Laadnet","maxPowerKw":22,"isMegawatt":false,"status":"UNAVAILABLE","source":"ndw"}},{"type":"Feature","geometry":{"type":"Point","coordinates":[6.511949,52.721768]},"properties":{"type":"charge","layer":"passenger","locationId":"6860da08-a7f5-11ec-a8c3-42010a840003","name":"NL, Neptunus 1, 7904GD, Hoogeveen","address":"Neptunus 1","city":"Hoogeveen","operatorName":"Allego","maxPowerKw":0,"isMegawatt":false,"status":"AVAILABLE","source":"ndw"}},{"type":"Feature","geometry":{"type":"Point","coordinates":[6.445379,52.710256]},"properties":{"type":"charge","layer":"passenger","locationId":"ef9445c0-65b4-11eb-8007-42010a840003","name":"NL, Zilvervlek, 47, 7908vl, Hoogeveen","address":"Zilvervlek 47","city":"Hoogeveen","operatorName":"Allego","maxPowerKw":0,"isMegawatt":false,"status":"AVAILABLE","source":"ndw"}},{"type":"Feature","geometry":{"type":"Point","coordinates":[6.470649,52.73137]},"properties":{"type":"charge","layer":"passenger","locationId":"3966374","name":"Laadnet Stichting IT Hub","address":"Griendtsveenweg 29","city":"Hoogeveen","operatorName":"Laadnet","maxPowerKw":22,"isMegawatt":false,"status":"AVAILABLE","source":"ndw"}},{"type":"Feature","geometry":{"type":"Point","coordinates":[6.455692,52.769624]},"properties":{"type":"charge","layer":"passenger","locationId":"625789f4-b1f1-11eb-a825-42010a840003","name":"NL, Stijgbeugel 3, 7933TE, Pesse","address":"Stijgbeugel 3","city":"Pesse","operatorName":"Allego","maxPowerKw":0,"isMegawatt":false,"status":"AVAILABLE","source":"ndw"}},{"type":"Feature","geometry":{"type":"Point","coordinates":[6.446764,52.709306]},"properties":{"type":"charge","layer":"passenger","locationId":"4e9cc13c-74dc-11ec-9bd9-42010a840003","name":"NL, Citroenvlinder 57 7908 XN Hoogeveen","address":"Citroenvlinder 57","city":"Hoogeveen","operatorName":"Allego","maxPowerKw":0,"isMegawatt":false,"status":"AVAILABLE","source":"ndw"}},{"type":"Feature","geometry":{"type":"Point","coordinates":[6.475578,52.719543]},"properties":{"type":"charge","layer":"passenger","locationId":"a84c7f62-0029-11ea-999f-42010a840003","name":"NLD, Hoogeveen, Schutsplein 22","address":"Schutsplein 22","city":"Hoogeveen","operatorName":"Allego","maxPowerKw":0,"isMegawatt":false,"status":"AVAILABLE","source":"ndw"}},{"type":"Feature","geometry":{"type":"Point","coordinates":[6.51299,52.735431]},"properties":{"type":"charge","layer":"passenger","locationId":"682db29c3ba8802ca2534e6f","name":"De Jonge Berging","address":"Europaweg 12","city":"Hoogeveen","operatorName":"E-Flux by Road","maxPowerKw":4,"isMegawatt":false,"status":"AVAILABLE","source":"ndw","priceKwh":0.41}},{"type":"Feature","geometry":{"type":"Point","coordinates":[6.479809,52.726648]},"properties":{"type":"charge","layer":"passenger","locationId":"2f733d42-181e-11ec-b7c4-42010a840003","name":"NL, Tamboerpassage 40, 7902GN, Hoogeveen","address":"Tamboerpassage 40","city":"Hoogeveen","operatorName":"Allego","maxPowerKw":0,"isMegawatt":false,"status":"AVAILABLE","source":"ndw"}},{"type":"Feature","geometry":{"type":"Point","coordinates":[6.50222,52.71611]},"properties":{"type":"charge","layer":"passenger","locationId":"7d3fb7b2-b383-11f0-b39e-42010aa400b8","name":"Equans Groningen Drenthe Leeuweriklaan 50","address":"Leeuweriklaan 50","city":"Hoogeveen","operatorName":"EQUANS","maxPowerKw":0,"isMegawatt":false,"status":"AVAILABLE","source":"ndw","priceKwh":0.35}},{"type":"Feature","geometry":{"type":"Point","coordinates":[6.484417,52.716597]},"properties":{"type":"charge","layer":"passenger","locationId":"8c368c5c-110a-11ec-88c3-42010a840003","name":"NL, Tamboerlaan, 117-G008, 7906EE, Hoogeveen","address":"Tamboerlaan 117-G008","city":"Hoogeveen","operatorName":"Allego","maxPowerKw":0,"isMegawatt":false,"status":"AVAILABLE","source":"ndw"}},{"type":"Feature","geometry":{"type":"Point","coordinates":[6.5081,52.719389]},"properties":{"type":"charge","layer":"passenger","locationId":"2f296f8e-a238-11eb-b66d-42010a840003","name":"NL, Roerdomplaan 230, 7905 EM Hoogeveen","address":"Roerdomplaan 230","city":"Hoogeveen","operatorName":"Allego","maxPowerKw":0,"isMegawatt":false,"status":"AVAILABLE","source":"ndw"}},{"type":"Feature","geometry":{"type":"Point","coordinates":[6.486863,52.722481]},"properties":{"type":"charge","layer":"passenger","locationId":"e12705b8-1cd4-11ec-a3bb-42010a840003","name":"NL, K de Raadstraat 18, 7902JD, Hoogeveen","address":"K de Raadstraat 18","city":"Hoogeveen","operatorName":"Allego","maxPowerKw":0,"isMegawatt":false,"status":"AVAILABLE","source":"ndw"}},{"type":"Feature","geometry":{"type":"Point","coordinates":[6.464356,52.712135]},"properties":{"type":"charge","layer":"passenger","locationId":"a8929b52-2222-11f0-829c-42010aa400b8","name":"Equans Groningen Drenthe Eikenlaan 86","address":"Eikenlaan 86","city":"Hoogeveen","operatorName":"EQUANS","maxPowerKw":0,"isMegawatt":false,"status":"AVAILABLE","source":"ndw","priceKwh":0.35}},{"type":"Feature","geometry":{"type":"Point","coordinates":[6.53515,52.70574]},"properties":{"type":"charge","layer":"passenger","locationId":"84cd6eb2-82a0-11ef-9cc5-42010aa400b8","name":"Equans Groningen Drenthe Kreuzestraat 5","address":"Kreuzestraat 5","city":"Hollandscheveld","operatorName":"EQUANS","maxPowerKw":0,"isMegawatt":false,"status":"AVAILABLE","source":"ndw","priceKwh":0.35}},{"type":"Feature","geometry":{"type":"Point","coordinates":[6.45691,52.71653]},"properties":{"type":"charge","layer":"passenger","locationId":"ed9ed9a8-7f7b-11ef-94ae-42010aa400b8","name":"Equans Groningen Drenthe Schelde 84","address":"Schelde 84","city":"Hoogeveen","operatorName":"EQUANS","maxPowerKw":0,"isMegawatt":false,"status":"AVAILABLE","source":"ndw","priceKwh":0.35}},{"type":"Feature","geometry":{"type":"Point","coordinates":[6.50692,52.72421]},"properties":{"type":"charge","layer":"passenger","locationId":"2efb6bb4-81d4-11ef-9d61-42010aa400b8","name":"Equans Groningen Drenthe Sterrenlaan 72","address":"Sterrenlaan 72","city":"Hoogeveen","operatorName":"EQUANS","maxPowerKw":0,"isMegawatt":false,"status":"AVAILABLE","source":"ndw","priceKwh":0.35}},{"type":"Feature","geometry":{"type":"Point","coordinates":[6.479127,52.729831]},"properties":{"type":"charge","layer":"passenger","locationId":"e382a41e-2222-11f0-9511-42010aa400b8","name":"Equans Groningen Drenthe Prins Mauritsplein 50","address":"Prins Mauritsplein 50","city":"Hoogeveen","operatorName":"EQUANS","maxPowerKw":0,"isMegawatt":false,"status":"CHARGING","source":"ndw","priceKwh":0.35}},{"type":"Feature","geometry":{"type":"Point","coordinates":[6.51526,52.72609]},"properties":{"type":"charge","layer":"passenger","locationId":"f5ad2790-81d7-11ef-8dff-42010aa400b8","name":"Equans Groningen Drenthe Zenithlaan 228","address":"Zenithlaan 228","city":"Hoogeveen","operatorName":"EQUANS","maxPowerKw":0,"isMegawatt":false,"status":"AVAILABLE","source":"ndw","priceKwh":0.35}},{"type":"Feature","geometry":{"type":"Point","coordinates":[6.47929,52.719352]},"properties":{"type":"charge","layer":"passenger","locationId":"f8c7ad8a-82ce-11f0-beb2-42010aa400b8","name":"Equans Groningen Drenthe Beukemaplein 21","address":"Beukemaplein 21","city":"Hoogeveen","operatorName":"EQUANS","maxPowerKw":0,"isMegawatt":false,"status":"CHARGING","source":"ndw","priceKwh":0.35}},{"type":"Feature","geometry":{"type":"Point","coordinates":[6.484417,52.716597]},"properties":{"type":"charge","layer":"passenger","locationId":"NLLOC014716","name":"NL, Tamboerlaan, 117-G008, 7906EE, Hoogeveen","address":"Tamboerlaan 117-G008","city":"Hoogeveen","operatorName":"Allego","maxPowerKw":0,"isMegawatt":false,"status":"AVAILABLE","source":"ndw","priceKwh":0.374}},{"type":"Feature","geometry":{"type":"Point","coordinates":[6.5009,52.71705]},"properties":{"type":"charge","layer":"passenger","locationId":"28b2e282-181e-11ec-a67e-42010a840003","name":"NL, Spechtlaan 25, 7905 HH Hoogeveen","address":"Spechtlaan 25","city":"Hoogeveen","operatorName":"Allego","maxPowerKw":0,"isMegawatt":false,"status":"AVAILABLE","source":"ndw"}},{"type":"Feature","geometry":{"type":"Point","coordinates":[6.460845,52.720525]},"properties":{"type":"charge","layer":"passenger","locationId":"5780d7c6-1173-11ea-b2ac-42010a840003","name":"NLD, Hoogeveen, Curiestraat 395","address":"Curiestraat 395","city":"Hoogeveen","operatorName":"Allego","maxPowerKw":0,"isMegawatt":false,"status":"AVAILABLE","source":"ndw"}},{"type":"Feature","geometry":{"type":"Point","coordinates":[6.449414,52.714516]},"properties":{"type":"charge","layer":"passenger","locationId":"NLLOC019378","name":"NL, Booyenverlaat 6, 7908EE, Hoogeveen","address":"Booyenverlaat 6","city":"Hoogeveen","operatorName":"Allego","maxPowerKw":0,"isMegawatt":false,"status":"AVAILABLE","source":"ndw","priceKwh":0.374}},{"type":"Feature","geometry":{"type":"Point","coordinates":[6.445752,52.773367]},"properties":{"type":"charge","layer":"passenger","locationId":"65a654352504b1001cb0b431","name":"Green Planet Trucks","address":"Bultinge 2","city":"Pesse","operatorName":"Green Planet Pesse BV","maxPowerKw":300,"isMegawatt":false,"status":"AVAILABLE","source":"ndw","priceKwh":0.67}},{"type":"Feature","geometry":{"type":"Point","coordinates":[6.45969,52.72144]},"properties":{"type":"charge","layer":"passenger","locationId":"f3088110-97d5-11ef-9123-42010aa400b8","name":"Equans Groningen Drenthe Schweitzerstraat 23","address":"Schweitzerstraat 23","city":"Hoogeveen","operatorName":"EQUANS","maxPowerKw":0,"isMegawatt":false,"status":"AVAILABLE","source":"ndw","priceKwh":0.35}},{"type":"Feature","geometry":{"type":"Point","coordinates":[6.44876,52.72254]},"properties":{"type":"charge","layer":"passenger","locationId":"ee992b00-81d4-11ef-8a83-42010aa400b8","name":"Equans Groningen Drenthe Klaverkamp 6","address":"Klaverkamp 6","city":"Hoogeveen","operatorName":"EQUANS","maxPowerKw":0,"isMegawatt":false,"status":"AVAILABLE","source":"ndw","priceKwh":0.35}},{"type":"Feature","geometry":{"type":"Point","coordinates":[6.450412,52.718907]},"properties":{"type":"charge","layer":"passenger","locationId":"86bb1192-b383-11f0-bd8f-42010aa400b8","name":"Equans Groningen Drenthe De Zaaier 100","address":"De Zaaier 100","city":"Hoogeveen","operatorName":"EQUANS","maxPowerKw":0,"isMegawatt":false,"status":"AVAILABLE","source":"ndw","priceKwh":0.35}},{"type":"Feature","geometry":{"type":"Point","coordinates":[6.449719,52.709656]},"properties":{"type":"charge","layer":"passenger","locationId":"a876f28a-e187-11ee-86a7-42010aa400b8","name":"Equans Groningen Drenthe Eikepage 11","address":"Eikepage 11","city":"Hoogeveen","operatorName":"EQUANS","maxPowerKw":0,"isMegawatt":false,"status":"AVAILABLE","source":"ndw","priceKwh":0.35}},{"type":"Feature","geometry":{"type":"Point","coordinates":[6.573585,52.68204]},"properties":{"type":"charge","layer":"passenger","locationId":"41ce14be-a2d9-11ef-b6b4-42010aa400b8","name":"Equans Groningen Drenthe Carstenswijk 21","address":"Carstenswijk 21","city":"Elim","operatorName":"EQUANS","maxPowerKw":0,"isMegawatt":false,"status":"AVAILABLE","source":"ndw","priceKwh":0.35}},{"type":"Feature","geometry":{"type":"Point","coordinates":[6.495187,52.721328]},"properties":{"type":"charge","layer":"passenger","locationId":"5a74a3a2-2222-11f0-92c3-42010aa400b8","name":"Equans Groningen Drenthe Sportveldenweg 1T","address":"Sportveldenweg 1T","city":"Hoogeveen","operatorName":"EQUANS","maxPowerKw":0,"isMegawatt":false,"status":"CHARGING","source":"ndw","priceKwh":0.35}},{"type":"Feature","geometry":{"type":"Point","coordinates":[6.48294,52.71339]},"properties":{"type":"charge","layer":"passenger","locationId":"40802d8c-8f59-11f0-8f80-42010aa400b8","name":"Equans Groningen Drenthe Veenluydenstraat 177","address":"Veenluydenstraat 177","city":"Hoogeveen","operatorName":"EQUANS","maxPowerKw":0,"isMegawatt":false,"status":"AVAILABLE","source":"ndw","priceKwh":0.35}},{"type":"Feature","geometry":{"type":"Point","coordinates":[6.47294,52.73213]},"properties":{"type":"charge","layer":"passenger","locationId":"64b0741a-9256-11ef-b60a-42010aa400b8","name":"Equans Groningen Drenthe Montgomerystraat 1 001","address":"Montgomerystraat 1 001","city":"Hoogeveen","operatorName":"EQUANS","maxPowerKw":0,"isMegawatt":false,"status":"AVAILABLE","source":"ndw","priceKwh":0.35}},{"type":"Feature","geometry":{"type":"Point","coordinates":[6.4681,52.719048]},"properties":{"type":"charge","layer":"passenger","locationId":"651ad443d08b47001f214a29","name":"LadenBijKlok Shell Recharge.","address":"Schutstraat 187","city":"Hoogeveen","operatorName":"E-Flux by Road","maxPowerKw":300,"isMegawatt":false,"status":"AVAILABLE","source":"ndw","priceKwh":0.57}},{"type":"Feature","geometry":{"type":"Point","coordinates":[6.44686,52.70999]},"properties":{"type":"charge","layer":"passenger","locationId":"3ecd20bc-6d99-11f0-a01e-42010aa400b8","name":"Equans Groningen Drenthe Citroenvlinder 1","address":"Citroenvlinder 1","city":"Hoogeveen","operatorName":"EQUANS","maxPowerKw":0,"isMegawatt":false,"status":"AVAILABLE","source":"ndw","priceKwh":0.35}},{"type":"Feature","geometry":{"type":"Point","coordinates":[6.442508,52.720323]},"properties":{"type":"charge","layer":"passenger","locationId":"fa7dbcea-aa51-11ec-b85a-42010a840003","name":"Equans Groningen Drenthe Tilber 7","address":"Tilber 7","city":"Hoogeveen","operatorName":"EQUANS","maxPowerKw":0,"isMegawatt":false,"status":"AVAILABLE","source":"ndw","priceKwh":0.35}},{"type":"Feature","geometry":{"type":"Point","coordinates":[6.532315,52.72327]},"properties":{"type":"charge","layer":"passenger","locationId":"fbc8e59c-81d7-11ef-ac42-42010aa400b8","name":"Equans Groningen Drenthe De Vijzel 21","address":"De Vijzel 21","city":"Noordscheschut","operatorName":"EQUANS","maxPowerKw":0,"isMegawatt":false,"status":"AVAILABLE","source":"ndw","priceKwh":0.35}},{"type":"Feature","geometry":{"type":"Point","coordinates":[6.46946,52.72338]},"properties":{"type":"charge","layer":"passenger","locationId":"273e3f4c-81d8-11ef-a040-42010aa400b8","name":"Equans Groningen Drenthe van der Helststraat 3","address":"van der Helststraat 3","city":"Hoogeveen","operatorName":"EQUANS","maxPowerKw":0,"isMegawatt":false,"status":"AVAILABLE","source":"ndw","priceKwh":0.35}},{"type":"Feature","geometry":{"type":"Point","coordinates":[6.43692,52.71874]},"properties":{"type":"charge","layer":"passenger","locationId":"2b3a4e4c-81d8-11ef-98e7-42010aa400b8","name":"Equans Groningen Drenthe Groenland 1","address":"Groenland 1","city":"Hoogeveen","operatorName":"EQUANS","maxPowerKw":0,"isMegawatt":false,"status":"AVAILABLE","source":"ndw","priceKwh":0.35}},{"type":"Feature","geometry":{"type":"Point","coordinates":[6.516091,52.721442]},"properties":{"type":"charge","layer":"passenger","locationId":"338493ce-9258-11ef-8164-42010aa400b8","name":"Equans Groningen Drenthe Atlaslaan 67","address":"Atlaslaan 67","city":"Hoogeveen","operatorName":"EQUANS","maxPowerKw":0,"isMegawatt":false,"status":"CHARGING","source":"ndw","priceKwh":0.35}},{"type":"Feature","geometry":{"type":"Point","coordinates":[6.48473,52.71642]},"properties":{"type":"charge","layer":"passenger","locationId":"ca797332-48a9-11f0-b3f8-42010aa400b8","name":"Equans Groningen Drenthe Middenweg 1","address":"Middenweg 1","city":"Hoogeveen","operatorName":"EQUANS","maxPowerKw":0,"isMegawatt":false,"status":"AVAILABLE","source":"ndw","priceKwh":0.35}},{"type":"Feature","geometry":{"type":"Point","coordinates":[6.539929,52.707359]},"properties":{"type":"charge","layer":"passenger","locationId":"2d97357a-b0e9-11ea-9873-42010a840003","name":"NL, Ds Kooimanstraat 52, 7913AX, Hollandscheveld","address":"Ds Kooimanstraat 52","city":"Hollandscheveld","operatorName":"Allego","maxPowerKw":0,"isMegawatt":false,"status":"AVAILABLE","source":"ndw"}},{"type":"Feature","geometry":{"type":"Point","coordinates":[6.50053,52.72637]},"properties":{"type":"charge","layer":"passenger","locationId":"71657882-a55f-11f0-9fa8-42010aa400b8","name":"Equans Groningen Drenthe Terpweg 2","address":"Terpweg 2","city":"Hoogeveen","operatorName":"EQUANS","maxPowerKw":0,"isMegawatt":false,"status":"AVAILABLE","source":"ndw","priceKwh":0.35}},{"type":"Feature","geometry":{"type":"Point","coordinates":[6.485413,52.723635]},"properties":{"type":"charge","layer":"passenger","locationId":"25432036-81d8-11ef-848e-42010aa400b8","name":"Equans Groningen Drenthe Jan Dekkerstraat 59","address":"Jan Dekkerstraat 59","city":"Hoogeveen","operatorName":"EQUANS","maxPowerKw":0,"isMegawatt":false,"status":"AVAILABLE","source":"ndw","priceKwh":0.35}},{"type":"Feature","geometry":{"type":"Point","coordinates":[6.501344,52.718992]},"properties":{"type":"charge","layer":"passenger","locationId":"f754062e-bdbb-11eb-9b95-42010a840003","name":"NL, De Fazant 41, 7905HB, Hoogeveen","address":"De Fazant 41","city":"Hoogeveen","operatorName":"Allego","maxPowerKw":0,"isMegawatt":false,"status":"AVAILABLE","source":"ndw"}},{"type":"Feature","geometry":{"type":"Point","coordinates":[6.4612,52.72431]},"properties":{"type":"charge","layer":"passenger","locationId":"3f7481c2-8f59-11f0-8619-42010aa400b8","name":"Equans Groningen Drenthe Boerhaaverhof 2","address":"Boerhaaverhof 2","city":"Hoogeveen","operatorName":"EQUANS","maxPowerKw":0,"isMegawatt":false,"status":"AVAILABLE","source":"ndw","priceKwh":0.35}},{"type":"Feature","geometry":{"type":"Point","coordinates":[6.519044,52.732285]},"properties":{"type":"charge","layer":"passenger","locationId":"a2e42b1a-2224-11f0-b1c6-42010aa400b8","name":"Equans Groningen Drenthe Plesmanstraat 2","address":"Plesmanstraat 2","city":"Hoogeveen","operatorName":"EQUANS","maxPowerKw":0,"isMegawatt":false,"status":"AVAILABLE","source":"ndw","priceKwh":0.35}},{"type":"Feature","geometry":{"type":"Point","coordinates":[6.444548,52.708866]},"properties":{"type":"charge","layer":"passenger","locationId":"c5a78c68-e18a-11ee-8708-42010aa400b8","name":"Equans Groningen Drenthe Citroenvlinder 68","address":"Citroenvlinder 68","city":"Hoogeveen","operatorName":"EQUANS","maxPowerKw":0,"isMegawatt":false,"status":"AVAILABLE","source":"ndw","priceKwh":0.35}},{"type":"Feature","geometry":{"type":"Point","coordinates":[6.474866,52.72616]},"properties":{"type":"charge","layer":"passenger","locationId":"48cdf376-4d93-11e8-8388-42010a840002","name":"Equans Groningen Drenthe Raadhuisplein 1","address":"Raadhuisplein 1","city":"Hoogeveen","operatorName":"EQUANS","maxPowerKw":0,"isMegawatt":false,"status":"CHARGING","source":"ndw","priceKwh":0.35}},{"type":"Feature","geometry":{"type":"Point","coordinates":[6.550084,52.759763]},"properties":{"type":"charge","layer":"passenger","locationId":"6686b73fffc661001c05e014","name":"Camping de Beukenhof","address":"Kanaal Oostzijde 15","city":"Tiendeveen","operatorName":"Pluq","maxPowerKw":22,"isMegawatt":false,"status":"AVAILABLE","source":"ndw","priceKwh":0.33}},{"type":"Feature","geometry":{"type":"Point","coordinates":[6.447117,52.711471]},"properties":{"type":"charge","layer":"passenger","locationId":"da1618c6-ba6b-11ef-8d01-42010aa400b8","name":"Equans Groningen Drenthe Atalanta 66","address":"Atalanta 66","city":"Hoogeveen","operatorName":"EQUANS","maxPowerKw":0,"isMegawatt":false,"status":"AVAILABLE","source":"ndw","priceKwh":0.35}},{"type":"Feature","geometry":{"type":"Point","coordinates":[6.452386,52.735815]},"properties":{"type":"charge","layer":"passenger","locationId":"b8abcd18-9e21-11ef-99b3-42010aa400b8","name":"Equans Groningen Drenthe Driehoekskamp 9","address":"Driehoekskamp 9","city":"Fluitenberg","operatorName":"EQUANS","maxPowerKw":0,"isMegawatt":false,"status":"AVAILABLE","source":"ndw","priceKwh":0.35}},{"type":"Feature","geometry":{"type":"Point","coordinates":[6.503956,52.715751]},"properties":{"type":"charge","layer":"passenger","locationId":"656dda730447a5001ca6544b","name":"De Henkie's station","address":"De Wulp 16","city":"Hoogeveen","operatorName":"E-Flux by Road","maxPowerKw":11,"isMegawatt":false,"status":"CHARGING","source":"ndw","priceKwh":0.43}},{"type":"Feature","geometry":{"type":"Point","coordinates":[6.447117,52.711471]},"properties":{"type":"charge","layer":"passenger","locationId":"91145259","name":"Equans Groningen Drenthe Atalanta 66","address":"Atalanta 66","city":"Hoogeveen","operatorName":"EQUANS","maxPowerKw":0,"isMegawatt":false,"status":"CHARGING","source":"ndw"}},{"type":"Feature","geometry":{"type":"Point","coordinates":[6.532364,52.693872]},"properties":{"type":"charge","layer":"passenger","locationId":"60dac6f4f60a2d2a9a5c8b76","name":"Fieten Electric B.V. | Hollandscheveld","address":"Riegshoogtendijk 124","city":"Hollandscheveld","operatorName":"E-Flux by Road","maxPowerKw":22,"isMegawatt":false,"status":"AVAILABLE","source":"ndw","priceKwh":0.3223}},{"type":"Feature","geometry":{"type":"Point","coordinates":[6.610396,52.708975]},"properties":{"type":"charge","layer":"passenger","locationId":"65ae41b91eb466001b0e5969","name":"PowerUp snelladen","address":"Joh. Poststraat  12","city":"Nieuwlande","operatorName":"Lanova Laadpalen","maxPowerKw":150,"isMegawatt":false,"status":"AVAILABLE","source":"ndw","priceKwh":0.58}},{"type":"Feature","geometry":{"type":"Point","coordinates":[6.449719,52.709656]},"properties":{"type":"charge","layer":"passenger","locationId":"91145055","name":"Equans Groningen Drenthe Eikepage 11","address":"Eikepage 11","city":"Hoogeveen","operatorName":"EQUANS","maxPowerKw":0,"isMegawatt":false,"status":"AVAILABLE","source":"ndw"}},{"type":"Feature","geometry":{"type":"Point","coordinates":[6.448792,52.711767]},"properties":{"type":"charge","layer":"passenger","locationId":"NLLOC016138","name":"NL, Keizersmantel 69, 7908XA, Hoogeveen","address":"Keizersmantel 69","city":"Hoogeveen","operatorName":"Allego","maxPowerKw":0,"isMegawatt":false,"status":"AVAILABLE","source":"ndw","priceKwh":0.374}},{"type":"Feature","geometry":{"type":"Point","coordinates":[6.481706,52.737255]},"properties":{"type":"charge","layer":"passenger","locationId":"6421991b164fae0012804317","name":"Wilcovak - Hoogeveen","address":"A.G. Bellstraat 27","city":"Hoogeveen","operatorName":"Alva Charging Services","maxPowerKw":11,"isMegawatt":false,"status":"AVAILABLE","source":"ndw","priceKwh":0.49}},{"type":"Feature","geometry":{"type":"Point","coordinates":[6.513251,52.709271]},"properties":{"type":"charge","layer":"passenger","locationId":"NLCPIL6899115","name":"FOURCE BV BUITENVAART 4","address":"1003 Buitenvaart","city":"Hoogeveen","operatorName":"ChargePoint","maxPowerKw":22,"isMegawatt":false,"status":"AVAILABLE","source":"ndw","priceKwh":0.5}},{"type":"Feature","geometry":{"type":"Point","coordinates":[6.5009,52.71705]},"properties":{"type":"charge","layer":"passenger","locationId":"NLLOC018424","name":"NL, Spechtlaan 25, 7905 HH Hoogeveen","address":"Spechtlaan 25","city":"Hoogeveen","operatorName":"Allego","maxPowerKw":0,"isMegawatt":false,"status":"AVAILABLE","source":"ndw","priceKwh":0.374}},{"type":"Feature","geometry":{"type":"Point","coordinates":[6.47294,52.73213]},"properties":{"type":"charge","layer":"passenger","locationId":"91145195","name":"Equans Groningen Drenthe Montgomerystraat 1 001","address":"Montgomerystraat 1 001","city":"Hoogeveen","operatorName":"EQUANS","maxPowerKw":0,"isMegawatt":false,"status":"AVAILABLE","source":"ndw"}},{"type":"Feature","geometry":{"type":"Point","coordinates":[6.512475,52.713111]},"properties":{"type":"charge","layer":"passenger","locationId":"922901","name":"DAE_NL_2000649","address":"Buitenvaart 1207","city":"Hoogeveen","operatorName":"DAEN Mobility","maxPowerKw":11,"isMegawatt":false,"status":"UNAVAILABLE","source":"ndw","priceKwh":0.45}},{"type":"Feature","geometry":{"type":"Point","coordinates":[6.537168,52.705958]},"properties":{"type":"charge","layer":"passenger","locationId":"63626c928480189f56bf0f05","name":"Bruins  |  administratie  • belasting  • advies","address":"Het Hoekje 24","city":"Hollandscheveld","operatorName":"E-Flux by Road","maxPowerKw":11,"isMegawatt":false,"status":"AVAILABLE","source":"ndw","priceKwh":0.48}},{"type":"Feature","geometry":{"type":"Point","coordinates":[6.43692,52.71874]},"properties":{"type":"charge","layer":"passenger","locationId":"91145206","name":"Equans Groningen Drenthe Groenland 1","address":"Groenland 1","city":"Hoogeveen","operatorName":"EQUANS","maxPowerKw":0,"isMegawatt":false,"status":"AVAILABLE","source":"ndw"}},{"type":"Feature","geometry":{"type":"Point","coordinates":[6.4431,52.71358]},"properties":{"type":"charge","layer":"passenger","locationId":"15e3ded2-a07d-11ef-861f-42010aa400b8","name":"Equans Groningen Drenthe De Waring 27","address":"De Waring 27","city":"Hoogeveen","operatorName":"EQUANS","maxPowerKw":0,"isMegawatt":false,"status":"AVAILABLE","source":"ndw","priceKwh":0.35}},{"type":"Feature","geometry":{"type":"Point","coordinates":[6.512034,52.728304]},"properties":{"type":"charge","layer":"passenger","locationId":"922959","name":"DAE_NL_2000727","address":"Pascalstraat 5","city":"Hoogeveen","operatorName":"DAEN Mobility","maxPowerKw":11,"isMegawatt":false,"status":"AVAILABLE","source":"ndw","priceKwh":0.5}},{"type":"Feature","geometry":{"type":"Point","coordinates":[6.539929,52.707359]},"properties":{"type":"charge","layer":"passenger","locationId":"NLLOC006841","name":"NL, Ds Kooimanstraat 52, 7913AX, Hollandscheveld","address":"Ds Kooimanstraat 52","city":"Hollandscheveld","operatorName":"Allego","maxPowerKw":0,"isMegawatt":false,"status":"AVAILABLE","source":"ndw","priceKwh":0.374}},{"type":"Feature","geometry":{"type":"Point","coordinates":[6.555053,52.741979]},"properties":{"type":"charge","layer":"passenger","locationId":"6926f61bb36adeecf6822832","name":"Minicamping en kwekerij \"De Bulte\"","address":"Hoogeveenseweg 8","city":"Tiendeveen","operatorName":"SMA eMobility Portal","maxPowerKw":22,"isMegawatt":false,"status":"AVAILABLE","source":"ndw","priceKwh":0.48}},{"type":"Feature","geometry":{"type":"Point","coordinates":[6.50692,52.72421]},"properties":{"type":"charge","layer":"passenger","locationId":"91145199","name":"Equans Groningen Drenthe Sterrenlaan 72","address":"Sterrenlaan 72","city":"Hoogeveen","operatorName":"EQUANS","maxPowerKw":0,"isMegawatt":false,"status":"AVAILABLE","source":"ndw"}},{"type":"Feature","geometry":{"type":"Point","coordinates":[6.488192,52.712706]},"properties":{"type":"charge","layer":"passenger","locationId":"NLLOC009251","name":"NL, Begoniastraat 31, 7906 JA, Hoogeveen","address":"Begoniastraat 31","city":"Hoogeveen","operatorName":"Allego","maxPowerKw":0,"isMegawatt":false,"status":"CHARGING","source":"ndw","priceKwh":0.374}},{"type":"Feature","geometry":{"type":"Point","coordinates":[6.476572,52.72131]},"properties":{"type":"charge","layer":"passenger","locationId":"NLLOC007105","name":"NL, Reviusplein 71, 7901 EW, Hoogeveen","address":"Reviusplein 71","city":"Hoogeveen","operatorName":"Allego","maxPowerKw":0,"isMegawatt":false,"status":"AVAILABLE","source":"ndw","priceKwh":0.374}},{"type":"Feature","geometry":{"type":"Point","coordinates":[6.480251,52.7387]},"properties":{"type":"charge","layer":"passenger","locationId":"65f42713fe7947001cf8d83d","name":"Autoprofi Laadpunt 1","address":"A.G. Bellstraat 31b","city":"Hoogeveen","operatorName":"E-Flux by Road","maxPowerKw":22,"isMegawatt":false,"status":"AVAILABLE","source":"ndw","priceKwh":0.26}},{"type":"Feature","geometry":{"type":"Point","coordinates":[6.510861,52.733682]},"properties":{"type":"charge","layer":"passenger","locationId":"68d10beae69f2f65a27a2fdd","name":"Zonnebeek 1","address":"Parmentierstraat  2","city":"Hoogeveen","operatorName":"E-Flux by Road","maxPowerKw":22,"isMegawatt":false,"status":"AVAILABLE","source":"ndw","priceKwh":0.43}},{"type":"Feature","geometry":{"type":"Point","coordinates":[6.520159,52.739489]},"properties":{"type":"charge","layer":"passenger","locationId":"68e783b6f77beb6a7a55c7e1","name":"Zuidema Groep","address":"Smirnoffstraat 14","city":"Hoogeveen","operatorName":"E-Flux by Road","maxPowerKw":6,"isMegawatt":false,"status":"AVAILABLE","source":"ndw","priceKwh":0.21}},{"type":"Feature","geometry":{"type":"Point","coordinates":[6.4612,52.72431]},"properties":{"type":"charge","layer":"passenger","locationId":"91145189","name":"Equans Groningen Drenthe Boerhaaverhof 2","address":"Boerhaaverhof 2","city":"Hoogeveen","operatorName":"EQUANS","maxPowerKw":0,"isMegawatt":false,"status":"AVAILABLE","source":"ndw"}},{"type":"Feature","geometry":{"type":"Point","coordinates":[6.513889,52.710084]},"properties":{"type":"charge","layer":"passenger","locationId":"NLCPIL6937505","name":"FOURCE BV BUITENVAART 2","address":"1003 Buitenvaart","city":"Hoogeveen","operatorName":"ChargePoint","maxPowerKw":22,"isMegawatt":false,"status":"AVAILABLE","source":"ndw","priceKwh":0.5}},{"type":"Feature","geometry":{"type":"Point","coordinates":[6.512475,52.713111]},"properties":{"type":"charge","layer":"passenger","locationId":"922902","name":"DAE_NL_2000652","address":"Buitenvaart 1207","city":"Hoogeveen","operatorName":"DAEN Mobility","maxPowerKw":11,"isMegawatt":false,"status":"UNAVAILABLE","source":"ndw","priceKwh":0.45}},{"type":"Feature","geometry":{"type":"Point","coordinates":[6.45691,52.71653]},"properties":{"type":"charge","layer":"passenger","locationId":"91145207","name":"Equans Groningen Drenthe Schelde 84","address":"Schelde 84","city":"Hoogeveen","operatorName":"EQUANS","maxPowerKw":0,"isMegawatt":false,"status":"AVAILABLE","source":"ndw"}},{"type":"Feature","geometry":{"type":"Point","coordinates":[6.460845,52.720525]},"properties":{"type":"charge","layer":"passenger","locationId":"NLLOC005680","name":"NLD, Hoogeveen, Curiestraat 395","address":"Curiestraat 395","city":"Hoogeveen","operatorName":"Allego","maxPowerKw":0,"isMegawatt":false,"status":"AVAILABLE","source":"ndw","priceKwh":0.374}},{"type":"Feature","geometry":{"type":"Point","coordinates":[6.50604,52.720157]},"properties":{"type":"charge","layer":"passenger","locationId":"210e7572-69f4-455e-a2f2-b647a8c4930a","name":"bp pulse Zuid Oost","address":"Buizerdlaan 147","city":"Hoogeveen","operatorName":"bp pulse","maxPowerKw":150,"isMegawatt":false,"status":"AVAILABLE","source":"ndw","priceKwh":0.7}},{"type":"Feature","geometry":{"type":"Point","coordinates":[6.480251,52.7387]},"properties":{"type":"charge","layer":"passenger","locationId":"65f4280fbf6251001c6be941","name":"Autoprofi Laadpunt 2","address":"A.G. Bellstraat 31b","city":"Hoogeveen","operatorName":"E-Flux by Road","maxPowerKw":22,"isMegawatt":false,"status":"AVAILABLE","source":"ndw","priceKwh":0.26}},{"type":"Feature","geometry":{"type":"Point","coordinates":[6.573585,52.68204]},"properties":{"type":"charge","layer":"passenger","locationId":"91145191","name":"Equans Groningen Drenthe Carstenswijk 21","address":"Carstenswijk 21","city":"Elim","operatorName":"EQUANS","maxPowerKw":0,"isMegawatt":false,"status":"AVAILABLE","source":"ndw"}},{"type":"Feature","geometry":{"type":"Point","coordinates":[6.44686,52.70999]},"properties":{"type":"charge","layer":"passenger","locationId":"91145562","name":"Equans Groningen Drenthe Citroenvlinder 1","address":"Citroenvlinder 1","city":"Hoogeveen","operatorName":"EQUANS","maxPowerKw":0,"isMegawatt":false,"status":"CHARGING","source":"ndw"}},{"type":"Feature","geometry":{"type":"Point","coordinates":[6.44876,52.72254]},"properties":{"type":"charge","layer":"passenger","locationId":"91145196","name":"Equans Groningen Drenthe Klaverkamp 6","address":"Klaverkamp 6","city":"Hoogeveen","operatorName":"EQUANS","maxPowerKw":0,"isMegawatt":false,"status":"AVAILABLE","source":"ndw"}},{"type":"Feature","geometry":{"type":"Point","coordinates":[6.491099,52.716755]},"properties":{"type":"charge","layer":"passenger","locationId":"NLLOC005588","name":"NLD, Hoogeveen, Tamboerlaan 16","address":"Tamboerlaan 16","city":"Hoogeveen","operatorName":"Allego","maxPowerKw":0,"isMegawatt":false,"status":"AVAILABLE","source":"ndw","priceKwh":0.374}},{"type":"Feature","geometry":{"type":"Point","coordinates":[6.481147,52.716832]},"properties":{"type":"charge","layer":"passenger","locationId":"67ebf97d1afaa1419dba6f29","name":"Bosch Car Service van der Weide","address":"Tamboerlaan 1","city":"Hoogeveen","operatorName":"E-Flux by Road","maxPowerKw":22,"isMegawatt":false,"status":"AVAILABLE","source":"ndw","priceKwh":0.4876}},{"type":"Feature","geometry":{"type":"Point","coordinates":[6.510861,52.733682]},"properties":{"type":"charge","layer":"passenger","locationId":"68d10c76b358620fbe905f21","name":"Zonnebeek 2","address":"Parmentierstraat  2","city":"Hoogeveen","operatorName":"E-Flux by Road","maxPowerKw":22,"isMegawatt":false,"status":"AVAILABLE","source":"ndw","priceKwh":0.43}},{"type":"Feature","geometry":{"type":"Point","coordinates":[6.511431,52.733771]},"properties":{"type":"charge","layer":"passenger","locationId":"68d10a413cee66a2f4553b4c","name":"De Parmentier","address":"Parmentierstraat  2e","city":"Hoogeveen","operatorName":"E-Flux by Road","maxPowerKw":22,"isMegawatt":false,"status":"AVAILABLE","source":"ndw","priceKwh":0.43}},{"type":"Feature","geometry":{"type":"Point","coordinates":[6.446764,52.709306]},"properties":{"type":"charge","layer":"passenger","locationId":"NLLOC021149","name":"NL, Citroenvlinder 57 7908 XN Hoogeveen","address":"Citroenvlinder 57","city":"Hoogeveen","operatorName":"Allego","maxPowerKw":0,"isMegawatt":false,"status":"CHARGING","source":"ndw","priceKwh":0.374}},{"type":"Feature","geometry":{"type":"Point","coordinates":[6.505676,52.729667]},"properties":{"type":"charge","layer":"passenger","locationId":"61dc3996ece09673172d8c62","name":"Parkeerplaats Klaas","address":"Stephensonstraat 3","city":"Hoogeveen","operatorName":"E-Flux by Road","maxPowerKw":22,"isMegawatt":false,"status":"AVAILABLE","source":"ndw"}},{"type":"Feature","geometry":{"type":"Point","coordinates":[6.467497,52.719055]},"properties":{"type":"charge","layer":"passenger","locationId":"64915bf06b4d32001c4ded7f","name":"LadenBijKlok","address":"Schutstraat  191","city":"Hoogeveen","operatorName":"E-Flux by Road","maxPowerKw":22,"isMegawatt":false,"status":"AVAILABLE","source":"ndw","priceKwh":0.45}},{"type":"Feature","geometry":{"type":"Point","coordinates":[6.485413,52.723635]},"properties":{"type":"charge","layer":"passenger","locationId":"91145202","name":"Equans Groningen Drenthe Jan Dekkerstraat 59","address":"Jan Dekkerstraat 59","city":"Hoogeveen","operatorName":"EQUANS","maxPowerKw":0,"isMegawatt":false,"status":"AVAILABLE","source":"ndw"}},{"type":"Feature","geometry":{"type":"Point","coordinates":[6.50222,52.71611]},"properties":{"type":"charge","layer":"passenger","locationId":"91209366","name":"Equans Groningen Drenthe Leeuweriklaan 50","address":"Leeuweriklaan 50","city":"Hoogeveen","operatorName":"EQUANS","maxPowerKw":0,"isMegawatt":false,"status":"AVAILABLE","source":"ndw"}},{"type":"Feature","geometry":{"type":"Point","coordinates":[6.501344,52.718992]},"properties":{"type":"charge","layer":"passenger","locationId":"NLLOC012035","name":"NL, De Fazant 41, 7905HB, Hoogeveen","address":"De Fazant 41","city":"Hoogeveen","operatorName":"Allego","maxPowerKw":0,"isMegawatt":false,"status":"AVAILABLE","source":"ndw","priceKwh":0.374}},{"type":"Feature","geometry":{"type":"Point","coordinates":[6.513207,52.711127]},"properties":{"type":"charge","layer":"passenger","locationId":"AA2EC0A2-0F73-48EB-A36F-ACA34E2DE1BD","name":"Eneco eMobility Visser & Smit Hanab Distributie BV - Hoogeveen","address":"Buitenvaart 1201","city":"Hoogeveen","operatorName":"Eneco","maxPowerKw":11,"isMegawatt":false,"status":"UNAVAILABLE","source":"ndw","priceKwh":0.33}},{"type":"Feature","geometry":{"type":"Point","coordinates":[6.44826,52.70848]},"properties":{"type":"charge","layer":"passenger","locationId":"91422057","name":"Equans Groningen Drenthe Koningspage 82","address":"Koningspage 82","city":"Hoogeveen","operatorName":"EQUANS","maxPowerKw":0,"isMegawatt":false,"status":"CHARGING","source":"ndw"}},{"type":"Feature","geometry":{"type":"Point","coordinates":[6.50053,52.72637]},"properties":{"type":"charge","layer":"passenger","locationId":"91204007","name":"Equans Groningen Drenthe Terpweg 2","address":"Terpweg 2","city":"Hoogeveen","operatorName":"EQUANS","maxPowerKw":0,"isMegawatt":false,"status":"AVAILABLE","source":"ndw"}},{"type":"Feature","geometry":{"type":"Point","coordinates":[6.512475,52.713111]},"properties":{"type":"charge","layer":"passenger","locationId":"922958","name":"DAE_NL_2000775","address":"Buitenvaart 1207","city":"Hoogeveen","operatorName":"DAEN Mobility","maxPowerKw":11,"isMegawatt":false,"status":"UNAVAILABLE","source":"ndw","priceKwh":0.45}},{"type":"Feature","geometry":{"type":"Point","coordinates":[6.469555,52.71847]},"properties":{"type":"charge","layer":"passenger","locationId":"NLLOC011239","name":"NL, Oldenbandringhstraat 7, 7907CT, Hoogeveen","address":"Oldenbandringhstraat 7","city":"Hoogeveen","operatorName":"Allego","maxPowerKw":0,"isMegawatt":false,"status":"AVAILABLE","source":"ndw","priceKwh":0.374}},{"type":"Feature","geometry":{"type":"Point","coordinates":[6.609846,52.695839]},"properties":{"type":"charge","layer":"passenger","locationId":"91145561","name":"Equans Groningen Drenthe Akkerweg 28","address":"Akkerweg 28","city":"Nieuwlande","operatorName":"EQUANS","maxPowerKw":0,"isMegawatt":false,"status":"AVAILABLE","source":"ndw"}},{"type":"Feature","geometry":{"type":"Point","coordinates":[6.46946,52.72338]},"properties":{"type":"charge","layer":"passenger","locationId":"91145198","name":"Equans Groningen Drenthe van der Helststraat 3","address":"van der Helststraat 3","city":"Hoogeveen","operatorName":"EQUANS","maxPowerKw":0,"isMegawatt":false,"status":"AVAILABLE","source":"ndw"}},{"type":"Feature","geometry":{"type":"Point","coordinates":[6.474866,52.72616]},"properties":{"type":"charge","layer":"passenger","locationId":"91155582","name":"Equans Groningen Drenthe Raadhuisplein 1","address":"Raadhuisplein 1","city":"Hoogeveen","operatorName":"EQUANS","maxPowerKw":0,"isMegawatt":false,"status":"AVAILABLE","source":"ndw"}},{"type":"Feature","geometry":{"type":"Point","coordinates":[6.455692,52.769624]},"properties":{"type":"charge","layer":"passenger","locationId":"NLLOC012488","name":"NL, Stijgbeugel 3, 7933TE, Pesse","address":"Stijgbeugel 3","city":"Pesse","operatorName":"Allego","maxPowerKw":0,"isMegawatt":false,"status":"AVAILABLE","source":"ndw","priceKwh":0.374}},{"type":"Feature","geometry":{"type":"Point","coordinates":[6.451028,52.719312]},"properties":{"type":"charge","layer":"passenger","locationId":"NLLOC014195","name":"NL, De Weide 4, 7908AB, Hoogeveen","address":"de Weide 4","city":"Hoogeveen","operatorName":"Allego","maxPowerKw":0,"isMegawatt":false,"status":"AVAILABLE","source":"ndw","priceKwh":0.374}},{"type":"Feature","geometry":{"type":"Point","coordinates":[6.537105,52.722881]},"properties":{"type":"charge","layer":"passenger","locationId":"NLLOC009429","name":"NL, Jan Naardingweg 4, 7914 PM Noordscheschut","address":"Jan Naardingweg 4","city":"Noordscheschut","operatorName":"Allego","maxPowerKw":0,"isMegawatt":false,"status":"CHARGING","source":"ndw","priceKwh":0.374}},{"type":"Feature","geometry":{"type":"Point","coordinates":[6.50353,52.73137]},"properties":{"type":"charge","layer":"passenger","locationId":"A4774F42-F167-45C0-BE86-B18E63E387D0","name":"Eneco eMobility Terwolde Renault Hoogeveen","address":"Edisonstraat 24","city":"Hoogeveen","operatorName":"Eneco","maxPowerKw":22,"isMegawatt":false,"status":"AVAILABLE","source":"ndw","priceKwh":0.36}},{"type":"Feature","geometry":{"type":"Point","coordinates":[6.418321,52.72309]},"properties":{"type":"charge","layer":"passenger","locationId":"6807afe55dd77a0e99344911","name":"Boerenlodge 't Vennetje","address":"Fluitenbergseweg 93","city":"Fluitenberg","operatorName":"E-Flux by Road","maxPowerKw":11,"isMegawatt":false,"status":"CHARGING","source":"ndw","priceKwh":0.53}},{"type":"Feature","geometry":{"type":"Point","coordinates":[6.50954,52.73493]},"properties":{"type":"charge","layer":"passenger","locationId":"11B907BF-F8D4-4BA8-AE54-A5EF82C2A1C5","name":"Eneco eMobility Europaweg 8A, Hoogeveen","address":"Europaweg 8A","city":"Hoogeveen","operatorName":"Eneco","maxPowerKw":22,"isMegawatt":false,"status":"AVAILABLE","source":"ndw","priceKwh":0.32}},{"type":"Feature","geometry":{"type":"Point","coordinates":[6.464356,52.712135]},"properties":{"type":"charge","layer":"passenger","locationId":"91145522","name":"Equans Groningen Drenthe Eikenlaan 86","address":"Eikenlaan 86","city":"Hoogeveen","operatorName":"EQUANS","maxPowerKw":0,"isMegawatt":false,"status":"AVAILABLE","source":"ndw"}},{"type":"Feature","geometry":{"type":"Point","coordinates":[6.48006,52.734848]},"properties":{"type":"charge","layer":"passenger","locationId":"66978548214ecf001c86c778","name":"Roelof van Echten College","address":"Voltastraat 27","city":"Hoogeveen","operatorName":"Pluq","maxPowerKw":22,"isMegawatt":false,"status":"AVAILABLE","source":"ndw","priceKwh":0.4}},{"type":"Feature","geometry":{"type":"Point","coordinates":[6.441416,52.72191]},"properties":{"type":"charge","layer":"passenger","locationId":"91145170","name":"Equans Groningen Drenthe Kalmoes 1","address":"Kalmoes 1","city":"Hoogeveen","operatorName":"EQUANS","maxPowerKw":0,"isMegawatt":false,"status":"AVAILABLE","source":"ndw"}},{"type":"Feature","geometry":{"type":"Point","coordinates":[6.450412,52.718907]},"properties":{"type":"charge","layer":"passenger","locationId":"91220488","name":"Equans Groningen Drenthe De Zaaier 100","address":"De Zaaier 100","city":"Hoogeveen","operatorName":"EQUANS","maxPowerKw":0,"isMegawatt":false,"status":"AVAILABLE","source":"ndw"}},{"type":"Feature","geometry":{"type":"Point","coordinates":[6.511949,52.721768]},"properties":{"type":"charge","layer":"passenger","locationId":"NLLOC013395","name":"NL, Neptunus 1, 7904GD, Hoogeveen","address":"Neptunus 1","city":"Hoogeveen","operatorName":"Allego","maxPowerKw":0,"isMegawatt":false,"status":"AVAILABLE","source":"ndw","priceKwh":0.374}},{"type":"Feature","geometry":{"type":"Point","coordinates":[6.461739,52.719881]},"properties":{"type":"charge","layer":"passenger","locationId":"66976e2f214ecf001c860258","name":"Hotel Yume Hoogeveen","address":"Mathijsenstraat 1","city":"Hoogeveen","operatorName":"Pluq","maxPowerKw":22,"isMegawatt":false,"status":"AVAILABLE","source":"ndw","priceKwh":0.35}},{"type":"Feature","geometry":{"type":"Point","coordinates":[6.442508,52.720323]},"properties":{"type":"charge","layer":"passenger","locationId":"91145536","name":"Equans Groningen Drenthe Tilber 7","address":"Tilber 7","city":"Hoogeveen","operatorName":"EQUANS","maxPowerKw":0,"isMegawatt":false,"status":"AVAILABLE","source":"ndw"}},{"type":"Feature","geometry":{"type":"Point","coordinates":[6.467558,52.719055]},"properties":{"type":"charge","layer":"passenger","locationId":"6491546e01377b001c308a4b","name":"LadenBijKlok","address":"Schutstraat  191","city":"Hoogeveen","operatorName":"E-Flux by Road","maxPowerKw":22,"isMegawatt":false,"status":"AVAILABLE","source":"ndw","priceKwh":0.45}},{"type":"Feature","geometry":{"type":"Point","coordinates":[6.479127,52.729831]},"properties":{"type":"charge","layer":"passenger","locationId":"91145533","name":"Equans Groningen Drenthe Prins Mauritsplein 50","address":"Prins Mauritsplein 50","city":"Hoogeveen","operatorName":"EQUANS","maxPowerKw":0,"isMegawatt":false,"status":"AVAILABLE","source":"ndw"}},{"type":"Feature","geometry":{"type":"Point","coordinates":[6.473562,52.721127]},"properties":{"type":"charge","layer":"passenger","locationId":"91145535","name":"Equans Groningen Drenthe Da Costastraat 110","address":"Da Costastraat 110","city":"Hoogeveen","operatorName":"EQUANS","maxPowerKw":0,"isMegawatt":false,"status":"AVAILABLE","source":"ndw"}},{"type":"Feature","geometry":{"type":"Point","coordinates":[6.4431,52.71358]},"properties":{"type":"charge","layer":"passenger","locationId":"91145193","name":"Equans Groningen Drenthe De Waring 27","address":"De Waring 27","city":"Hoogeveen","operatorName":"EQUANS","maxPowerKw":0,"isMegawatt":false,"status":"AVAILABLE","source":"ndw"}},{"type":"Feature","geometry":{"type":"Point","coordinates":[6.45969,52.72144]},"properties":{"type":"charge","layer":"passenger","locationId":"91145179","name":"Equans Groningen Drenthe Schweitzerstraat 23","address":"Schweitzerstraat 23","city":"Hoogeveen","operatorName":"EQUANS","maxPowerKw":0,"isMegawatt":false,"status":"AVAILABLE","source":"ndw"}},{"type":"Feature","geometry":{"type":"Point","coordinates":[6.444663,52.774272]},"properties":{"type":"charge","layer":"passenger","locationId":"668d148a262ad1001c496dd9","name":"Green Planet Slim Laden","address":"Bultinge 2","city":"Pesse","operatorName":"Green Planet Pesse BV","maxPowerKw":50,"isMegawatt":false,"status":"AVAILABLE","source":"ndw","priceKwh":0.67}},{"type":"Feature","geometry":{"type":"Point","coordinates":[6.498035,52.717236]},"properties":{"type":"charge","layer":"passenger","locationId":"91145201","name":"Equans Groningen Drenthe De Wielewaal 2","address":"De Wielewaal 2","city":"Hoogeveen","operatorName":"EQUANS","maxPowerKw":0,"isMegawatt":false,"status":"AVAILABLE","source":"ndw"}},{"type":"Feature","geometry":{"type":"Point","coordinates":[6.452386,52.735815]},"properties":{"type":"charge","layer":"passenger","locationId":"91145247","name":"Equans Groningen Drenthe Driehoekskamp 9","address":"Driehoekskamp 9","city":"Fluitenberg","operatorName":"EQUANS","maxPowerKw":0,"isMegawatt":false,"status":"AVAILABLE","source":"ndw"}},{"type":"Feature","geometry":{"type":"Point","coordinates":[6.517013,52.724955]},"properties":{"type":"charge","layer":"passenger","locationId":"NLLOC006017","name":"NL, Spica 14, 7904 KH, Hoogeveen","address":"Spica 14","city":"Hoogeveen","operatorName":"Allego","maxPowerKw":0,"isMegawatt":false,"status":"AVAILABLE","source":"ndw","priceKwh":0.374}},{"type":"Feature","geometry":{"type":"Point","coordinates":[6.514901,52.728664]},"properties":{"type":"charge","layer":"passenger","locationId":"923057","name":"Akupanel_DAE_NL_2000835","address":"Nobelstraat 2","city":"Hoogeveen","operatorName":"DAEN Mobility","maxPowerKw":11,"isMegawatt":false,"status":"AVAILABLE","source":"ndw","priceKwh":0.54}},{"type":"Feature","geometry":{"type":"Point","coordinates":[6.580372,52.682391]},"properties":{"type":"charge","layer":"passenger","locationId":"91145532","name":"Equans Groningen Drenthe Dorpstraat 216","address":"Dorpstraat 216","city":"Elim","operatorName":"EQUANS","maxPowerKw":0,"isMegawatt":false,"status":"AVAILABLE","source":"ndw"}},{"type":"Feature","geometry":{"type":"Point","coordinates":[6.532315,52.72327]},"properties":{"type":"charge","layer":"passenger","locationId":"91145197","name":"Equans Groningen Drenthe De Vijzel 21","address":"De Vijzel 21","city":"Noordscheschut","operatorName":"EQUANS","maxPowerKw":0,"isMegawatt":false,"status":"AVAILABLE","source":"ndw"}},{"type":"Feature","geometry":{"type":"Point","coordinates":[6.475578,52.719543]},"properties":{"type":"charge","layer":"passenger","locationId":"NLLOC005449","name":"NLD, Hoogeveen, Schutsplein 22","address":"Schutsplein 22","city":"Hoogeveen","operatorName":"Allego","maxPowerKw":0,"isMegawatt":false,"status":"AVAILABLE","source":"ndw","priceKwh":0.374}},{"type":"Feature","geometry":{"type":"Point","coordinates":[6.48616,52.718295]},"properties":{"type":"charge","layer":"passenger","locationId":"91145531","name":"Equans Groningen Drenthe Den Bestenstraat 24","address":"Den Bestenstraat 24","city":"Hoogeveen","operatorName":"EQUANS","maxPowerKw":0,"isMegawatt":false,"status":"AVAILABLE","source":"ndw"}},{"type":"Feature","geometry":{"type":"Point","coordinates":[6.497885,52.713]},"properties":{"type":"charge","layer":"passenger","locationId":"91145192","name":"Equans Groningen Drenthe De Grutto 4","address":"De Grutto 4","city":"Hoogeveen","operatorName":"EQUANS","maxPowerKw":0,"isMegawatt":false,"status":"AVAILABLE","source":"ndw"}},{"type":"Feature","geometry":{"type":"Point","coordinates":[6.50423,52.73447]},"properties":{"type":"charge","layer":"passenger","locationId":"1040648B-5183-4B76-8CF0-C56C8EA259D9","name":"Eneco eMobility Edisonstraat 1 Hoogeveen","address":"Edisonstraat 1","city":"Hoogeveen","operatorName":"Eneco","maxPowerKw":22,"isMegawatt":false,"status":"AVAILABLE","source":"ndw","priceKwh":0.32}},{"type":"Feature","geometry":{"type":"Point","coordinates":[6.516091,52.721442]},"properties":{"type":"charge","layer":"passenger","locationId":"91145194","name":"Equans Groningen Drenthe Atlaslaan 67","address":"Atlaslaan 67","city":"Hoogeveen","operatorName":"EQUANS","maxPowerKw":0,"isMegawatt":false,"status":"AVAILABLE","source":"ndw"}},{"type":"Feature","geometry":{"type":"Point","coordinates":[6.572674,52.699365]},"properties":{"type":"charge","layer":"passenger","locationId":"91145442","name":"Equans Groningen Drenthe Marten Kuilerweg 47","address":"Marten Kuilerweg 47","city":"Hollandscheveld","operatorName":"EQUANS","maxPowerKw":0,"isMegawatt":false,"status":"AVAILABLE","source":"ndw"}},{"type":"Feature","geometry":{"type":"Point","coordinates":[6.48294,52.71339]},"properties":{"type":"charge","layer":"passenger","locationId":"91145203","name":"Equans Groningen Drenthe Veenluydenstraat 177","address":"Veenluydenstraat 177","city":"Hoogeveen","operatorName":"EQUANS","maxPowerKw":0,"isMegawatt":false,"status":"AVAILABLE","source":"ndw"}},{"type":"Feature","geometry":{"type":"Point","coordinates":[6.510801,52.734567]},"properties":{"type":"charge","layer":"passenger","locationId":"628b89ca6d42675ce2783138","name":"Auto Ruyne paal 1","address":"Parmentierstraat 3","city":"Hoogeveen","operatorName":"E-Flux by Road","maxPowerKw":22,"isMegawatt":false,"status":"AVAILABLE","source":"ndw","priceKwh":0.83}},{"type":"Feature","geometry":{"type":"Point","coordinates":[6.513013,52.710212]},"properties":{"type":"charge","layer":"passenger","locationId":"NLCPIL6887255","name":"FOURCE BV BUITENVAART 1","address":"1003 Buitenvaart","city":"Hoogeveen","operatorName":"ChargePoint","maxPowerKw":22,"isMegawatt":false,"status":"AVAILABLE","source":"ndw","priceKwh":0.5}},{"type":"Feature","geometry":{"type":"Point","coordinates":[6.564439,52.761582]},"properties":{"type":"charge","layer":"passenger","locationId":"669793a693db13001cb07e9a","name":"Golfbaan Martensplek","address":"Haarweg 22","city":"Tiendeveen","operatorName":"Pluq","maxPowerKw":22,"isMegawatt":false,"status":"AVAILABLE","source":"ndw","priceKwh":0.34}},{"type":"Feature","geometry":{"type":"Point","coordinates":[6.47929,52.719352]},"properties":{"type":"charge","layer":"passenger","locationId":"91145200","name":"Equans Groningen Drenthe Beukemaplein 21","address":"Beukemaplein 21","city":"Hoogeveen","operatorName":"EQUANS","maxPowerKw":0,"isMegawatt":false,"status":"CHARGING","source":"ndw"}},{"type":"Feature","geometry":{"type":"MultiPolygon","coordinates":[[[[6.503364850666767,52.769346510132834],[6.505539244141475,52.76807475427975],[6.507904489182101,52.76884759775812],[6.512792868240242,52.76210093672284],[6.5353676363393065,52.768104680195684],[6.537521198528686,52.76523458849797],[6.566277700908759,52.765577230748875],[6.5624301987263305,52.75669477422569],[6.557578067338626,52.745350322808115],[6.5596615964894225,52.74506558907567],[6.57078010634909,52.740793327587006],[6.573220091999722,52.73985798915379],[6.574036849975984,52.74052354913723],[6.5758658874767715,52.73981245195839],[6.587468112292653,52.73569003412634],[6.576822074341797,52.72555590091345],[6.576429321001488,52.72426590470817],[6.5967801261953545,52.72354687377208],[6.595795642498122,52.71321794550715],[6.607196350540804,52.71276107270059],[6.629938110469702,52.71272233611637],[6.628842953104356,52.69641517153306],[6.630390365397725,52.69061620904222],[6.632413300985521,52.68672994119033],[6.632095906386509,52.68096164754953],[6.632125574000066,52.67865931231395],[6.631768477771051,52.673872790936265],[6.629453980436505,52.66968831206108],[6.614527582931659,52.674049345569415],[6.612980921468444,52.67383835971611],[6.6038016103272525,52.672585421702934],[6.581020163221832,52.66946873296055],[6.5528220938601365,52.665595090193115],[6.547746583432732,52.663971498081146],[6.529381286033439,52.65450748745323],[6.530069774313886,52.66461560163065],[6.530556459626456,52.67247253186602],[6.502418455205732,52.673460221268826],[6.499552302081673,52.67355424817961],[6.499774465135505,52.67564309312352],[6.492574310144654,52.675971066753725],[6.492926428207994,52.683587145510046],[6.484852409847497,52.68424595287974],[6.485980794755623,52.69363296333683],[6.474699486759672,52.6942078171311],[6.463319764329775,52.693307942194096],[6.462814855130304,52.695203220320224],[6.448676832681408,52.69378793918707],[6.451311852475411,52.699406068268075],[6.4498759316452325,52.70527513840426],[6.4511418357112,52.70698191624773],[6.435646815847246,52.70609635747476],[6.426518746577685,52.704778873555455],[6.41966595390628,52.70165581154709],[6.416222143513548,52.70346418997633],[6.407167614926508,52.70679594768349],[6.4047496581249455,52.704675719299935],[6.40359885007126,52.705999233986304],[6.404726211707562,52.70912159245796],[6.405588777360517,52.71258327909535],[6.407176145572235,52.713824901944996],[6.409933613154436,52.71429574655698],[6.413202851734348,52.716209210607154],[6.414365027503498,52.71726158909148],[6.414195643070346,52.71940473946807],[6.414636840949637,52.720220766737356],[6.413246630324442,52.720560960811426],[6.406802379280176,52.72841044043184],[6.421325358984182,52.73141563895565],[6.415406598718258,52.74083373112668],[6.423192409124893,52.743000445118255],[6.422461416180025,52.7451394740714],[6.420522714858622,52.74822738445245],[6.426285496087128,52.751423024018976],[6.419402923488648,52.75599457618409],[6.416144296636615,52.7553175009574],[6.410139807140729,52.76488742361612],[6.413890528484057,52.76605982351704],[6.431523412721439,52.76862394744092],[6.436458564598503,52.770398834345364],[6.440598033703746,52.77291374206489],[6.442976485382819,52.774485824368526],[6.446152100239241,52.776095779338235],[6.446214090702033,52.77772822210601],[6.4464904569088075,52.781542254095676],[6.446920075219792,52.78588962185603],[6.449733837531495,52.79276384235727],[6.455450486012235,52.80055695357613],[6.478490632718518,52.79584826147475],[6.491804904714716,52.79312376091905],[6.496164144293279,52.78622509349159],[6.490847960302805,52.77088374640035],[6.503364850666767,52.769346510132834]]]]},"properties":{"type":"boundary","gemeente":"Hoogeveen","code":"GM0118"}}]}