{"type":"FeatureCollection","metadata":{"gemeente":"Hoorn","slug":"hoorn","code":"GM0405","generated_at":"2026-06-07T19:22:09.578Z","total_passenger":249,"total_freight":0,"bounds":[5.013535177285101,52.62991912553804,5.119413074866138,52.68436548296817],"operators":["Allego","E-Flux by Road","Eneco","Laadnet","Lidl","PureCharged","Tesla","TotalEnergies","Ubitricity","Vattenfall","Vattenfall InCharge","bp pulse"]},"features":[{"type":"Feature","geometry":{"type":"Point","coordinates":[5.090917,52.664497]},"properties":{"type":"charge","layer":"passenger","locationId":"6a1e941ca831756c289fcf54","name":"Flora 25 station","address":"Florastraat 25","city":"Blokker","operatorName":"E-Flux by Road","maxPowerKw":7,"isMegawatt":false,"status":"AVAILABLE","source":"ndw","priceKwh":0.58}},{"type":"Feature","geometry":{"type":"Point","coordinates":[5.091488,52.672276]},"properties":{"type":"charge","layer":"passenger","locationId":"2a30864c-fe3d-11ea-b9b8-42010a840fd8","name":"PP005470","address":"Meetketting 25","city":"Zwaag","operatorName":"TotalEnergies","maxPowerKw":0,"isMegawatt":false,"status":"AVAILABLE","source":"ndw","priceKwh":0.4}},{"type":"Feature","geometry":{"type":"Point","coordinates":[5.050959,52.642357]},"properties":{"type":"charge","layer":"passenger","locationId":"b01e9bb4-00bb-11ec-9925-42010a84001a","name":"TNLP006414","address":"Lambert Meliszweg 2","city":"Hoorn","operatorName":"TotalEnergies","maxPowerKw":17,"isMegawatt":false,"status":"UNAVAILABLE","source":"ndw","priceKwh":0.4}},{"type":"Feature","geometry":{"type":"Point","coordinates":[5.08816,52.66862]},"properties":{"type":"charge","layer":"passenger","locationId":"961","name":"Shell Recharge NL Hoge Weere 29","address":"Hoge Weere 29","city":"Hoorn","operatorName":"Ubitricity","maxPowerKw":22,"isMegawatt":false,"status":"CHARGING","source":"ndw","priceKwh":0.266}},{"type":"Feature","geometry":{"type":"Point","coordinates":[5.06201,52.64378]},"properties":{"type":"charge","layer":"passenger","locationId":"6b2805ac-d547-11ec-a5ff-42010a840003","name":"Shell Recharge NL Eikstraat 2 Hoorn","address":"Eikstraat 2","city":"Hoorn","operatorName":"Ubitricity","maxPowerKw":11,"isMegawatt":false,"status":"AVAILABLE","source":"ndw","priceKwh":0.39}},{"type":"Feature","geometry":{"type":"Point","coordinates":[5.06215,52.6393]},"properties":{"type":"charge","layer":"passenger","locationId":"a27bf986-4f3c-11e8-82c0-42010a840002","name":"Shell Recharge NL Bottelsteeg 4 Hoorn","address":"Bottelsteeg 4","city":"Hoorn","operatorName":"Ubitricity","maxPowerKw":11,"isMegawatt":false,"status":"AVAILABLE","source":"ndw","priceKwh":0.39}},{"type":"Feature","geometry":{"type":"Point","coordinates":[5.06582,52.6396]},"properties":{"type":"charge","layer":"passenger","locationId":"a6bf822e-4f3c-11e8-8f76-42010a840002","name":"Shell Recharge NL Slapershaven 5 Hoorn","address":"Slapershaven 5","city":"Hoorn","operatorName":"Ubitricity","maxPowerKw":11,"isMegawatt":false,"status":"AVAILABLE","source":"ndw","priceKwh":0.39}},{"type":"Feature","geometry":{"type":"Point","coordinates":[5.02963,52.6372]},"properties":{"type":"charge","layer":"passenger","locationId":"f79eb16a-996e-11e9-97e7-42010a84002f","name":"Shell Recharge NL Houtzaagmolen 177 Hoorn","address":"Houtzaagmolen 177","city":"Hoorn","operatorName":"Ubitricity","maxPowerKw":11,"isMegawatt":false,"status":"AVAILABLE","source":"ndw","priceKwh":0.39}},{"type":"Feature","geometry":{"type":"Point","coordinates":[5.049413,52.644939]},"properties":{"type":"charge","layer":"passenger","locationId":"3a7d985e-77f4-11ed-b088-42010aa40fc0","name":"bp pulse De Keern","address":"Keern 17","city":"Hoorn","operatorName":"bp pulse","maxPowerKw":150,"isMegawatt":false,"status":"AVAILABLE","source":"ndw","priceKwh":0.7}},{"type":"Feature","geometry":{"type":"Point","coordinates":[5.049413,52.644939]},"properties":{"type":"charge","layer":"passenger","locationId":"38413790-6c24-452d-86a5-4b37eadabd4d","name":"bp pulse De Keern","address":"Keern 17","city":"Hoorn","operatorName":"bp pulse","maxPowerKw":150,"isMegawatt":false,"status":"AVAILABLE","source":"ndw","priceKwh":0.7}},{"type":"Feature","geometry":{"type":"Point","coordinates":[5.05149,52.64499]},"properties":{"type":"charge","layer":"passenger","locationId":"c3f7477a-5499-11ed-af5d-42010aa40024","name":"Eneco eMobility ING Bank NV - Stationsweg 5","address":"Stationsweg 5","city":"Hoorn","operatorName":"Eneco","maxPowerKw":0,"isMegawatt":false,"status":"AVAILABLE","source":"ndw","priceKwh":0.3}},{"type":"Feature","geometry":{"type":"Point","coordinates":[5.052834,52.644593]},"properties":{"type":"charge","layer":"passenger","locationId":"2f27d5f2-1e09-11ef-808f-42010aa400b8","name":"TNLP008303","address":"Noorderveemarkt 3","city":"Hoorn","operatorName":"TotalEnergies","maxPowerKw":14,"isMegawatt":false,"status":"UNAVAILABLE","source":"ndw","priceKwh":0.4}},{"type":"Feature","geometry":{"type":"Point","coordinates":[5.091947,52.666106]},"properties":{"type":"charge","layer":"passenger","locationId":"67fcc6e4b2d4acff0596a3bd","name":"Jeroen Meijer 's station","address":"Corry van Kleefstraat 76","city":"Blokker","operatorName":"E-Flux by Road","maxPowerKw":22,"isMegawatt":false,"status":"AVAILABLE","source":"ndw","priceKwh":0.53}},{"type":"Feature","geometry":{"type":"Point","coordinates":[5.06522,52.64461]},"properties":{"type":"charge","layer":"passenger","locationId":"5205e900-8f31-11e8-970e-42010a840002","name":"Shell Recharge NL Eikstraat 36 Hoorn","address":"Eikstraat 36","city":"Hoorn","operatorName":"Ubitricity","maxPowerKw":11,"isMegawatt":false,"status":"AVAILABLE","source":"ndw","priceKwh":0.39}},{"type":"Feature","geometry":{"type":"Point","coordinates":[5.055033,52.6568]},"properties":{"type":"charge","layer":"passenger","locationId":"8273020e-9000-11ef-8c3c-42010aa400b8","name":"Shell Recharge NL De Huesmolen, 209 Hoorn","address":"De Huesmolen 209","city":"Hoorn","operatorName":"Ubitricity","maxPowerKw":22,"isMegawatt":false,"status":"AVAILABLE","source":"ndw","priceKwh":0.29}},{"type":"Feature","geometry":{"type":"Point","coordinates":[5.08146,52.66698]},"properties":{"type":"charge","layer":"passenger","locationId":"9bd33998-0ce5-11e9-a037-42010a840004","name":"Shell Recharge NL Krommewoud 1 Zwaag","address":"Krommewoud 1","city":"Zwaag","operatorName":"Ubitricity","maxPowerKw":11,"isMegawatt":false,"status":"AVAILABLE","source":"ndw","priceKwh":0.39}},{"type":"Feature","geometry":{"type":"Point","coordinates":[5.04392,52.645179]},"properties":{"type":"charge","layer":"passenger","locationId":"60b9bf16e0c231fe3a05f720","name":"Werksaam WF","address":"Dampten 26","city":"Hoorn","operatorName":"E-Flux by Road","maxPowerKw":11,"isMegawatt":false,"status":"AVAILABLE","source":"ndw","priceKwh":0.21}},{"type":"Feature","geometry":{"type":"Point","coordinates":[5.055971,52.655364]},"properties":{"type":"charge","layer":"passenger","locationId":"6597caf6-ba12-11eb-b8fc-42010a840019","name":"TNLP006167","address":"Karos 36","city":"Hoorn","operatorName":"TotalEnergies","maxPowerKw":17,"isMegawatt":false,"status":"UNAVAILABLE","source":"ndw","priceKwh":0.4}},{"type":"Feature","geometry":{"type":"Point","coordinates":[5.039293,52.664164]},"properties":{"type":"charge","layer":"passenger","locationId":"85dd1c54-bf26-11ef-8824-42010aa400b8","name":"Shell Recharge NL Hoefijzer 112, Hoorn","address":"Hoefijzer 112","city":"Hoorn","operatorName":"Ubitricity","maxPowerKw":22,"isMegawatt":false,"status":"AVAILABLE","source":"ndw","priceKwh":0.29}},{"type":"Feature","geometry":{"type":"Point","coordinates":[5.072088,52.66526]},"properties":{"type":"charge","layer":"passenger","locationId":"baad6554-6fc8-11ef-8ea8-42010aa400b8","name":"Shell Recharge NL Fruitlaan 99, Hoorn","address":"Fruitlaan 99","city":"Hoorn","operatorName":"Ubitricity","maxPowerKw":22,"isMegawatt":false,"status":"AVAILABLE","source":"ndw","priceKwh":0.29}},{"type":"Feature","geometry":{"type":"Point","coordinates":[5.09217,52.65536]},"properties":{"type":"charge","layer":"passenger","locationId":"06ba4c87b6b19892d16f8a8b55d463cb","name":"Spant 116","address":"Spant 116","city":"Hoorn","operatorName":"Vattenfall InCharge","maxPowerKw":11,"isMegawatt":false,"status":"AVAILABLE","source":"ndw"}},{"type":"Feature","geometry":{"type":"Point","coordinates":[5.050364,52.653468]},"properties":{"type":"charge","layer":"passenger","locationId":"8a8ae037ceec225cd130ce49a9971d7c","name":"Lijndraaier 164","address":"Lijndraaier 164","city":"Hoorn","operatorName":"Vattenfall InCharge","maxPowerKw":11,"isMegawatt":false,"status":"CHARGING","source":"ndw"}},{"type":"Feature","geometry":{"type":"Point","coordinates":[5.0816,52.669615]},"properties":{"type":"charge","layer":"passenger","locationId":"2c18f462-db0a-11eb-8bf0-42010a84000f","name":"TNLP006286","address":"Binnenpolder 20","city":"Zwaag","operatorName":"TotalEnergies","maxPowerKw":17,"isMegawatt":false,"status":"AVAILABLE","source":"ndw","priceKwh":0.4}},{"type":"Feature","geometry":{"type":"Point","coordinates":[5.06832,52.652729]},"properties":{"type":"charge","layer":"passenger","locationId":"4afc8d00-a4a9-11ea-aafb-42010a840034","name":"PP005297","address":"De Streektuinen 33","city":"Hoorn","operatorName":"TotalEnergies","maxPowerKw":0,"isMegawatt":false,"status":"CHARGING","source":"ndw","priceKwh":0.4}},{"type":"Feature","geometry":{"type":"Point","coordinates":[5.10919,52.65386]},"properties":{"type":"charge","layer":"passenger","locationId":"8f0d50ae-d546-11ec-adbf-42010a840003","name":"Shell Recharge NL Cezannehof 77 Hoorn","address":"Cezannehof 77","city":"Hoorn","operatorName":"Ubitricity","maxPowerKw":11,"isMegawatt":false,"status":"AVAILABLE","source":"ndw","priceKwh":0.39}},{"type":"Feature","geometry":{"type":"Point","coordinates":[5.049413,52.644939]},"properties":{"type":"charge","layer":"passenger","locationId":"3a7d985e-77f4-11ed-b088-42010aa40fc0","name":"bp pulse De Keern","address":"Keern 17","city":"Hoorn","operatorName":"bp pulse","maxPowerKw":150,"isMegawatt":false,"status":"AVAILABLE","source":"ndw","priceKwh":0.7}},{"type":"Feature","geometry":{"type":"Point","coordinates":[5.090243,52.674988]},"properties":{"type":"charge","layer":"passenger","locationId":"c758a8ff-9f97-44e4-b916-bd6a1c0eddb2","name":"TNLP015362","address":"Wierdijk 13","city":"Hoorn","operatorName":"TotalEnergies","maxPowerKw":17,"isMegawatt":false,"status":"CHARGING","source":"ndw"}},{"type":"Feature","geometry":{"type":"Point","coordinates":[5.07346,52.65469]},"properties":{"type":"charge","layer":"passenger","locationId":"726","name":"Shell Recharge NL De Uitspanning 17","address":"De Uitspanning 17","city":"Blokker","operatorName":"Ubitricity","maxPowerKw":11,"isMegawatt":false,"status":"AVAILABLE","source":"ndw","priceKwh":0.388}},{"type":"Feature","geometry":{"type":"Point","coordinates":[5.094644,52.671903]},"properties":{"type":"charge","layer":"passenger","locationId":"c2abbce0-e44d-11ed-9014-42010aa40052","name":"TNLP008249","address":"Govert Oostwoudpad 5","city":"Zwaag","operatorName":"TotalEnergies","maxPowerKw":17,"isMegawatt":false,"status":"CHARGING","source":"ndw","priceKwh":0.4}},{"type":"Feature","geometry":{"type":"Point","coordinates":[5.057584,52.639645]},"properties":{"type":"charge","layer":"passenger","locationId":"011b4430-bccb-11ef-b54d-42010aa400b8","name":"Shell Recharge NL Achterom 22A, Hoorn","address":"Achterom 22A","city":"Hoorn","operatorName":"Ubitricity","maxPowerKw":22,"isMegawatt":false,"status":"AVAILABLE","source":"ndw","priceKwh":0.29}},{"type":"Feature","geometry":{"type":"Point","coordinates":[5.07374,52.64303]},"properties":{"type":"charge","layer":"passenger","locationId":"9e3c734e-8f30-11e8-977d-42010a840002","name":"Shell Recharge NL Van Beijerenstraat 89 Hoorn","address":"Van Beijerenstraat 89","city":"Hoorn","operatorName":"Ubitricity","maxPowerKw":11,"isMegawatt":false,"status":"AVAILABLE","source":"ndw","priceKwh":0.39}},{"type":"Feature","geometry":{"type":"Point","coordinates":[5.096574,52.652581]},"properties":{"type":"charge","layer":"passenger","locationId":"b5094904-cfd2-11f0-a2d3-42010aa400b8","name":"Shell Recharge NL Duke Ellingtonhof 32, Hoorn","address":"Duke Ellingtonhof 32","city":"Hoorn","operatorName":"Ubitricity","maxPowerKw":22,"isMegawatt":false,"status":"AVAILABLE","source":"ndw","priceKwh":0.29}},{"type":"Feature","geometry":{"type":"Point","coordinates":[5.054579,52.66002]},"properties":{"type":"charge","layer":"passenger","locationId":"a22baffb-7799-41c2-ab33-ff3fa5ae61cb","name":"TNLP015237","address":"t Grachtje over 141","city":"Hoorn","operatorName":"TotalEnergies","maxPowerKw":17,"isMegawatt":false,"status":"AVAILABLE","source":"ndw"}},{"type":"Feature","geometry":{"type":"Point","coordinates":[5.096574,52.652581]},"properties":{"type":"charge","layer":"passenger","locationId":"2127","name":"Shell Recharge NL Duke Ellingtonhof 32","address":"Duke Ellingtonhof 32","city":"Hoorn","operatorName":"Ubitricity","maxPowerKw":22,"isMegawatt":false,"status":"AVAILABLE","source":"ndw","priceKwh":0.266}},{"type":"Feature","geometry":{"type":"Point","coordinates":[5.034564,52.639601]},"properties":{"type":"charge","layer":"passenger","locationId":"f80e25b1-f197-4f94-9c2d-234b54215246","name":"TNLP034046","address":"Waterman 143","city":"Hoorn","operatorName":"TotalEnergies","maxPowerKw":14,"isMegawatt":false,"status":"AVAILABLE","source":"ndw"}},{"type":"Feature","geometry":{"type":"Point","coordinates":[5.0834873,52.6694879]},"properties":{"type":"charge","layer":"passenger","locationId":"2125","name":"Shell Recharge NL Grote Waard 36","address":"Grote Waard 36","city":"Hoorn","operatorName":"Ubitricity","maxPowerKw":22,"isMegawatt":false,"status":"AVAILABLE","source":"ndw","priceKwh":0.266}},{"type":"Feature","geometry":{"type":"Point","coordinates":[5.082215,52.641145]},"properties":{"type":"charge","layer":"passenger","locationId":"67eea3b73fd869f1cf02d049","name":"Oranje Buiten","address":"Schelphoek  4","city":"Hoorn","operatorName":"E-Flux by Road","maxPowerKw":22,"isMegawatt":false,"status":"AVAILABLE","source":"ndw","priceKwh":0.53}},{"type":"Feature","geometry":{"type":"Point","coordinates":[5.052107,52.642642]},"properties":{"type":"charge","layer":"passenger","locationId":"7bb82640-e987-11ed-b795-42010aa4006a","name":"TNLP009064","address":"Vale hen 8","city":"Hoorn","operatorName":"TotalEnergies","maxPowerKw":17,"isMegawatt":false,"status":"UNAVAILABLE","source":"ndw","priceKwh":0.39}},{"type":"Feature","geometry":{"type":"Point","coordinates":[5.058062,52.637948]},"properties":{"type":"charge","layer":"passenger","locationId":"8b6610a4-ddf2-11f0-ad0d-42010aa400b8","name":"TNLP006355","address":"West 22","city":"Hoorn","operatorName":"TotalEnergies","maxPowerKw":14,"isMegawatt":false,"status":"UNAVAILABLE","source":"ndw","priceKwh":0.39}},{"type":"Feature","geometry":{"type":"Point","coordinates":[5.078292,52.646022]},"properties":{"type":"charge","layer":"passenger","locationId":"97c25f00-d2f4-11f0-a834-42010aa400b8","name":"TNLP009681","address":"Holenweg 4","city":"Hoorn","operatorName":"TotalEnergies","maxPowerKw":17,"isMegawatt":false,"status":"AVAILABLE","source":"ndw","priceKwh":0.39}},{"type":"Feature","geometry":{"type":"Point","coordinates":[5.05715,52.64794]},"properties":{"type":"charge","layer":"passenger","locationId":"209","name":"Shell Recharge NL Koepoortsweg 90","address":"Koepoortsweg 90","city":"Hoorn","operatorName":"Ubitricity","maxPowerKw":11,"isMegawatt":false,"status":"AVAILABLE","source":"ndw","priceKwh":0.388}},{"type":"Feature","geometry":{"type":"Point","coordinates":[5.090243,52.674988]},"properties":{"type":"charge","layer":"passenger","locationId":"5badf682-64ef-11f0-9f2c-42010aa400b8","name":"TNLP015362","address":"Wierdijk 13","city":"Hoorn","operatorName":"TotalEnergies","maxPowerKw":17,"isMegawatt":false,"status":"AVAILABLE","source":"ndw","priceKwh":0.3}},{"type":"Feature","geometry":{"type":"Point","coordinates":[5.054523,52.667096]},"properties":{"type":"charge","layer":"passenger","locationId":"1064ff0c-7791-11ed-a288-42010aa40044","name":"TNLP007401","address":"Kosterstuin 143","city":"Zwaag","operatorName":"TotalEnergies","maxPowerKw":17,"isMegawatt":false,"status":"AVAILABLE","source":"ndw","priceKwh":0.4}},{"type":"Feature","geometry":{"type":"Point","coordinates":[5.06482,52.640955]},"properties":{"type":"charge","layer":"passenger","locationId":"98a99500-9997-11f0-99bb-42010aa400b8","name":"TNLP034047","address":"G.J. Henninkstraat 36","city":"Hoorn","operatorName":"TotalEnergies","maxPowerKw":14,"isMegawatt":false,"status":"CHARGING","source":"ndw","priceKwh":0.3}},{"type":"Feature","geometry":{"type":"Point","coordinates":[5.07273,52.64331]},"properties":{"type":"charge","layer":"passenger","locationId":"236c0118-4f3c-11e8-9af5-42010a840002","name":"Shell Recharge NL Crabstraat 1, Hoorn, [AN null]","address":"Crabstraat 1","city":"Hoorn","operatorName":"Ubitricity","maxPowerKw":11,"isMegawatt":false,"status":"AVAILABLE","source":"ndw","priceKwh":0.39}},{"type":"Feature","geometry":{"type":"Point","coordinates":[5.07005,52.642097]},"properties":{"type":"charge","layer":"passenger","locationId":"33db3692-fbd5-11f0-b163-42010aa400b8","name":"Shell Recharge NL Van Beijerenstraat 28, Hoorn","address":"Van Beijerenstraat 28","city":"Hoorn","operatorName":"Ubitricity","maxPowerKw":22,"isMegawatt":false,"status":"AVAILABLE","source":"ndw","priceKwh":0.29}},{"type":"Feature","geometry":{"type":"Point","coordinates":[5.1137,52.65109]},"properties":{"type":"charge","layer":"passenger","locationId":"61bf05ee-8f30-11e8-97bf-42010a840002","name":"Shell Recharge NL John Raedeckerhof 82 Hoorn","address":"John Raedeckerhof 82","city":"Hoorn","operatorName":"Ubitricity","maxPowerKw":11,"isMegawatt":false,"status":"AVAILABLE","source":"ndw","priceKwh":0.39}},{"type":"Feature","geometry":{"type":"Point","coordinates":[5.04345,52.652579]},"properties":{"type":"charge","layer":"passenger","locationId":"a6185806-14cd-11f0-b86a-42010aa400b8","name":"Shell Recharge NL Hof van Holland 1, Hoorn","address":"Hof van Holland 1","city":"Hoorn","operatorName":"Ubitricity","maxPowerKw":22,"isMegawatt":false,"status":"AVAILABLE","source":"ndw","priceKwh":0.29}},{"type":"Feature","geometry":{"type":"Point","coordinates":[5.07346,52.65469]},"properties":{"type":"charge","layer":"passenger","locationId":"bc770c42-d546-11ec-b958-42010a840003","name":"Shell Recharge NL De Uitspanning 17 Blokker","address":"De Uitspanning 17","city":"Blokker","operatorName":"Ubitricity","maxPowerKw":11,"isMegawatt":false,"status":"AVAILABLE","source":"ndw","priceKwh":0.39}},{"type":"Feature","geometry":{"type":"Point","coordinates":[5.060492,52.655229]},"properties":{"type":"charge","layer":"passenger","locationId":"2f679a76-c2e6-11ee-8119-42010aa40fc0","name":"bp pulse De Huesmolen","address":"Zwaagmergouw 1","city":"Hoorn","operatorName":"bp pulse","maxPowerKw":150,"isMegawatt":false,"status":"AVAILABLE","source":"ndw","priceKwh":0.7}},{"type":"Feature","geometry":{"type":"Point","coordinates":[5.040168,52.643415]},"properties":{"type":"charge","layer":"passenger","locationId":"33583fa0157c823f29d36f54e7394210","name":"Noorderlicht 194","address":"Noorderlicht 194","city":"Hoorn","operatorName":"Vattenfall InCharge","maxPowerKw":11,"isMegawatt":false,"status":"AVAILABLE","source":"ndw"}},{"type":"Feature","geometry":{"type":"Point","coordinates":[5.06778,52.65152]},"properties":{"type":"charge","layer":"passenger","locationId":"36","name":"Shell Recharge NL Westfriese Hof 178","address":"Westfriese Hof 178","city":"Hoorn","operatorName":"Ubitricity","maxPowerKw":11,"isMegawatt":false,"status":"CHARGING","source":"ndw","priceKwh":0.388}},{"type":"Feature","geometry":{"type":"Point","coordinates":[5.047251,52.651142]},"properties":{"type":"charge","layer":"passenger","locationId":"6984c0caf9ac569dff6f2623","name":"Stichting Calidus - Avondlicht","address":"Geldelozeweg 66","city":"Hoorn","operatorName":"PureCharged","maxPowerKw":11,"isMegawatt":false,"status":"AVAILABLE","source":"ndw","priceKwh":0.53}},{"type":"Feature","geometry":{"type":"Point","coordinates":[5.055965,52.658223]},"properties":{"type":"charge","layer":"passenger","locationId":"166313fa-b286-11ed-ba60-42010aa40021","name":"TNLP008138","address":"De Huesmolen 15","city":"Hoorn","operatorName":"TotalEnergies","maxPowerKw":17,"isMegawatt":false,"status":"UNAVAILABLE","source":"ndw","priceKwh":0.4}},{"type":"Feature","geometry":{"type":"Point","coordinates":[5.05546,52.665514]},"properties":{"type":"charge","layer":"passenger","locationId":"3bb10f76-2b2a-11eb-8de9-42010a840056","name":"PP005606","address":"De Lange akker 1","city":"Zwaag","operatorName":"TotalEnergies","maxPowerKw":0,"isMegawatt":false,"status":"CHARGING","source":"ndw","priceKwh":0.4}},{"type":"Feature","geometry":{"type":"Point","coordinates":[5.03917,52.6511]},"properties":{"type":"charge","layer":"passenger","locationId":"c8378e3a-bbfb-11ec-a59f-42010a840021","name":"Eneco eMobility Van der Valk Hoorn","address":"Westfriese Parkweg 1","city":"Hoorn","operatorName":"Eneco","maxPowerKw":22,"isMegawatt":false,"status":"AVAILABLE","source":"ndw","priceKwh":0.49}},{"type":"Feature","geometry":{"type":"Point","coordinates":[5.098051,52.650553]},"properties":{"type":"charge","layer":"passenger","locationId":"683cfb00-4dd2-49b6-9b8c-e093a08c0144","name":"TNLP034241","address":"Diepenbrockhof 65","city":"Hoorn","operatorName":"TotalEnergies","maxPowerKw":14,"isMegawatt":false,"status":"AVAILABLE","source":"ndw"}},{"type":"Feature","geometry":{"type":"Point","coordinates":[5.03917,52.6511]},"properties":{"type":"charge","layer":"passenger","locationId":"B472F8EB-459C-41CE-B0E5-31BCE82AC2D6","name":"Eneco eMobility Van der Valk Hoorn","address":"Westfriese Parkweg 1","city":"Hoorn","operatorName":"Eneco","maxPowerKw":22,"isMegawatt":false,"status":"AVAILABLE","source":"ndw","priceKwh":0.49}},{"type":"Feature","geometry":{"type":"Point","coordinates":[5.08725,52.67348]},"properties":{"type":"charge","layer":"passenger","locationId":"4392aaa2-3ad8-11eb-91c2-42010a840003","name":"Shell Recharge NL Dijkgraaf 119 Zwaag","address":"Dijkgraaf 119","city":"Zwaag","operatorName":"Ubitricity","maxPowerKw":11,"isMegawatt":false,"status":"CHARGING","source":"ndw","priceKwh":0.39}},{"type":"Feature","geometry":{"type":"Point","coordinates":[5.031468,52.637503]},"properties":{"type":"charge","layer":"passenger","locationId":"1770","name":"Shell Recharge NL Houtzaagmolen 1","address":"Houtzaagmolen 1","city":"Hoorn","operatorName":"Ubitricity","maxPowerKw":22,"isMegawatt":false,"status":"AVAILABLE","source":"ndw","priceKwh":0.266}},{"type":"Feature","geometry":{"type":"Point","coordinates":[5.038383,52.651186]},"properties":{"type":"charge","layer":"passenger","locationId":"NLLOC022116","name":"Allego - Van der Valk Hoorn A7","address":"Westfriese Parkweg 1","city":"Hoorn","operatorName":"Allego","maxPowerKw":0,"isMegawatt":false,"status":"AVAILABLE","source":"ndw","priceKwh":0.655}},{"type":"Feature","geometry":{"type":"Point","coordinates":[5.038383,52.651186]},"properties":{"type":"charge","layer":"passenger","locationId":"039862b2-d329-11ec-a291-42010a840003","name":"Allego - Van der Valk Hoorn A7","address":"Westfriese Parkweg 1","city":"Hoorn","operatorName":"Allego","maxPowerKw":0,"isMegawatt":false,"status":"AVAILABLE","source":"ndw"}},{"type":"Feature","geometry":{"type":"Point","coordinates":[5.112056,52.651237]},"properties":{"type":"charge","layer":"passenger","locationId":"2beb6676-a7f3-4e4b-8189-a4397e986df0","name":"TNLP015112","address":"John Raedeckerhof 156","city":"Hoorn","operatorName":"TotalEnergies","maxPowerKw":17,"isMegawatt":false,"status":"AVAILABLE","source":"ndw"}},{"type":"Feature","geometry":{"type":"Point","coordinates":[5.0539,52.67109]},"properties":{"type":"charge","layer":"passenger","locationId":"7f6399d6-f8ff-11ee-b6f5-42010aa400b8","name":"Eneco eMobility Dusseldorp BMW - Hoorn","address":"De Compagnie 27","city":"Hoorn","operatorName":"Eneco","maxPowerKw":200,"isMegawatt":false,"status":"AVAILABLE","source":"ndw","priceKwh":0.59}},{"type":"Feature","geometry":{"type":"Point","coordinates":[5.05395,52.64137]},"properties":{"type":"charge","layer":"passenger","locationId":"31e6ab1e-813c-11f0-b9e9-42010aa400b8","name":"PP001852","address":"Westerdijk 52","city":"Hoorn","operatorName":"TotalEnergies","maxPowerKw":17,"isMegawatt":false,"status":"UNAVAILABLE","source":"ndw","priceKwh":0.4}},{"type":"Feature","geometry":{"type":"Point","coordinates":[5.049628,52.664167]},"properties":{"type":"charge","layer":"passenger","locationId":"99a66b56-43e4-11ed-aaa1-42010aa4005b","name":"TNLP007615","address":"Paardebloem 73","city":"Zwaag","operatorName":"TotalEnergies","maxPowerKw":17,"isMegawatt":false,"status":"UNAVAILABLE","source":"ndw","priceKwh":0.4}},{"type":"Feature","geometry":{"type":"Point","coordinates":[5.079997,52.64457]},"properties":{"type":"charge","layer":"passenger","locationId":"f4a0f36c-2e25-424c-a2e7-9868b8ddb460","name":"Lidl HOORN","address":"Clausplein","city":"Hoorn","operatorName":"Lidl","maxPowerKw":50,"isMegawatt":false,"status":"UNAVAILABLE","source":"ndw"}},{"type":"Feature","geometry":{"type":"Point","coordinates":[5.09631,52.65692]},"properties":{"type":"charge","layer":"passenger","locationId":"b55893a4-8f31-11e8-929d-42010a840002","name":"Shell Recharge NL Jacques Bloemhof 14 Hoorn","address":"Jacques Bloemhof 14","city":"Hoorn","operatorName":"Ubitricity","maxPowerKw":11,"isMegawatt":false,"status":"AVAILABLE","source":"ndw","priceKwh":0.39}},{"type":"Feature","geometry":{"type":"Point","coordinates":[5.060492,52.655229]},"properties":{"type":"charge","layer":"passenger","locationId":"2f679a76-c2e6-11ee-8119-42010aa40fc0","name":"bp pulse De Huesmolen","address":"Zwaagmergouw 1","city":"Hoorn","operatorName":"bp pulse","maxPowerKw":150,"isMegawatt":false,"status":"AVAILABLE","source":"ndw","priceKwh":0.7}},{"type":"Feature","geometry":{"type":"Point","coordinates":[5.038835,52.650804]},"properties":{"type":"charge","layer":"passenger","locationId":"cf3918bb-f6fd-4490-a3b9-b173c75acaa6","name":"Hoorn, Netherlands","address":"1, Westfriese Parkweg","city":"Hoorn","operatorName":"Tesla","maxPowerKw":150,"isMegawatt":false,"status":"AVAILABLE","source":"ndw","priceKwh":0.55}},{"type":"Feature","geometry":{"type":"Point","coordinates":[5.06921,52.67286]},"properties":{"type":"charge","layer":"passenger","locationId":"583a0c9c-63b2-11ee-8a03-42010aa40fc0","name":"Eneco eMobility Broekhuis Autoschade Zwaag","address":"De Corantijn 61","city":"Zwaag","operatorName":"Eneco","maxPowerKw":22,"isMegawatt":false,"status":"AVAILABLE","source":"ndw","priceKwh":0.45}},{"type":"Feature","geometry":{"type":"Point","coordinates":[5.04745,52.657174]},"properties":{"type":"charge","layer":"passenger","locationId":"223bc572-9cb8-11f0-9729-42010aa400b8","name":"TNLP008966","address":"Marskramer 53","city":"Hoorn","operatorName":"TotalEnergies","maxPowerKw":14,"isMegawatt":false,"status":"UNAVAILABLE","source":"ndw","priceKwh":0.4}},{"type":"Feature","geometry":{"type":"Point","coordinates":[5.09855,52.6483]},"properties":{"type":"charge","layer":"passenger","locationId":"503c8d3a-ec4b-11ea-afdd-42010a840fd4","name":"PP005239","address":"Boedijnhof 222","city":"Hoorn","operatorName":"TotalEnergies","maxPowerKw":14,"isMegawatt":false,"status":"UNAVAILABLE","source":"ndw","priceKwh":0.4}},{"type":"Feature","geometry":{"type":"Point","coordinates":[5.06482,52.640955]},"properties":{"type":"charge","layer":"passenger","locationId":"d6555dd2-5abd-4a6c-aae7-c4a24996d885","name":"TNLP034047","address":"G.J. Henninkstraat 36","city":"Hoorn","operatorName":"TotalEnergies","maxPowerKw":14,"isMegawatt":false,"status":"AVAILABLE","source":"ndw"}},{"type":"Feature","geometry":{"type":"Point","coordinates":[5.02307,52.6385]},"properties":{"type":"charge","layer":"passenger","locationId":"3fcd3acc-cd5c-11e8-81cc-42010a840002","name":"Shell Recharge NL Oliemolen 107 Hoorn","address":"Oliemolen 107","city":"Hoorn","operatorName":"Ubitricity","maxPowerKw":11,"isMegawatt":false,"status":"AVAILABLE","source":"ndw","priceKwh":0.39}},{"type":"Feature","geometry":{"type":"Point","coordinates":[5.100792,52.65648]},"properties":{"type":"charge","layer":"passenger","locationId":"ff396288-f19d-11f0-8035-42010aa400b8","name":"Shell Recharge NL Bertus Aafjeshof 87, Hoorn","address":"Bertus Aafjeshof 87","city":"Hoorn","operatorName":"Ubitricity","maxPowerKw":22,"isMegawatt":false,"status":"AVAILABLE","source":"ndw","priceKwh":0.29}},{"type":"Feature","geometry":{"type":"Point","coordinates":[5.106303,52.65415]},"properties":{"type":"charge","layer":"passenger","locationId":"c48276f0-91b9-11f0-80db-42010aa400b8","name":"TNLP006806","address":"Cézannehof 1","city":"Hoorn","operatorName":"TotalEnergies","maxPowerKw":14,"isMegawatt":false,"status":"AVAILABLE","source":"ndw","priceKwh":0.4}},{"type":"Feature","geometry":{"type":"Point","coordinates":[5.04752,52.66498]},"properties":{"type":"charge","layer":"passenger","locationId":"40c293a0-8f31-11e8-bc41-42010a840002","name":"Shell Recharge NL Sleutelbloem 2 Zwaag","address":"Sleutelbloem 2","city":"Zwaag","operatorName":"Ubitricity","maxPowerKw":11,"isMegawatt":false,"status":"AVAILABLE","source":"ndw","priceKwh":0.39}},{"type":"Feature","geometry":{"type":"Point","coordinates":[5.09399,52.656699]},"properties":{"type":"charge","layer":"passenger","locationId":"824bd1c0-05df-11f0-a3a8-42010aa400b8","name":"Shell Recharge NL Kap 43, Hoorn","address":"Kap 43","city":"Hoorn","operatorName":"Ubitricity","maxPowerKw":22,"isMegawatt":false,"status":"AVAILABLE","source":"ndw","priceKwh":0.29}},{"type":"Feature","geometry":{"type":"Point","coordinates":[5.031468,52.637503]},"properties":{"type":"charge","layer":"passenger","locationId":"ef58462c-31e0-11f0-8527-42010aa400b8","name":"Shell Recharge NL Houtzaagmolen 1, Hoorn","address":"Houtzaagmolen 1","city":"Hoorn","operatorName":"Ubitricity","maxPowerKw":22,"isMegawatt":false,"status":"AVAILABLE","source":"ndw","priceKwh":0.29}},{"type":"Feature","geometry":{"type":"Point","coordinates":[5.063663,52.660791]},"properties":{"type":"charge","layer":"passenger","locationId":"4294705","name":"Laadnet Project en Woningstoffering Johan Rood","address":"De Oude Veiling 70A","city":"Zwaag","operatorName":"Laadnet","maxPowerKw":22,"isMegawatt":false,"status":"AVAILABLE","source":"ndw"}},{"type":"Feature","geometry":{"type":"Point","coordinates":[5.04521,52.65714]},"properties":{"type":"charge","layer":"passenger","locationId":"2481093c-a11a-11ee-847f-42010aa40fc0","name":"TNLP007743","address":"Tinnegieter 84","city":"Hoorn","operatorName":"TotalEnergies","maxPowerKw":17,"isMegawatt":false,"status":"UNAVAILABLE","source":"ndw","priceKwh":0.4}},{"type":"Feature","geometry":{"type":"Point","coordinates":[5.051334,52.665391]},"properties":{"type":"charge","layer":"passenger","locationId":"2c3c83d2-db0a-11eb-9f86-42010a84000f","name":"TNLP006280","address":"Boterbloem 136","city":"Zwaag","operatorName":"TotalEnergies","maxPowerKw":17,"isMegawatt":false,"status":"AVAILABLE","source":"ndw","priceKwh":0.4}},{"type":"Feature","geometry":{"type":"Point","coordinates":[5.089725,52.669287]},"properties":{"type":"charge","layer":"passenger","locationId":"a812dbd0-b2bc-11f0-8dbc-42010aa400b8","name":"TNLP006527","address":"Hoge Weere 52","city":"Zwaag","operatorName":"TotalEnergies","maxPowerKw":14,"isMegawatt":false,"status":"CHARGING","source":"ndw","priceKwh":0.4}},{"type":"Feature","geometry":{"type":"Point","coordinates":[5.098544,52.653017]},"properties":{"type":"charge","layer":"passenger","locationId":"d107b8c4-5f71-11f0-87d0-42010aa400b8","name":"TNLP008323","address":"Stan Kentonhof 88","city":"Hoorn","operatorName":"TotalEnergies","maxPowerKw":14,"isMegawatt":false,"status":"UNAVAILABLE","source":"ndw","priceKwh":0.4}},{"type":"Feature","geometry":{"type":"Point","coordinates":[5.060492,52.655229]},"properties":{"type":"charge","layer":"passenger","locationId":"5019fbec-b86f-4937-835f-9e2a31ace562","name":"bp pulse De Huesmolen","address":"Zwaagmergouw 1","city":"Hoorn","operatorName":"bp pulse","maxPowerKw":150,"isMegawatt":false,"status":"UNAVAILABLE","source":"ndw","priceKwh":0.7}},{"type":"Feature","geometry":{"type":"Point","coordinates":[5.04027,52.63995]},"properties":{"type":"charge","layer":"passenger","locationId":"3b1ec820-d545-11ec-9e03-42010a840003","name":"Shell Recharge NL Astronautenweg 250 Hoorn","address":"Astronautenweg 250","city":"Hoorn","operatorName":"Ubitricity","maxPowerKw":11,"isMegawatt":false,"status":"AVAILABLE","source":"ndw","priceKwh":0.39}},{"type":"Feature","geometry":{"type":"Point","coordinates":[5.06778,52.65152]},"properties":{"type":"charge","layer":"passenger","locationId":"08a326de-d545-11ec-8713-42010a840003","name":"Shell Recharge NL Westfriese Hof 178, Hoorn, [AN null]","address":"Westfriese Hof 178","city":"Hoorn","operatorName":"Ubitricity","maxPowerKw":11,"isMegawatt":false,"status":"AVAILABLE","source":"ndw","priceKwh":0.39}},{"type":"Feature","geometry":{"type":"Point","coordinates":[5.08816,52.66862]},"properties":{"type":"charge","layer":"passenger","locationId":"ab750a80-b1ca-11ef-b654-42010aa400b8","name":"Shell Recharge NL Hoge Weere 29, Hoorn","address":"Hoge Weere 29","city":"Hoorn","operatorName":"Ubitricity","maxPowerKw":22,"isMegawatt":false,"status":"AVAILABLE","source":"ndw","priceKwh":0.29}},{"type":"Feature","geometry":{"type":"Point","coordinates":[5.039293,52.664164]},"properties":{"type":"charge","layer":"passenger","locationId":"1118","name":"Shell Recharge NL Hoefijzer 112","address":"Hoefijzer 112","city":"Hoorn","operatorName":"Ubitricity","maxPowerKw":22,"isMegawatt":false,"status":"AVAILABLE","source":"ndw","priceKwh":0.266}},{"type":"Feature","geometry":{"type":"Point","coordinates":[5.054579,52.66002]},"properties":{"type":"charge","layer":"passenger","locationId":"ff6320be-7543-11ef-9a4b-42010aa400b8","name":"TNLP015237","address":"t Grachtje over 141","city":"Hoorn","operatorName":"TotalEnergies","maxPowerKw":17,"isMegawatt":false,"status":"AVAILABLE","source":"ndw","priceKwh":0.3}},{"type":"Feature","geometry":{"type":"Point","coordinates":[5.096614,52.657766]},"properties":{"type":"charge","layer":"passenger","locationId":"d09a5e98-c4cd-11f0-9962-42010aa400b8","name":"TNLP015228","address":"Jacques Bloemhof 114","city":"Hoorn","operatorName":"TotalEnergies","maxPowerKw":17,"isMegawatt":false,"status":"AVAILABLE","source":"ndw","priceKwh":0.3}},{"type":"Feature","geometry":{"type":"Point","coordinates":[5.05487,52.64066]},"properties":{"type":"charge","layer":"passenger","locationId":"01017b10-ce39-11f0-9779-42010aa400b8","name":"TNLP009159","address":"Westerdijk 41","city":"Hoorn","operatorName":"TotalEnergies","maxPowerKw":14,"isMegawatt":false,"status":"UNAVAILABLE","source":"ndw","priceKwh":0.39}},{"type":"Feature","geometry":{"type":"Point","coordinates":[5.114826,52.65138]},"properties":{"type":"charge","layer":"passenger","locationId":"b580dfe6-cfd2-11f0-8204-42010aa400b8","name":"Shell Recharge NL John Raedeckerhof 75, Hoorn","address":"John Raedeckerhof 75","city":"Hoorn","operatorName":"Ubitricity","maxPowerKw":22,"isMegawatt":false,"status":"AVAILABLE","source":"ndw","priceKwh":0.29}},{"type":"Feature","geometry":{"type":"Point","coordinates":[5.039288,52.654108]},"properties":{"type":"charge","layer":"passenger","locationId":"6320898c9d2b628d5f6af133","name":"Samcity Paal 1","address":"Westfriese Parkweg 4","city":"Hoorn","operatorName":"E-Flux by Road","maxPowerKw":22,"isMegawatt":false,"status":"AVAILABLE","source":"ndw","priceKwh":0.62}},{"type":"Feature","geometry":{"type":"Point","coordinates":[5.095728,52.666732]},"properties":{"type":"charge","layer":"passenger","locationId":"dd6e18ef-f2e4-4cfc-91ce-0fee10196139","name":"TNLP015121","address":"Lienweid 32","city":"Blokker","operatorName":"TotalEnergies","maxPowerKw":17,"isMegawatt":false,"status":"AVAILABLE","source":"ndw"}},{"type":"Feature","geometry":{"type":"Point","coordinates":[5.07005,52.642097]},"properties":{"type":"charge","layer":"passenger","locationId":"1916","name":"Shell Recharge NL Van Beijerenstraat 28","address":"Van Beijerenstraat 28","city":"Hoorn","operatorName":"Ubitricity","maxPowerKw":22,"isMegawatt":false,"status":"AVAILABLE","source":"ndw","priceKwh":0.266}},{"type":"Feature","geometry":{"type":"Point","coordinates":[5.095564,52.665703]},"properties":{"type":"charge","layer":"passenger","locationId":"a5fa620e-cb13-11f0-a6bc-42010aa400b8","name":"TNLP015171","address":"Meester Mantelstraat 66","city":"Blokker","operatorName":"TotalEnergies","maxPowerKw":17,"isMegawatt":false,"status":"AVAILABLE","source":"ndw","priceKwh":0.3}},{"type":"Feature","geometry":{"type":"Point","coordinates":[5.096614,52.657766]},"properties":{"type":"charge","layer":"passenger","locationId":"2d9fda06-7892-11f0-a606-42010aa400b8","name":"TNLP015228","address":"Jacques Bloemhof 114","city":"Hoorn","operatorName":"TotalEnergies","maxPowerKw":17,"isMegawatt":false,"status":"CHARGING","source":"ndw","priceKwh":0.3}},{"type":"Feature","geometry":{"type":"Point","coordinates":[5.060432,52.654078]},"properties":{"type":"charge","layer":"passenger","locationId":"4af3f39a-2fc7-11ef-8f4b-42010aa400b8","name":"TNLP008784","address":"Kerkewagen 1","city":"Hoorn","operatorName":"TotalEnergies","maxPowerKw":14,"isMegawatt":false,"status":"UNAVAILABLE","source":"ndw","priceKwh":0.4}},{"type":"Feature","geometry":{"type":"Point","coordinates":[5.066444,52.657838]},"properties":{"type":"charge","layer":"passenger","locationId":"dd1b59fa-5af7-11eb-8638-42010a840070","name":"TNLP005718","address":"Saffier 34","city":"Hoorn","operatorName":"TotalEnergies","maxPowerKw":0,"isMegawatt":false,"status":"UNAVAILABLE","source":"ndw","priceKwh":0.4}},{"type":"Feature","geometry":{"type":"Point","coordinates":[5.079997,52.64457]},"properties":{"type":"charge","layer":"passenger","locationId":"9b4d8de0-f5b4-11ed-bc23-42010aa40fc0","name":"Lidl HOORN","address":"Clausplein","city":"Hoorn","operatorName":"Lidl","maxPowerKw":50,"isMegawatt":false,"status":"AVAILABLE","source":"ndw","priceKwh":0.45}},{"type":"Feature","geometry":{"type":"Point","coordinates":[5.065029,52.649411]},"properties":{"type":"charge","layer":"passenger","locationId":"4237200","name":"Laadnet Tweeboomlaan","address":"Tweeboomlaan 148","city":"Hoorn","operatorName":"Laadnet","maxPowerKw":11,"isMegawatt":false,"status":"AVAILABLE","source":"ndw"}},{"type":"Feature","geometry":{"type":"Point","coordinates":[5.05715,52.64794]},"properties":{"type":"charge","layer":"passenger","locationId":"b34ca8f0-4f3c-11e8-aeef-42010a840002","name":"Shell Recharge NL Koepoortsweg 90 Hoorn","address":"Koepoortsweg 90","city":"Hoorn","operatorName":"Ubitricity","maxPowerKw":11,"isMegawatt":false,"status":"AVAILABLE","source":"ndw","priceKwh":0.39}},{"type":"Feature","geometry":{"type":"Point","coordinates":[5.08264,52.65483]},"properties":{"type":"charge","layer":"passenger","locationId":"629","name":"Shell Recharge NL Reiger 56","address":"Reiger 56","city":"Hoorn","operatorName":"Ubitricity","maxPowerKw":11,"isMegawatt":false,"status":"AVAILABLE","source":"ndw","priceKwh":0.388}},{"type":"Feature","geometry":{"type":"Point","coordinates":[5.095564,52.665703]},"properties":{"type":"charge","layer":"passenger","locationId":"2ba36e09-7cbe-41d2-ad44-5e4f9e2d2be9","name":"TNLP015171","address":"Meester Mantelstraat 66","city":"Blokker","operatorName":"TotalEnergies","maxPowerKw":17,"isMegawatt":false,"status":"CHARGING","source":"ndw"}},{"type":"Feature","geometry":{"type":"Point","coordinates":[5.040138,52.667443]},"properties":{"type":"charge","layer":"passenger","locationId":"5ba5420e-9414-11f0-80ba-42010aa400b8","name":"TNLP006144","address":"Kamille 24","city":"Zwaag","operatorName":"TotalEnergies","maxPowerKw":17,"isMegawatt":false,"status":"CHARGING","source":"ndw","priceKwh":0.4}},{"type":"Feature","geometry":{"type":"Point","coordinates":[5.061809,52.64919]},"properties":{"type":"charge","layer":"passenger","locationId":"a4cc92b2-2b2b-11ec-a5b6-42010a840003","name":"TNLP006670","address":"Tweeboomlaan 105","city":"Hoorn","operatorName":"TotalEnergies","maxPowerKw":17,"isMegawatt":false,"status":"UNAVAILABLE","source":"ndw","priceKwh":0.4}},{"type":"Feature","geometry":{"type":"Point","coordinates":[5.063492,52.639877]},"properties":{"type":"charge","layer":"passenger","locationId":"8435dc54-0a96-11f0-9d67-42010aa400b8","name":"Shell Recharge NL Grote Oost 68, Hoorn","address":"Grote Oost 68","city":"Hoorn","operatorName":"Ubitricity","maxPowerKw":22,"isMegawatt":false,"status":"AVAILABLE","source":"ndw","priceKwh":0.29}},{"type":"Feature","geometry":{"type":"Point","coordinates":[5.046309,52.659402]},"properties":{"type":"charge","layer":"passenger","locationId":"d3938c04-cbe5-11f0-97fa-42010aa400b8","name":"Shell Recharge NL Baljuw 1, Hoorn","address":"Baljuw 1","city":"Hoorn","operatorName":"Ubitricity","maxPowerKw":22,"isMegawatt":false,"status":"AVAILABLE","source":"ndw","priceKwh":0.29}},{"type":"Feature","geometry":{"type":"Point","coordinates":[5.057584,52.639645]},"properties":{"type":"charge","layer":"passenger","locationId":"1020","name":"Shell Recharge NL Achterom 22A","address":"Achterom 22A","city":"Hoorn","operatorName":"Ubitricity","maxPowerKw":22,"isMegawatt":false,"status":"AVAILABLE","source":"ndw","priceKwh":0.266}},{"type":"Feature","geometry":{"type":"Point","coordinates":[5.0742,52.67383]},"properties":{"type":"charge","layer":"passenger","locationId":"0e2f893c-63b3-11ee-b568-42010aa40fc0","name":"Eneco eMobility Broekhuis Volkswagen Audi Skoda Zwaag","address":"De Marowijne 53","city":"Zwaag","operatorName":"Eneco","maxPowerKw":25,"isMegawatt":false,"status":"AVAILABLE","source":"ndw","priceKwh":0.38}},{"type":"Feature","geometry":{"type":"Point","coordinates":[5.050435,52.657643]},"properties":{"type":"charge","layer":"passenger","locationId":"26da81da-95ac-11f0-9f03-42010aa400b8","name":"TNLP006821","address":"Wever 29","city":"Hoorn","operatorName":"TotalEnergies","maxPowerKw":17,"isMegawatt":false,"status":"UNAVAILABLE","source":"ndw","priceKwh":0.4}},{"type":"Feature","geometry":{"type":"Point","coordinates":[5.059515,52.665083]},"properties":{"type":"charge","layer":"passenger","locationId":"ae3830c0-db41-11eb-8f54-42010a840068","name":"TNLP006272","address":"Langetuin 206","city":"Zwaag","operatorName":"TotalEnergies","maxPowerKw":17,"isMegawatt":false,"status":"UNAVAILABLE","source":"ndw","priceKwh":0.4}},{"type":"Feature","geometry":{"type":"Point","coordinates":[5.058283,52.666698]},"properties":{"type":"charge","layer":"passenger","locationId":"bbbe17ac-2813-11ee-ab7a-42010aa40fc0","name":"TNLP009519","address":"Klagerstuin 5","city":"Hoorn","operatorName":"TotalEnergies","maxPowerKw":17,"isMegawatt":false,"status":"UNAVAILABLE","source":"ndw","priceKwh":0.4}},{"type":"Feature","geometry":{"type":"Point","coordinates":[5.061896,52.653983]},"properties":{"type":"charge","layer":"passenger","locationId":"ce57dd9c-dd9b-11ee-91ae-42010aa400b8","name":"TNLP008633","address":"Brik 3","city":"Hoorn","operatorName":"TotalEnergies","maxPowerKw":14,"isMegawatt":false,"status":"UNAVAILABLE","source":"ndw","priceKwh":0.4}},{"type":"Feature","geometry":{"type":"Point","coordinates":[5.08264,52.65483]},"properties":{"type":"charge","layer":"passenger","locationId":"75a7eeb0-996e-11e9-9b36-42010a84002f","name":"Shell Recharge NL Reiger 56 Hoorn","address":"Reiger 56","city":"Hoorn","operatorName":"Ubitricity","maxPowerKw":11,"isMegawatt":false,"status":"AVAILABLE","source":"ndw","priceKwh":0.39}},{"type":"Feature","geometry":{"type":"Point","coordinates":[5.04526,52.66188]},"properties":{"type":"charge","layer":"passenger","locationId":"a56eaf26-4f3c-11e8-9c45-42010a840002","name":"Shell Recharge NL Paardenweide 3 Hoorn","address":"Paardenweide 3","city":"Hoorn","operatorName":"Ubitricity","maxPowerKw":11,"isMegawatt":false,"status":"AVAILABLE","source":"ndw","priceKwh":0.39}},{"type":"Feature","geometry":{"type":"Point","coordinates":[5.049412,52.66491]},"properties":{"type":"charge","layer":"passenger","locationId":"c4550506-3117-11f0-aa35-42010aa400b8","name":"Shell Recharge NL Paardebloem 39, Hoorn","address":"Paardebloem 39","city":"Hoorn","operatorName":"Ubitricity","maxPowerKw":22,"isMegawatt":false,"status":"AVAILABLE","source":"ndw","priceKwh":0.29}},{"type":"Feature","geometry":{"type":"Point","coordinates":[5.086902,52.656211]},"properties":{"type":"charge","layer":"passenger","locationId":"036d0bde-9afb-11ef-8504-42010aa400b8","name":"TNLP015307","address":"Watersnip 50","city":"Hoorn","operatorName":"TotalEnergies","maxPowerKw":17,"isMegawatt":false,"status":"CHARGING","source":"ndw","priceKwh":0.3}},{"type":"Feature","geometry":{"type":"Point","coordinates":[5.0434498,52.6525791]},"properties":{"type":"charge","layer":"passenger","locationId":"1262","name":"Shell Recharge NL Hof van Holland 1","address":"Hof van Holland 1","city":"Hoorn","operatorName":"Ubitricity","maxPowerKw":22,"isMegawatt":false,"status":"AVAILABLE","source":"ndw","priceKwh":0.266}},{"type":"Feature","geometry":{"type":"Point","coordinates":[5.06887,52.66157]},"properties":{"type":"charge","layer":"passenger","locationId":"43e57d2c2507e4ccec39119c69c478f5","name":"Soniastraat 23","address":"Soniastraat 23","city":"Zwaag","operatorName":"Vattenfall InCharge","maxPowerKw":11,"isMegawatt":false,"status":"CHARGING","source":"ndw"}},{"type":"Feature","geometry":{"type":"Point","coordinates":[5.078104,52.675183]},"properties":{"type":"charge","layer":"passenger","locationId":"736039","name":"Laadnet Schouten Techniek B.V.","address":"De Marowijne 47","city":"Zwaag","operatorName":"Laadnet","maxPowerKw":22,"isMegawatt":false,"status":"AVAILABLE","source":"ndw"}},{"type":"Feature","geometry":{"type":"Point","coordinates":[5.06582,52.6396]},"properties":{"type":"charge","layer":"passenger","locationId":"1631","name":"Shell Recharge NL Slapershaven 5","address":"Slapershaven 5","city":"Hoorn","operatorName":"Ubitricity","maxPowerKw":11,"isMegawatt":false,"status":"CHARGING","source":"ndw","priceKwh":0.388}},{"type":"Feature","geometry":{"type":"Point","coordinates":[5.110159,52.656657]},"properties":{"type":"charge","layer":"passenger","locationId":"c960436f-8e22-4122-b6ad-38f64ac3ff6a","name":"TNLP034654","address":"Mari Andriessenhof 34","city":"Hoorn","operatorName":"TotalEnergies","maxPowerKw":14,"isMegawatt":false,"status":"AVAILABLE","source":"ndw"}},{"type":"Feature","geometry":{"type":"Point","coordinates":[5.07833,52.65197]},"properties":{"type":"charge","layer":"passenger","locationId":"239a8fec-4f3c-11e8-98ed-42010a840002","name":"TNLP008352","address":"Winterkoninkje 53","city":"Hoorn","operatorName":"TotalEnergies","maxPowerKw":14,"isMegawatt":false,"status":"AVAILABLE","source":"ndw","priceKwh":0.39}},{"type":"Feature","geometry":{"type":"Point","coordinates":[5.096614,52.657766]},"properties":{"type":"charge","layer":"passenger","locationId":"72d41b29-cc75-4eb7-b40f-1cbef9718b5b","name":"TNLP015228","address":"Jacques Bloemhof 114","city":"Hoorn","operatorName":"TotalEnergies","maxPowerKw":17,"isMegawatt":false,"status":"CHARGING","source":"ndw"}},{"type":"Feature","geometry":{"type":"Point","coordinates":[5.08146,52.66698]},"properties":{"type":"charge","layer":"passenger","locationId":"395","name":"Shell Recharge NL Krommewoud 1","address":"Krommewoud 1","city":"Zwaag","operatorName":"Ubitricity","maxPowerKw":11,"isMegawatt":false,"status":"AVAILABLE","source":"ndw","priceKwh":0.388}},{"type":"Feature","geometry":{"type":"Point","coordinates":[5.091396,52.663543]},"properties":{"type":"charge","layer":"passenger","locationId":"bba5b583-34f2-4e4f-aaab-be3b77558c9b","name":"TNLP034040","address":"Sint Josephpark 22","city":"Hoorn","operatorName":"TotalEnergies","maxPowerKw":14,"isMegawatt":false,"status":"AVAILABLE","source":"ndw"}},{"type":"Feature","geometry":{"type":"Point","coordinates":[5.058791,52.648987]},"properties":{"type":"charge","layer":"passenger","locationId":"ee4b88d2a8c9bfe46308c27c42cc279d","name":"Juniusstraat 46","address":"Juniusstraat 46","city":"Hoorn","operatorName":"Vattenfall InCharge","maxPowerKw":11,"isMegawatt":false,"status":"AVAILABLE","source":"ndw"}},{"type":"Feature","geometry":{"type":"Point","coordinates":[5.057057,52.635099]},"properties":{"type":"charge","layer":"passenger","locationId":"63bc1f18-e1f3-11ea-b091-42010a840007","name":"PP005264","address":"Visserseiland 152","city":"Hoorn","operatorName":"TotalEnergies","maxPowerKw":14,"isMegawatt":false,"status":"UNAVAILABLE","source":"ndw","priceKwh":0.39}},{"type":"Feature","geometry":{"type":"Point","coordinates":[5.085678,52.681806]},"properties":{"type":"charge","layer":"passenger","locationId":"6572dadf0f97e9001c37ad58","name":"MRE BV","address":"Adam Smithweg 2","city":"Zwaag","operatorName":"E-Flux by Road","maxPowerKw":22,"isMegawatt":false,"status":"AVAILABLE","source":"ndw","priceKwh":0.53}},{"type":"Feature","geometry":{"type":"Point","coordinates":[5.1137,52.65109]},"properties":{"type":"charge","layer":"passenger","locationId":"38","name":"Shell Recharge NL John Raedeckerhof 82","address":"John Raedeckerhof 82","city":"Hoorn","operatorName":"Ubitricity","maxPowerKw":11,"isMegawatt":false,"status":"AVAILABLE","source":"ndw","priceKwh":0.388}},{"type":"Feature","geometry":{"type":"Point","coordinates":[5.026806,52.63668]},"properties":{"type":"charge","layer":"passenger","locationId":"e89c7a58-cf09-11f0-b859-42010aa400b8","name":"TNLP015220","address":"Weidemolen 1","city":"Hoorn","operatorName":"TotalEnergies","maxPowerKw":17,"isMegawatt":false,"status":"AVAILABLE","source":"ndw","priceKwh":0.3}},{"type":"Feature","geometry":{"type":"Point","coordinates":[5.090243,52.674988]},"properties":{"type":"charge","layer":"passenger","locationId":"32b0c6ca-c7f4-11f0-943c-42010aa400b8","name":"TNLP015362","address":"Wierdijk 13","city":"Hoorn","operatorName":"TotalEnergies","maxPowerKw":17,"isMegawatt":false,"status":"AVAILABLE","source":"ndw","priceKwh":0.3}},{"type":"Feature","geometry":{"type":"Point","coordinates":[5.06482,52.640955]},"properties":{"type":"charge","layer":"passenger","locationId":"b8e7b9ec-c015-11f0-967b-42010aa400b8","name":"TNLP034047","address":"G.J. Henninkstraat 36","city":"Hoorn","operatorName":"TotalEnergies","maxPowerKw":14,"isMegawatt":false,"status":"AVAILABLE","source":"ndw","priceKwh":0.3}},{"type":"Feature","geometry":{"type":"Point","coordinates":[5.072178,52.666667]},"properties":{"type":"charge","layer":"passenger","locationId":"896bd7ca-f8aa-11f0-89ba-42010aa400b8","name":"TNLP034231","address":"Anjerhof 1","city":"Zwaag","operatorName":"TotalEnergies","maxPowerKw":14,"isMegawatt":false,"status":"AVAILABLE","source":"ndw","priceKwh":0.3}},{"type":"Feature","geometry":{"type":"Point","coordinates":[5.08829,52.670799]},"properties":{"type":"charge","layer":"passenger","locationId":"2c3294bc-fe3d-11ea-b334-42010a840fe5","name":"PP005469","address":"Achterkogge 7","city":"Zwaag","operatorName":"TotalEnergies","maxPowerKw":14,"isMegawatt":false,"status":"UNAVAILABLE","source":"ndw","priceKwh":0.39}},{"type":"Feature","geometry":{"type":"Point","coordinates":[5.065702,52.642642]},"properties":{"type":"charge","layer":"passenger","locationId":"fd33abb4-8e3b-11ee-b579-42010aa40fc0","name":"TNLP009801","address":"Draafsingel 30","city":"Hoorn","operatorName":"TotalEnergies","maxPowerKw":14,"isMegawatt":false,"status":"AVAILABLE","source":"ndw","priceKwh":0.39}},{"type":"Feature","geometry":{"type":"Point","coordinates":[5.057187,52.642845]},"properties":{"type":"charge","layer":"passenger","locationId":"41aae022-f7ea-11f0-81fb-42010aa400b8","name":"TNLP015047","address":"Gedempte Turfhaven 1 A","city":"Hoorn","operatorName":"TotalEnergies","maxPowerKw":17,"isMegawatt":false,"status":"AVAILABLE","source":"ndw","priceKwh":0.3}},{"type":"Feature","geometry":{"type":"Point","coordinates":[5.093529,52.651483]},"properties":{"type":"charge","layer":"passenger","locationId":"85c56c3c-ae02-11f0-af28-42010aa400b8","name":"TNLP034211","address":"Ceder 64","city":"Hoorn","operatorName":"TotalEnergies","maxPowerKw":14,"isMegawatt":false,"status":"AVAILABLE","source":"ndw","priceKwh":0.3}},{"type":"Feature","geometry":{"type":"Point","coordinates":[5.060901,52.637232]},"properties":{"type":"charge","layer":"passenger","locationId":"0ee5cbde-8404-11f0-bd0b-42010aa400b8","name":"TNLP007487","address":"Italiaanse Zeedijk 78","city":"Hoorn","operatorName":"TotalEnergies","maxPowerKw":14,"isMegawatt":false,"status":"UNAVAILABLE","source":"ndw","priceKwh":0.39}},{"type":"Feature","geometry":{"type":"Point","coordinates":[5.048338,52.668287]},"properties":{"type":"charge","layer":"passenger","locationId":"23a9f34a-c402-11f0-99b0-42010aa400b8","name":"TNLP034259","address":"Weegbree 107","city":"Hoorn","operatorName":"TotalEnergies","maxPowerKw":14,"isMegawatt":false,"status":"AVAILABLE","source":"ndw","priceKwh":0.3}},{"type":"Feature","geometry":{"type":"Point","coordinates":[5.041986,52.665469]},"properties":{"type":"charge","layer":"passenger","locationId":"08b84060-7767-11eb-946e-42010a840060","name":"TNLP005998","address":"Klaproos 99","city":"Zwaag","operatorName":"TotalEnergies","maxPowerKw":14,"isMegawatt":false,"status":"UNAVAILABLE","source":"ndw","priceKwh":0.39}},{"type":"Feature","geometry":{"type":"Point","coordinates":[5.034564,52.639601]},"properties":{"type":"charge","layer":"passenger","locationId":"b9cb5ca4-ccb0-11f0-bc25-42010aa400b8","name":"TNLP034046","address":"Waterman 143","city":"Hoorn","operatorName":"TotalEnergies","maxPowerKw":14,"isMegawatt":false,"status":"AVAILABLE","source":"ndw","priceKwh":0.3}},{"type":"Feature","geometry":{"type":"Point","coordinates":[5.063033,52.636843]},"properties":{"type":"charge","layer":"passenger","locationId":"fded79ca-d84a-11ec-b128-42010aa40005","name":"TNLP007377","address":"Hoofd 11","city":"Hoorn","operatorName":"TotalEnergies","maxPowerKw":14,"isMegawatt":false,"status":"UNAVAILABLE","source":"ndw","priceKwh":0.39}},{"type":"Feature","geometry":{"type":"Point","coordinates":[5.084592,52.667877]},"properties":{"type":"charge","layer":"passenger","locationId":"ef14011c-c72a-11f0-aa66-42010aa400b8","name":"TNLP034016","address":"Grote Waard 54","city":"Hoorn","operatorName":"TotalEnergies","maxPowerKw":14,"isMegawatt":false,"status":"AVAILABLE","source":"ndw","priceKwh":0.3}},{"type":"Feature","geometry":{"type":"Point","coordinates":[5.061632,52.66163]},"properties":{"type":"charge","layer":"passenger","locationId":"ad3df13e-2813-11ee-a114-42010aa40fc0","name":"TNLP009497","address":"Botter 65","city":"Hoorn","operatorName":"TotalEnergies","maxPowerKw":17,"isMegawatt":false,"status":"AVAILABLE","source":"ndw","priceKwh":0.39}},{"type":"Feature","geometry":{"type":"Point","coordinates":[5.0718376,52.6398136]},"properties":{"type":"charge","layer":"passenger","locationId":"2145","name":"Shell Recharge NL Nieuwe wal 1","address":"Nieuwe wal 1","city":"Hoorn","operatorName":"Ubitricity","maxPowerKw":22,"isMegawatt":false,"status":"AVAILABLE","source":"ndw","priceKwh":0.266}},{"type":"Feature","geometry":{"type":"Point","coordinates":[5.1007916,52.6564801]},"properties":{"type":"charge","layer":"passenger","locationId":"2129","name":"Shell Recharge NL Bertus Aafjeshof 87","address":"Bertus Aafjeshof 87","city":"Hoorn","operatorName":"Ubitricity","maxPowerKw":22,"isMegawatt":false,"status":"AVAILABLE","source":"ndw","priceKwh":0.266}},{"type":"Feature","geometry":{"type":"Point","coordinates":[5.04572,52.663678]},"properties":{"type":"charge","layer":"passenger","locationId":"ec9739a6-a270-11eb-8fc2-42010a84001a","name":"TNLP006149","address":"Dovenetel 44","city":"Zwaag","operatorName":"TotalEnergies","maxPowerKw":14,"isMegawatt":false,"status":"UNAVAILABLE","source":"ndw","priceKwh":0.39}},{"type":"Feature","geometry":{"type":"Point","coordinates":[5.088492,52.656722]},"properties":{"type":"charge","layer":"passenger","locationId":"8352e3e0-ccb0-11f0-ad0a-42010aa400b8","name":"TNLP034222","address":"Kievit 111","city":"Hoorn","operatorName":"TotalEnergies","maxPowerKw":14,"isMegawatt":false,"status":"AVAILABLE","source":"ndw","priceKwh":0.3}},{"type":"Feature","geometry":{"type":"Point","coordinates":[5.1148256,52.6513797]},"properties":{"type":"charge","layer":"passenger","locationId":"2128","name":"Shell Recharge NL John Raedeckerhof 75","address":"John Raedeckerhof 75","city":"Hoorn","operatorName":"Ubitricity","maxPowerKw":22,"isMegawatt":false,"status":"AVAILABLE","source":"ndw","priceKwh":0.266}},{"type":"Feature","geometry":{"type":"Point","coordinates":[5.091396,52.663543]},"properties":{"type":"charge","layer":"passenger","locationId":"2e851050-845c-11f0-852b-42010aa400b8","name":"TNLP034040","address":"Sint Josephpark 22","city":"Hoorn","operatorName":"TotalEnergies","maxPowerKw":14,"isMegawatt":false,"status":"AVAILABLE","source":"ndw","priceKwh":0.3}},{"type":"Feature","geometry":{"type":"Point","coordinates":[5.076134,52.652942]},"properties":{"type":"charge","layer":"passenger","locationId":"430bb47a-b382-11f0-b731-42010aa400b8","name":"TNLP015244","address":"Kluut 38","city":"Hoorn","operatorName":"TotalEnergies","maxPowerKw":17,"isMegawatt":false,"status":"AVAILABLE","source":"ndw","priceKwh":0.3}},{"type":"Feature","geometry":{"type":"Point","coordinates":[5.061027,52.642613]},"properties":{"type":"charge","layer":"passenger","locationId":"acd8bac6-8784-11f0-903c-42010aa400b8","name":"TNLP034078","address":"Onder de boompjes 10","city":"Hoorn","operatorName":"TotalEnergies","maxPowerKw":14,"isMegawatt":false,"status":"AVAILABLE","source":"ndw","priceKwh":0.3}},{"type":"Feature","geometry":{"type":"Point","coordinates":[5.046804,52.668504]},"properties":{"type":"charge","layer":"passenger","locationId":"e70e4b7a-4193-11f0-a56c-42010aa400b8","name":"TNLP015159","address":"Hondsdraf 52","city":"Hoorn","operatorName":"TotalEnergies","maxPowerKw":17,"isMegawatt":false,"status":"AVAILABLE","source":"ndw","priceKwh":0.3}},{"type":"Feature","geometry":{"type":"Point","coordinates":[5.090135,52.665856]},"properties":{"type":"charge","layer":"passenger","locationId":"43e938fc-3828-11f0-92fc-42010aa400b8","name":"TNLP034031","address":"Tom Karstenstraat 2","city":"Blokker","operatorName":"TotalEnergies","maxPowerKw":14,"isMegawatt":false,"status":"AVAILABLE","source":"ndw","priceKwh":0.3}},{"type":"Feature","geometry":{"type":"Point","coordinates":[5.095728,52.666732]},"properties":{"type":"charge","layer":"passenger","locationId":"c7921074-1592-11f0-bbdc-42010aa400b8","name":"TNLP015121","address":"Lienweid 32","city":"Blokker","operatorName":"TotalEnergies","maxPowerKw":17,"isMegawatt":false,"status":"AVAILABLE","source":"ndw","priceKwh":0.3}},{"type":"Feature","geometry":{"type":"Point","coordinates":[5.035599,52.637618]},"properties":{"type":"charge","layer":"passenger","locationId":"ccc4c12c-4f8b-11ef-88ec-42010aa400b8","name":"TNLP015231","address":"Poolster 49","city":"Hoorn","operatorName":"TotalEnergies","maxPowerKw":17,"isMegawatt":false,"status":"AVAILABLE","source":"ndw","priceKwh":0.3}},{"type":"Feature","geometry":{"type":"Point","coordinates":[5.112056,52.651237]},"properties":{"type":"charge","layer":"passenger","locationId":"e46f2a00-d618-11f0-8b29-42010aa400b8","name":"TNLP015112","address":"John Raedeckerhof 156","city":"Hoorn","operatorName":"TotalEnergies","maxPowerKw":17,"isMegawatt":false,"status":"AVAILABLE","source":"ndw","priceKwh":0.3}},{"type":"Feature","geometry":{"type":"Point","coordinates":[5.08742,52.66611]},"properties":{"type":"charge","layer":"passenger","locationId":"2fa55381951659135f909dda503ecce1","name":"Elle Molstraat 18","address":"Elle Molstraat 18","city":"Blokker","operatorName":"Vattenfall InCharge","maxPowerKw":11,"isMegawatt":false,"status":"AVAILABLE","source":"ndw"}},{"type":"Feature","geometry":{"type":"Point","coordinates":[5.061027,52.642613]},"properties":{"type":"charge","layer":"passenger","locationId":"315fcf04-2dcd-4995-97e6-f99dd33b70b7","name":"TNLP034078","address":"Onder de boompjes 10","city":"Hoorn","operatorName":"TotalEnergies","maxPowerKw":14,"isMegawatt":false,"status":"AVAILABLE","source":"ndw"}},{"type":"Feature","geometry":{"type":"Point","coordinates":[5.0494119,52.6649103]},"properties":{"type":"charge","layer":"passenger","locationId":"1762","name":"Shell Recharge NL Paardebloem 39","address":"Paardebloem 39","city":"Hoorn","operatorName":"Ubitricity","maxPowerKw":22,"isMegawatt":false,"status":"AVAILABLE","source":"ndw","priceKwh":0.266}},{"type":"Feature","geometry":{"type":"Point","coordinates":[5.071004,52.649659]},"properties":{"type":"charge","layer":"passenger","locationId":"6641c3ca-a339-11eb-84c3-42010a840042","name":"TNLP006154","address":"Vermeerlaan 13","city":"Hoorn","operatorName":"TotalEnergies","maxPowerKw":14,"isMegawatt":false,"status":"UNAVAILABLE","source":"ndw","priceKwh":0.39}},{"type":"Feature","geometry":{"type":"Point","coordinates":[5.06921,52.67286]},"properties":{"type":"charge","layer":"passenger","locationId":"50DD3FA0-F458-47ED-AFD1-896FF27D0B04","name":"Eneco eMobility Broekhuis Autoschade Zwaag","address":"De Corantijn 61","city":"Zwaag","operatorName":"Eneco","maxPowerKw":22,"isMegawatt":false,"status":"AVAILABLE","source":"ndw","priceKwh":0.45}},{"type":"Feature","geometry":{"type":"Point","coordinates":[5.048037,52.650622]},"properties":{"type":"charge","layer":"passenger","locationId":"4D1ECA9F-57AC-4CD6-B019-D8F9B98D3205","name":"Eneco eMobility Geldelozeweg 41 Hoorn","address":"Geldelozeweg 41","city":"Hoorn","operatorName":"Eneco","maxPowerKw":0,"isMegawatt":false,"status":"UNAVAILABLE","source":"ndw","priceKwh":0.32}},{"type":"Feature","geometry":{"type":"Point","coordinates":[5.060197,52.662593]},"properties":{"type":"charge","layer":"passenger","locationId":"89120f00-8cd7-11ef-927d-42010aa400b8","name":"TNLP015304","address":"Botter 20","city":"Hoorn","operatorName":"TotalEnergies","maxPowerKw":17,"isMegawatt":false,"status":"AVAILABLE","source":"ndw","priceKwh":0.3}},{"type":"Feature","geometry":{"type":"Point","coordinates":[5.04027,52.63995]},"properties":{"type":"charge","layer":"passenger","locationId":"118","name":"Shell Recharge NL Astronautenweg 250","address":"Astronautenweg 250","city":"Hoorn","operatorName":"Ubitricity","maxPowerKw":11,"isMegawatt":false,"status":"AVAILABLE","source":"ndw","priceKwh":0.388}},{"type":"Feature","geometry":{"type":"Point","coordinates":[5.07374,52.64303]},"properties":{"type":"charge","layer":"passenger","locationId":"130","name":"Shell Recharge NL Van Beijerenstraat 89","address":"Van Beijerenstraat 89","city":"Hoorn","operatorName":"Ubitricity","maxPowerKw":11,"isMegawatt":false,"status":"AVAILABLE","source":"ndw","priceKwh":0.388}},{"type":"Feature","geometry":{"type":"Point","coordinates":[5.07273,52.64331]},"properties":{"type":"charge","layer":"passenger","locationId":"70","name":"Shell Recharge NL Crabstraat 1","address":"Crabstraat 1","city":"Hoorn","operatorName":"Ubitricity","maxPowerKw":11,"isMegawatt":false,"status":"AVAILABLE","source":"ndw","priceKwh":0.388}},{"type":"Feature","geometry":{"type":"Point","coordinates":[5.047537,52.649347]},"properties":{"type":"charge","layer":"passenger","locationId":"67f8dfacc9c6766e64abdb53","name":"RightCharge","address":"Dr CJK van Aalstweg  6c","city":"Hoorn","operatorName":"E-Flux by Road","maxPowerKw":176,"isMegawatt":false,"status":"AVAILABLE","source":"ndw","priceKwh":0.319}},{"type":"Feature","geometry":{"type":"Point","coordinates":[5.0463085,52.6594017]},"properties":{"type":"charge","layer":"passenger","locationId":"1877","name":"Shell Recharge NL Baljuw 1","address":"Baljuw 1","city":"Hoorn","operatorName":"Ubitricity","maxPowerKw":22,"isMegawatt":false,"status":"AVAILABLE","source":"ndw","priceKwh":0.266}},{"type":"Feature","geometry":{"type":"Point","coordinates":[5.08302,52.680717]},"properties":{"type":"charge","layer":"passenger","locationId":"649ac679d2ddb4001c4c22b6","name":"Autoschade Dampten laadpaal 2 voorzijde betaald","address":"David Ricardoweg 1","city":"Zwaag","operatorName":"E-Flux by Road","maxPowerKw":22,"isMegawatt":false,"status":"AVAILABLE","source":"ndw","priceKwh":0.68}},{"type":"Feature","geometry":{"type":"Point","coordinates":[5.08725,52.67348]},"properties":{"type":"charge","layer":"passenger","locationId":"636","name":"Shell Recharge NL Dijkgraaf 119","address":"Dijkgraaf 119","city":"Zwaag","operatorName":"Ubitricity","maxPowerKw":11,"isMegawatt":false,"status":"AVAILABLE","source":"ndw","priceKwh":0.388}},{"type":"Feature","geometry":{"type":"Point","coordinates":[5.060197,52.662593]},"properties":{"type":"charge","layer":"passenger","locationId":"65bd33d4-77ef-4ec8-a203-2aca521c9da3","name":"TNLP015304","address":"Botter 20","city":"Hoorn","operatorName":"TotalEnergies","maxPowerKw":17,"isMegawatt":false,"status":"AVAILABLE","source":"ndw"}},{"type":"Feature","geometry":{"type":"Point","coordinates":[5.065702,52.642642]},"properties":{"type":"charge","layer":"passenger","locationId":"73F4A466-32B4-4AB6-B013-68B1C232782A","name":"TNLP009801","address":"Draafsingel 30","city":"Hoorn","operatorName":"TotalEnergies","maxPowerKw":14,"isMegawatt":false,"status":"CHARGING","source":"ndw"}},{"type":"Feature","geometry":{"type":"Point","coordinates":[5.0539,52.67109]},"properties":{"type":"charge","layer":"passenger","locationId":"2AFC34C0-2AA7-4D2C-8B82-4F347AEC4B1D","name":"Eneco eMobility Dusseldorp BMW - Hoorn","address":"De Compagnie 27","city":"Hoorn","operatorName":"Eneco","maxPowerKw":200,"isMegawatt":false,"status":"AVAILABLE","source":"ndw","priceKwh":0.6}},{"type":"Feature","geometry":{"type":"Point","coordinates":[5.063492,52.639877]},"properties":{"type":"charge","layer":"passenger","locationId":"1252","name":"Shell Recharge NL Grote Oost 68","address":"Grote Oost 68","city":"Hoorn","operatorName":"Ubitricity","maxPowerKw":22,"isMegawatt":false,"status":"AVAILABLE","source":"ndw","priceKwh":0.266}},{"type":"Feature","geometry":{"type":"Point","coordinates":[5.08829,52.670799]},"properties":{"type":"charge","layer":"passenger","locationId":"f41720dd-e02c-4c6f-93bc-0d7a41881501","name":"PP005469","address":"Achterkogge 7","city":"Zwaag","operatorName":"TotalEnergies","maxPowerKw":14,"isMegawatt":false,"status":"UNAVAILABLE","source":"ndw"}},{"type":"Feature","geometry":{"type":"Point","coordinates":[5.082215,52.641145]},"properties":{"type":"charge","layer":"passenger","locationId":"67eea2f9d7a5c92c8094e618","name":"Oranje Buiten","address":"Schelphoek 4","city":"Hoorn","operatorName":"E-Flux by Road","maxPowerKw":22,"isMegawatt":false,"status":"AVAILABLE","source":"ndw","priceKwh":0.53}},{"type":"Feature","geometry":{"type":"Point","coordinates":[5.045964,52.667437]},"properties":{"type":"charge","layer":"passenger","locationId":"13a974f1-b202-4f9a-8072-4217fd544a60","name":"TNLP034329","address":"Akkerwinde 75","city":"Hoorn","operatorName":"TotalEnergies","maxPowerKw":14,"isMegawatt":false,"status":"AVAILABLE","source":"ndw"}},{"type":"Feature","geometry":{"type":"Point","coordinates":[5.04526,52.66188]},"properties":{"type":"charge","layer":"passenger","locationId":"1598","name":"Shell Recharge NL Paardenweide 3","address":"Paardenweide 3","city":"Hoorn","operatorName":"Ubitricity","maxPowerKw":11,"isMegawatt":false,"status":"AVAILABLE","source":"ndw","priceKwh":0.388}},{"type":"Feature","geometry":{"type":"Point","coordinates":[5.06522,52.64461]},"properties":{"type":"charge","layer":"passenger","locationId":"177","name":"Shell Recharge NL Eikstraat 36","address":"Eikstraat 36","city":"Hoorn","operatorName":"Ubitricity","maxPowerKw":11,"isMegawatt":false,"status":"CHARGING","source":"ndw","priceKwh":0.388}},{"type":"Feature","geometry":{"type":"Point","coordinates":[5.109468,52.653042]},"properties":{"type":"charge","layer":"passenger","locationId":"87cd01ba-aa0d-4f68-82c6-a4513a4d19ab","name":"TNLP034215","address":"Bazillehof 70","city":"Hoorn","operatorName":"TotalEnergies","maxPowerKw":14,"isMegawatt":false,"status":"AVAILABLE","source":"ndw"}},{"type":"Feature","geometry":{"type":"Point","coordinates":[5.036195,52.64118]},"properties":{"type":"charge","layer":"passenger","locationId":"2fc8b26a765fba5916ddd32573b797a4","name":"Boogschutter 2","address":"Boogschutter 2","city":"Hoorn","operatorName":"Vattenfall InCharge","maxPowerKw":11,"isMegawatt":false,"status":"AVAILABLE","source":"ndw"}},{"type":"Feature","geometry":{"type":"Point","coordinates":[5.04752,52.66498]},"properties":{"type":"charge","layer":"passenger","locationId":"151","name":"Shell Recharge NL Sleutelbloem 2","address":"Sleutelbloem 2","city":"Zwaag","operatorName":"Ubitricity","maxPowerKw":11,"isMegawatt":false,"status":"AVAILABLE","source":"ndw","priceKwh":0.388}},{"type":"Feature","geometry":{"type":"Point","coordinates":[5.041986,52.665469]},"properties":{"type":"charge","layer":"passenger","locationId":"864d4dec-5ec5-4c50-a907-0ebcbd2669c2","name":"TNLP005998","address":"Klaproos 99","city":"Zwaag","operatorName":"TotalEnergies","maxPowerKw":14,"isMegawatt":false,"status":"UNAVAILABLE","source":"ndw"}},{"type":"Feature","geometry":{"type":"Point","coordinates":[5.06201,52.64378]},"properties":{"type":"charge","layer":"passenger","locationId":"1493","name":"Shell Recharge NL Eikstraat 2","address":"Eikstraat 2","city":"Hoorn","operatorName":"Ubitricity","maxPowerKw":11,"isMegawatt":false,"status":"AVAILABLE","source":"ndw","priceKwh":0.388}},{"type":"Feature","geometry":{"type":"Point","coordinates":[5.093529,52.651483]},"properties":{"type":"charge","layer":"passenger","locationId":"32ab5961-c68f-4c7f-aeee-cbbe590cd368","name":"TNLP034211","address":"Ceder 64","city":"Hoorn","operatorName":"TotalEnergies","maxPowerKw":14,"isMegawatt":false,"status":"AVAILABLE","source":"ndw"}},{"type":"Feature","geometry":{"type":"Point","coordinates":[5.048522,52.654359]},"properties":{"type":"charge","layer":"passenger","locationId":"064d6fd8dd2dddaf17f3f55ea72a3969","name":"Breeuwer 40","address":"Breeuwer 40","city":"Hoorn","operatorName":"Vattenfall InCharge","maxPowerKw":11,"isMegawatt":false,"status":"AVAILABLE","source":"ndw"}},{"type":"Feature","geometry":{"type":"Point","coordinates":[5.083102,52.680708]},"properties":{"type":"charge","layer":"passenger","locationId":"649ac4c6d0ce17001cfde17f","name":"Autoschade Dampten laadpaal 1 voorzijde betaald","address":"David Ricardoweg 1","city":"Zwaag","operatorName":"E-Flux by Road","maxPowerKw":22,"isMegawatt":false,"status":"AVAILABLE","source":"ndw","priceKwh":0.68}},{"type":"Feature","geometry":{"type":"Point","coordinates":[5.064583,52.660317]},"properties":{"type":"charge","layer":"passenger","locationId":"69f1f192de7a63bd45c1a629","name":"wesley post's station","address":"De Oude Veiling  82","city":"Zwaag","operatorName":"Vattenfall","maxPowerKw":22,"isMegawatt":false,"status":"AVAILABLE","source":"ndw","priceKwh":0.289}},{"type":"Feature","geometry":{"type":"Point","coordinates":[5.026806,52.63668]},"properties":{"type":"charge","layer":"passenger","locationId":"03f86a73-8508-492e-93e6-7ef0abefedee","name":"TNLP015220","address":"Weidemolen 1","city":"Hoorn","operatorName":"TotalEnergies","maxPowerKw":17,"isMegawatt":false,"status":"CHARGING","source":"ndw"}},{"type":"Feature","geometry":{"type":"Point","coordinates":[5.05149,52.64499]},"properties":{"type":"charge","layer":"passenger","locationId":"FC7577C4-FA70-4581-AB87-71C937CE0165","name":"Eneco eMobility ING Bank NV - Stationsweg 5","address":"Stationsweg 5","city":"Hoorn","operatorName":"Eneco","maxPowerKw":0,"isMegawatt":false,"status":"AVAILABLE","source":"ndw","priceKwh":0.3}},{"type":"Feature","geometry":{"type":"Point","coordinates":[5.0720882,52.66526]},"properties":{"type":"charge","layer":"passenger","locationId":"783","name":"Shell Recharge NL Fruitlaan 99","address":"Fruitlaan 99","city":"Hoorn","operatorName":"Ubitricity","maxPowerKw":22,"isMegawatt":false,"status":"AVAILABLE","source":"ndw","priceKwh":0.266}},{"type":"Feature","geometry":{"type":"Point","coordinates":[5.052107,52.642642]},"properties":{"type":"charge","layer":"passenger","locationId":"5A1B7F8B-A829-4FE7-93B3-F03A7BF72D4F","name":"TNLP009064","address":"Vale hen 8","city":"Hoorn","operatorName":"TotalEnergies","maxPowerKw":17,"isMegawatt":false,"status":"UNAVAILABLE","source":"ndw"}},{"type":"Feature","geometry":{"type":"Point","coordinates":[5.10919,52.65386]},"properties":{"type":"charge","layer":"passenger","locationId":"628","name":"Shell Recharge NL Cezannehof 77","address":"Cezannehof 77","city":"Hoorn","operatorName":"Ubitricity","maxPowerKw":11,"isMegawatt":false,"status":"AVAILABLE","source":"ndw","priceKwh":0.388}},{"type":"Feature","geometry":{"type":"Point","coordinates":[5.072178,52.666667]},"properties":{"type":"charge","layer":"passenger","locationId":"d7bcff2a-a1d7-473d-9822-c5a6f078f78d","name":"TNLP034231","address":"Anjerhof 1","city":"Zwaag","operatorName":"TotalEnergies","maxPowerKw":14,"isMegawatt":false,"status":"AVAILABLE","source":"ndw"}},{"type":"Feature","geometry":{"type":"Point","coordinates":[5.09399,52.656699]},"properties":{"type":"charge","layer":"passenger","locationId":"995","name":"Shell Recharge NL Kap 43","address":"Kap 43","city":"Hoorn","operatorName":"Ubitricity","maxPowerKw":22,"isMegawatt":false,"status":"AVAILABLE","source":"ndw","priceKwh":0.266}},{"type":"Feature","geometry":{"type":"Point","coordinates":[5.05098,52.667321]},"properties":{"type":"charge","layer":"passenger","locationId":"609be225fb8c761eab46027b","name":"Sculetus laadpaal","address":"Weegbree 5","city":"Zwaag","operatorName":"E-Flux by Road","maxPowerKw":11,"isMegawatt":false,"status":"AVAILABLE","source":"ndw","priceKwh":0.53}},{"type":"Feature","geometry":{"type":"Point","coordinates":[5.084592,52.667877]},"properties":{"type":"charge","layer":"passenger","locationId":"14122223-adaf-434c-b1d8-81ead6018c9a","name":"TNLP034016","address":"Grote Waard 54","city":"Hoorn","operatorName":"TotalEnergies","maxPowerKw":14,"isMegawatt":false,"status":"CHARGING","source":"ndw"}},{"type":"Feature","geometry":{"type":"Point","coordinates":[5.048338,52.668287]},"properties":{"type":"charge","layer":"passenger","locationId":"78fd9b30-6a80-40ae-abe2-e5129e1dd68a","name":"TNLP034259","address":"Weegbree 107","city":"Zwaag","operatorName":"TotalEnergies","maxPowerKw":14,"isMegawatt":false,"status":"AVAILABLE","source":"ndw"}},{"type":"Feature","geometry":{"type":"Point","coordinates":[5.04917,52.65167]},"properties":{"type":"charge","layer":"passenger","locationId":"7b2a6e237135f8c585665d78d13dd337","name":"Lijndraaier 35","address":"Lijndraaier 35","city":"Hoorn","operatorName":"Vattenfall InCharge","maxPowerKw":11,"isMegawatt":false,"status":"AVAILABLE","source":"ndw"}},{"type":"Feature","geometry":{"type":"Point","coordinates":[5.09631,52.65692]},"properties":{"type":"charge","layer":"passenger","locationId":"317","name":"Shell Recharge NL Jacques Bloemhof 14","address":"Jacques Bloemhof 14","city":"Hoorn","operatorName":"Ubitricity","maxPowerKw":11,"isMegawatt":false,"status":"AVAILABLE","source":"ndw","priceKwh":0.388}},{"type":"Feature","geometry":{"type":"Point","coordinates":[5.067779,52.672658]},"properties":{"type":"charge","layer":"passenger","locationId":"652508e98868340020d3ba1b","name":"DTG1","address":"De Corantijn 65","city":"Zwaag","operatorName":"E-Flux by Road","maxPowerKw":11,"isMegawatt":false,"status":"AVAILABLE","source":"ndw","priceKwh":0.36}},{"type":"Feature","geometry":{"type":"Point","coordinates":[5.02963,52.6372]},"properties":{"type":"charge","layer":"passenger","locationId":"635","name":"Shell Recharge NL Houtzaagmolen 177","address":"Houtzaagmolen 177","city":"Hoorn","operatorName":"Ubitricity","maxPowerKw":11,"isMegawatt":false,"status":"AVAILABLE","source":"ndw","priceKwh":0.388}},{"type":"Feature","geometry":{"type":"Point","coordinates":[5.090859,52.653735]},"properties":{"type":"charge","layer":"passenger","locationId":"05d07599a55df57347e54a0fdcba3666","name":"Moerbalk 80","address":"Moerbalk 80","city":"Hoorn","operatorName":"Vattenfall InCharge","maxPowerKw":11,"isMegawatt":false,"status":"AVAILABLE","source":"ndw"}},{"type":"Feature","geometry":{"type":"Point","coordinates":[5.079135,52.662356]},"properties":{"type":"charge","layer":"passenger","locationId":"c800b319-c2d9-44be-b557-8847a083530c","name":"TNLP034625","address":"Nieuwlicht 38","city":"Hoorn","operatorName":"TotalEnergies","maxPowerKw":14,"isMegawatt":false,"status":"AVAILABLE","source":"ndw"}},{"type":"Feature","geometry":{"type":"Point","coordinates":[5.090135,52.665856]},"properties":{"type":"charge","layer":"passenger","locationId":"62bbca9d-f3ef-4008-92bd-8f82716be4a2","name":"TNLP034031","address":"Tom Karstenstraat 2","city":"Blokker","operatorName":"TotalEnergies","maxPowerKw":14,"isMegawatt":false,"status":"AVAILABLE","source":"ndw"}},{"type":"Feature","geometry":{"type":"Point","coordinates":[5.093108,52.666142]},"properties":{"type":"charge","layer":"passenger","locationId":"a6c294db5750da8cdaa920d8f2a5bbe7","name":"Dokter Barnhoornstraat 2","address":"Dokter Barnhoornstraat 2","city":"Blokker","operatorName":"Vattenfall InCharge","maxPowerKw":11,"isMegawatt":false,"status":"AVAILABLE","source":"ndw"}},{"type":"Feature","geometry":{"type":"Point","coordinates":[5.0581248,52.664481]},"properties":{"type":"charge","layer":"passenger","locationId":"2153","name":"Shell Recharge NL Langetuin 168","address":"Langetuin 168","city":"Hoorn","operatorName":"Ubitricity","maxPowerKw":22,"isMegawatt":false,"status":"AVAILABLE","source":"ndw","priceKwh":0.266}},{"type":"Feature","geometry":{"type":"Point","coordinates":[5.073987,52.666377]},"properties":{"type":"charge","layer":"passenger","locationId":"672886314906b20758dfa3965c682ef7","name":"Fruitlaan 29","address":"Fruitlaan 29","city":"Zwaag","operatorName":"Vattenfall InCharge","maxPowerKw":11,"isMegawatt":false,"status":"AVAILABLE","source":"ndw"}},{"type":"Feature","geometry":{"type":"Point","coordinates":[5.02307,52.6385]},"properties":{"type":"charge","layer":"passenger","locationId":"304","name":"Shell Recharge NL Oliemolen 107","address":"Oliemolen 107","city":"Hoorn","operatorName":"Ubitricity","maxPowerKw":11,"isMegawatt":false,"status":"AVAILABLE","source":"ndw","priceKwh":0.388}},{"type":"Feature","geometry":{"type":"Point","coordinates":[5.071004,52.649659]},"properties":{"type":"charge","layer":"passenger","locationId":"0a1ef0a6-b36b-4403-b571-378b69fd9c7f","name":"TNLP006154","address":"Vermeerlaan 13","city":"Hoorn","operatorName":"TotalEnergies","maxPowerKw":14,"isMegawatt":false,"status":"UNAVAILABLE","source":"ndw"}},{"type":"Feature","geometry":{"type":"Point","coordinates":[5.086902,52.656211]},"properties":{"type":"charge","layer":"passenger","locationId":"3a1a05a1-b0a8-40d4-a599-c28043033dfe","name":"TNLP015307","address":"Watersnip 50","city":"Hoorn","operatorName":"TotalEnergies","maxPowerKw":17,"isMegawatt":false,"status":"AVAILABLE","source":"ndw"}},{"type":"Feature","geometry":{"type":"Point","coordinates":[5.0550333,52.6568003]},"properties":{"type":"charge","layer":"passenger","locationId":"808","name":"Shell Recharge NL De Huesmolen 209","address":"De Huesmolen 209","city":"Hoorn","operatorName":"Ubitricity","maxPowerKw":22,"isMegawatt":false,"status":"AVAILABLE","source":"ndw","priceKwh":0.266}},{"type":"Feature","geometry":{"type":"Point","coordinates":[5.0742,52.67383]},"properties":{"type":"charge","layer":"passenger","locationId":"CA1956B7-C2F3-4339-89F5-35D7FAB5049C","name":"Eneco eMobility Broekhuis Volkswagen Audi Skoda Zwaag","address":"De Marowijne 53","city":"Zwaag","operatorName":"Eneco","maxPowerKw":25,"isMegawatt":false,"status":"AVAILABLE","source":"ndw","priceKwh":0.38}},{"type":"Feature","geometry":{"type":"Point","coordinates":[5.09187,52.649248]},"properties":{"type":"charge","layer":"passenger","locationId":"cba100d4c3e076d5e8c78bc17e41b955","name":"Dubloen 145","address":"Dubloen 145","city":"Hoorn","operatorName":"Vattenfall InCharge","maxPowerKw":11,"isMegawatt":false,"status":"AVAILABLE","source":"ndw"}},{"type":"Feature","geometry":{"type":"Point","coordinates":[5.088492,52.656722]},"properties":{"type":"charge","layer":"passenger","locationId":"809fcfea-960a-4a27-8a60-78808f2270a1","name":"TNLP034222","address":"Kievit 111","city":"Hoorn","operatorName":"TotalEnergies","maxPowerKw":14,"isMegawatt":false,"status":"AVAILABLE","source":"ndw"}},{"type":"Feature","geometry":{"type":"Point","coordinates":[5.039918,52.667866]},"properties":{"type":"charge","layer":"passenger","locationId":"4f171764-026e-4586-8ebd-c8d7003d7a45","name":"TNLP034213","address":"Kamille 48","city":"Zwaag","operatorName":"TotalEnergies","maxPowerKw":14,"isMegawatt":false,"status":"AVAILABLE","source":"ndw"}},{"type":"Feature","geometry":{"type":"Point","coordinates":[5.082362,52.647276]},"properties":{"type":"charge","layer":"passenger","locationId":"aab6fbdff1d35b80106b863a06fb30f1","name":"Veranda 49","address":"Veranda 49","city":"Hoorn","operatorName":"Vattenfall InCharge","maxPowerKw":11,"isMegawatt":false,"status":"AVAILABLE","source":"ndw"}},{"type":"Feature","geometry":{"type":"Point","coordinates":[5.084528,52.672208]},"properties":{"type":"charge","layer":"passenger","locationId":"5533ddc0-a5f1-4d4a-96c8-1ed6551d9e0e","name":"Schouwmeester 80","address":"Schouwmeester 80","city":"Zwaag","operatorName":"Vattenfall InCharge","maxPowerKw":22,"isMegawatt":false,"status":"AVAILABLE","source":"ndw"}},{"type":"Feature","geometry":{"type":"Point","coordinates":[5.05827,52.6454]},"properties":{"type":"charge","layer":"passenger","locationId":"92073855981f1841e6dbfb6d019cb3ac","name":"Koepoortsweg 30","address":"Koepoortsweg 30","city":"Hoorn","operatorName":"Vattenfall InCharge","maxPowerKw":11,"isMegawatt":false,"status":"CHARGING","source":"ndw"}},{"type":"Feature","geometry":{"type":"Point","coordinates":[5.07833,52.65197]},"properties":{"type":"charge","layer":"passenger","locationId":"76E6AE2B-E780-4860-8E04-1EE8CE4E5D23","name":"TNLP008352","address":"Winterkoninkje 53","city":"Hoorn","operatorName":"TotalEnergies","maxPowerKw":14,"isMegawatt":false,"status":"AVAILABLE","source":"ndw"}},{"type":"Feature","geometry":{"type":"Point","coordinates":[5.0537161,52.669673]},"properties":{"type":"charge","layer":"passenger","locationId":"1945","name":"Shell Recharge NL Kieftentuin 28","address":"Kieftentuin 28","city":"Zwaag","operatorName":"Ubitricity","maxPowerKw":22,"isMegawatt":false,"status":"AVAILABLE","source":"ndw","priceKwh":0.266}},{"type":"Feature","geometry":{"type":"Point","coordinates":[5.046804,52.668504]},"properties":{"type":"charge","layer":"passenger","locationId":"5cf7eafa-18f6-4847-99da-efe24b93eb2c","name":"TNLP015159","address":"Hondsdraf 52","city":"Hoorn","operatorName":"TotalEnergies","maxPowerKw":17,"isMegawatt":false,"status":"AVAILABLE","source":"ndw"}},{"type":"Feature","geometry":{"type":"Point","coordinates":[5.101613,52.648517]},"properties":{"type":"charge","layer":"passenger","locationId":"2abc0750b7418d2be1bac7ae61328fcf","name":"Robert Stolzhof 15","address":"Robert Stolzhof 15","city":"Hoorn","operatorName":"Vattenfall InCharge","maxPowerKw":11,"isMegawatt":false,"status":"AVAILABLE","source":"ndw"}},{"type":"Feature","geometry":{"type":"Point","coordinates":[5.06215,52.6393]},"properties":{"type":"charge","layer":"passenger","locationId":"1469","name":"Shell Recharge NL Bottelsteeg 4","address":"Bottelsteeg 4","city":"Hoorn","operatorName":"Ubitricity","maxPowerKw":11,"isMegawatt":false,"status":"CHARGING","source":"ndw","priceKwh":0.388}},{"type":"Feature","geometry":{"type":"Point","coordinates":[5.057187,52.642845]},"properties":{"type":"charge","layer":"passenger","locationId":"5142e94b-4ddb-4e7a-a6bf-cf63b75b3bc9","name":"TNLP015130","address":"Gedempte Turfhaven 1A","city":"Hoorn","operatorName":"TotalEnergies","maxPowerKw":17,"isMegawatt":false,"status":"AVAILABLE","source":"ndw"}},{"type":"Feature","geometry":{"type":"Point","coordinates":[5.076134,52.652942]},"properties":{"type":"charge","layer":"passenger","locationId":"44380bd0-6b5b-4b5b-9070-59d1aea3309b","name":"TNLP015244","address":"Kluut 38","city":"Hoorn","operatorName":"TotalEnergies","maxPowerKw":17,"isMegawatt":false,"status":"AVAILABLE","source":"ndw"}},{"type":"Feature","geometry":{"type":"Point","coordinates":[5.053398,52.651022]},"properties":{"type":"charge","layer":"passenger","locationId":"69772a2cfdb491ebf619318c","name":"Sense Keukens B.V.","address":"Dr CJK van Aalstweg 16","city":"Hoorn","operatorName":"E-Flux by Road","maxPowerKw":11,"isMegawatt":false,"status":"UNAVAILABLE","source":"ndw","priceKwh":0.48}},{"type":"Feature","geometry":{"type":"Point","coordinates":[5.099399,52.652318]},"properties":{"type":"charge","layer":"passenger","locationId":"99d08947-d255-4f79-8e22-17d39d89dfa3","name":"TNLP034320","address":"Cole Porterhof 78","city":"Hoorn","operatorName":"TotalEnergies","maxPowerKw":14,"isMegawatt":false,"status":"AVAILABLE","source":"ndw"}},{"type":"Feature","geometry":{"type":"Point","coordinates":[5.108709,52.650166]},"properties":{"type":"charge","layer":"passenger","locationId":"c0ae5e5f32eb288fc8393074785cb3f4","name":"Breitnerhof 87","address":"Breitnerhof 87","city":"Hoorn","operatorName":"Vattenfall InCharge","maxPowerKw":11,"isMegawatt":false,"status":"CHARGING","source":"ndw"}},{"type":"Feature","geometry":{"type":"Point","coordinates":[5.09188,52.6497]},"properties":{"type":"charge","layer":"passenger","locationId":"dbb72dacc8beaf82293d984974c54112","name":"Dubloen 163","address":"Dubloen 163","city":"Hoorn","operatorName":"Vattenfall InCharge","maxPowerKw":11,"isMegawatt":false,"status":"AVAILABLE","source":"ndw"}},{"type":"Feature","geometry":{"type":"Point","coordinates":[5.035599,52.637618]},"properties":{"type":"charge","layer":"passenger","locationId":"46785f72-d556-4aa2-91e2-81fa419c99e2","name":"TNLP015231","address":"Poolster 49","city":"Hoorn","operatorName":"TotalEnergies","maxPowerKw":17,"isMegawatt":false,"status":"AVAILABLE","source":"ndw"}},{"type":"Feature","geometry":{"type":"Point","coordinates":[5.078292,52.646022]},"properties":{"type":"charge","layer":"passenger","locationId":"FB8EDF17-BD17-4EC8-8D99-CDFD400BE330","name":"TNLP009681","address":"Holenweg 4","city":"Hoorn","operatorName":"TotalEnergies","maxPowerKw":17,"isMegawatt":false,"status":"AVAILABLE","source":"ndw"}},{"type":"Feature","geometry":{"type":"Point","coordinates":[5.038388,52.643026]},"properties":{"type":"charge","layer":"passenger","locationId":"41533be0-f3b3-4c2d-9b5e-5c4c29d00d2a","name":"TNLP034324","address":"Noorderlicht 106","city":"Hoorn","operatorName":"TotalEnergies","maxPowerKw":14,"isMegawatt":false,"status":"AVAILABLE","source":"ndw"}},{"type":"Feature","geometry":{"type":"Point","coordinates":[5.081305,52.652625]},"properties":{"type":"charge","layer":"passenger","locationId":"af5a5ba9d5edac3c531e0c7ab1164fdd","name":"Ekster 27","address":"Ekster 27","city":"Hoorn","operatorName":"Vattenfall InCharge","maxPowerKw":11,"isMegawatt":false,"status":"AVAILABLE","source":"ndw"}},{"type":"Feature","geometry":{"type":"Point","coordinates":[5.0874,52.67822]},"properties":{"type":"charge","layer":"passenger","locationId":"5acf559d6816afcc270338e2a3e12625","name":"Wierdijk 163","address":"Wierdijk 163","city":"Hoorn","operatorName":"Vattenfall InCharge","maxPowerKw":11,"isMegawatt":false,"status":"AVAILABLE","source":"ndw"}},{"type":"Feature","geometry":{"type":"Point","coordinates":[5.039288,52.654108]},"properties":{"type":"charge","layer":"passenger","locationId":"63208ab345cfbc0b2b888647","name":"Samcity Paal 2","address":"Westfriese Parkweg 4","city":"Hoorn","operatorName":"E-Flux by Road","maxPowerKw":22,"isMegawatt":false,"status":"AVAILABLE","source":"ndw","priceKwh":0.62}},{"type":"Feature","geometry":{"type":"Point","coordinates":[5.061632,52.66163]},"properties":{"type":"charge","layer":"passenger","locationId":"62E682BB-5AC5-4CA0-87DB-E99DC51FF06C","name":"TNLP009497","address":"Botter 65","city":"Hoorn","operatorName":"TotalEnergies","maxPowerKw":17,"isMegawatt":false,"status":"AVAILABLE","source":"ndw"}},{"type":"Feature","geometry":{"type":"Point","coordinates":[5.079265,52.649509]},"properties":{"type":"charge","layer":"passenger","locationId":"f86e99a617c059d85b737fc898db1755","name":"Gording 54","address":"Gording 54","city":"Hoorn","operatorName":"Vattenfall InCharge","maxPowerKw":11,"isMegawatt":false,"status":"AVAILABLE","source":"ndw"}},{"type":"Feature","geometry":{"type":"Point","coordinates":[5.081925,52.664085]},"properties":{"type":"charge","layer":"passenger","locationId":"7273f2b7f41d7453a82ddb285f05e848","name":"Refter 28","address":"Refter 28","city":"Blokker","operatorName":"Vattenfall InCharge","maxPowerKw":11,"isMegawatt":false,"status":"AVAILABLE","source":"ndw"}},{"type":"Feature","geometry":{"type":"Point","coordinates":[5.055758,52.664128]},"properties":{"type":"charge","layer":"passenger","locationId":"8d62ab8c4b8a4a4728d04ca5d29fc391","name":"Langetuin 106","address":"Langetuin 106","city":"Zwaag","operatorName":"Vattenfall InCharge","maxPowerKw":11,"isMegawatt":false,"status":"AVAILABLE","source":"ndw"}},{"type":"Feature","geometry":{"type":"Point","coordinates":[5.068242,52.648976]},"properties":{"type":"charge","layer":"passenger","locationId":"6078c4f0-b089-441e-9b72-64e0a5dac2ff","name":"TNLP034692","address":"van Goyenstraat 7","city":"Hoorn","operatorName":"TotalEnergies","maxPowerKw":14,"isMegawatt":false,"status":"AVAILABLE","source":"ndw"}},{"type":"Feature","geometry":{"type":"Point","coordinates":[5.063597,52.666804]},"properties":{"type":"charge","layer":"passenger","locationId":"6DF26FF0-3EB0-4FF2-9CBB-09F57F0CF5BE","name":"Eneco eMobility Hedin Automotive 6K B.V. - De Factorij 5 - Zwaag","address":"De Factorij 5","city":"Zwaag","operatorName":"Eneco","maxPowerKw":11,"isMegawatt":false,"status":"AVAILABLE","source":"ndw","priceKwh":0.32}},{"type":"Feature","geometry":{"type":"Point","coordinates":[5.107325,52.649841]},"properties":{"type":"charge","layer":"passenger","locationId":"95e76b2c8aa860a1470c04d20fc6f2b0","name":"Matissehof  165","address":"Matissehof  165","city":"Hoorn","operatorName":"Vattenfall InCharge","maxPowerKw":11,"isMegawatt":false,"status":"AVAILABLE","source":"ndw"}},{"type":"Feature","geometry":{"type":"Point","coordinates":[5.040923,52.666204]},"properties":{"type":"charge","layer":"passenger","locationId":"775b49095d35d90b3f215699113f6e54","name":"Klaproos 62","address":"Klaproos 62","city":"Zwaag","operatorName":"Vattenfall InCharge","maxPowerKw":11,"isMegawatt":false,"status":"AVAILABLE","source":"ndw"}},{"type":"Feature","geometry":{"type":"MultiPolygon","coordinates":[[[[5.086729731571024,52.68436548296817],[5.08938574217833,52.68056280100737],[5.091751583476005,52.67892371219081],[5.096104415937745,52.67488897816504],[5.0964837445641535,52.67433035088683],[5.0988174792778675,52.67126182817852],[5.096668801193146,52.670345981422166],[5.096933226682678,52.670107615479466],[5.096206974466625,52.66981363096835],[5.0962652888185325,52.669722833796854],[5.09874877032586,52.66743633879652],[5.100887921228645,52.6658199167446],[5.101418910051386,52.66603184744811],[5.102782833475216,52.664772569256186],[5.103098973966122,52.6648959425213],[5.103410665132382,52.66456750770737],[5.104051895723283,52.66395544414866],[5.104861058023319,52.664295780831424],[5.106270469176403,52.66300445653871],[5.106553195554269,52.663149825708224],[5.107633807011073,52.662157412151096],[5.10723204070408,52.66199564580914],[5.108324253287692,52.66079574281277],[5.108039096427103,52.660692757698754],[5.108230631752388,52.66040155928344],[5.10800305401053,52.66026944711218],[5.108071480045633,52.65994850088449],[5.1075902841658705,52.65971998902358],[5.111338720094011,52.65722188673205],[5.110684451979001,52.65670538864338],[5.114758037801182,52.653782829446264],[5.1161147090055135,52.65431154901307],[5.119413074866138,52.65116312579681],[5.1164402064962236,52.65062285962236],[5.117077395173096,52.64998570853967],[5.105191188829083,52.64779058790854],[5.101963081769099,52.64702842302741],[5.103603991008606,52.6417365369922],[5.106044080822065,52.63558977591778],[5.1007532284218655,52.63473708012531],[5.093199387546829,52.63989299753013],[5.092425100435625,52.640787737048925],[5.089491860301949,52.64016675160371],[5.088656211723819,52.64251077362939],[5.08344719120559,52.641586236247996],[5.0842849644201875,52.64086408418655],[5.0882887472379075,52.639751207108844],[5.088354350528253,52.639429021773175],[5.0862771114616825,52.640075741940585],[5.0859281593248316,52.63981360853085],[5.088419492055675,52.638344109815456],[5.087754759756218,52.637815770399456],[5.08569485205555,52.63966083750413],[5.084514220756466,52.64049228341624],[5.0816653718830205,52.641290377811394],[5.0814112726124465,52.641544436234106],[5.079475422213203,52.64063952644945],[5.07850365940571,52.641482875130606],[5.07688629010082,52.641327922954936],[5.075238683191585,52.64047457361919],[5.075384592878526,52.63954128115093],[5.068073553030993,52.634838046736505],[5.064400790206173,52.63698384150898],[5.0670270388985275,52.63728221323817],[5.066950665268902,52.63840222684492],[5.065671978107056,52.63835088114742],[5.063764210285412,52.63739396496828],[5.063562567731994,52.637639161507906],[5.065683027362204,52.63904232327533],[5.0684782478712505,52.639254898633574],[5.068311899033898,52.64020463549408],[5.066985543201248,52.640055018665315],[5.066463403824774,52.640768821516694],[5.0662982070370095,52.640721695860655],[5.066216613125961,52.640601796984356],[5.066421971376141,52.64060937909964],[5.066545217302553,52.64037936257275],[5.066235762677795,52.640308214121184],[5.066138014452699,52.639265239367454],[5.064678823128452,52.63903558433591],[5.062978025171732,52.63788824343525],[5.0629952730982035,52.63722043839437],[5.063444859052371,52.63750637207175],[5.06357112319209,52.63731086983581],[5.063150996643171,52.636962379565325],[5.062973241281657,52.63348751808967],[5.061804512905267,52.633587598957924],[5.061802299254398,52.63648384631465],[5.058238461060297,52.636846588003685],[5.057777185130883,52.63459383341533],[5.060464513910238,52.633840321279116],[5.060436853517057,52.63309960664521],[5.055543451232541,52.63395082620877],[5.0555433586549245,52.635834157037614],[5.057209144925846,52.637505989077326],[5.056939454909242,52.63800904862539],[5.052215414389358,52.64142227138543],[5.045660853171847,52.641637004154646],[5.039961546812268,52.63803963964146],[5.038995386243397,52.63661418498007],[5.034865865316841,52.63645495894421],[5.029789789947019,52.635537312815025],[5.027360924532297,52.63403241849929],[5.023106716850809,52.632788321943174],[5.018902294111895,52.62991912553804],[5.016860083133598,52.63027829196087],[5.016492422899573,52.63085459747154],[5.013535177285101,52.63043164023432],[5.01487323698512,52.634995930721495],[5.018290682065158,52.638263663858766],[5.0263864501898174,52.6417411890589],[5.027031700778801,52.64198919780456],[5.0299203050520385,52.643509296454575],[5.0340707806825975,52.64574623396833],[5.037138147017875,52.64765794417531],[5.038142251097065,52.64896120758846],[5.0376772231263125,52.6502298088824],[5.038928412091418,52.65614064709544],[5.036582839517534,52.66206305996458],[5.034761683842946,52.66655647495979],[5.035539054965289,52.67045307611001],[5.038305575659712,52.67080621328628],[5.045458405777867,52.67174278588529],[5.048881957374843,52.67203030054475],[5.051538554955818,52.672208063657],[5.063454644855399,52.67313344213575],[5.062493427822124,52.6748815811303],[5.062359152136423,52.67507331500446],[5.062138633156509,52.67525113245007],[5.063345520203977,52.67579723545716],[5.0622910272689845,52.67670768604585],[5.082605987787954,52.68400321472371],[5.083001660422426,52.683200842981805],[5.086729731571024,52.68436548296817]]]]},"properties":{"type":"boundary","gemeente":"Hoorn","code":"GM0405"}}]}