{"type":"FeatureCollection","metadata":{"gemeente":"IJsselstein","slug":"ijsselstein","code":"GM0353","generated_at":"2026-06-02T13:19:22.438Z","total_passenger":189,"total_freight":0,"bounds":[4.978392416352495,51.99123318293138,5.077717271314899,52.06114306357085],"operators":["DAEN Mobility","E-Flux by Road","Eneco","Laadnet","Shell Recharge","TotalEnergies","Ubitricity","Vattenfall InCharge","e-VOLTT"]},"features":[{"type":"Feature","geometry":{"type":"Point","coordinates":[5.044518,52.009425]},"properties":{"type":"charge","layer":"passenger","locationId":"25576dea-a8b8-11eb-82b7-42010a840064","name":"TNLP006137","address":"Dakotahof 18","city":"IJsselstein","operatorName":"TotalEnergies","maxPowerKw":17,"isMegawatt":false,"status":"AVAILABLE","source":"ndw"}},{"type":"Feature","geometry":{"type":"Point","coordinates":[5.033729,52.009801]},"properties":{"type":"charge","layer":"passenger","locationId":"59aca994-9737-11f0-9754-42010aa400b8","name":"Shell Recharge NL Aziesingel 11, IJsselstein","address":"Aziesingel 11","city":"IJsselstein","operatorName":"Ubitricity","maxPowerKw":22,"isMegawatt":false,"status":"AVAILABLE","source":"ndw"}},{"type":"Feature","geometry":{"type":"Point","coordinates":[5.058161,52.020815]},"properties":{"type":"charge","layer":"passenger","locationId":"d87f2f5a-b44f-11f0-b640-42010aa400b8","name":"TNLP008226","address":"Italielaan 23","city":"IJsselstein","operatorName":"TotalEnergies","maxPowerKw":17,"isMegawatt":false,"status":"AVAILABLE","source":"ndw"}},{"type":"Feature","geometry":{"type":"Point","coordinates":[5.04267,52.01311]},"properties":{"type":"charge","layer":"passenger","locationId":"a34dd992-4f3c-11e8-a2c4-42010a840002","name":"Shell Recharge NL Sofiastraat 6 IJsselstein","address":"Sofiastraat 6","city":"IJsselstein","operatorName":"Ubitricity","maxPowerKw":11,"isMegawatt":false,"status":"AVAILABLE","source":"ndw"}},{"type":"Feature","geometry":{"type":"Point","coordinates":[5.05145,52.02288]},"properties":{"type":"charge","layer":"passenger","locationId":"a42c0078-4f3c-11e8-905a-42010a840002","name":"Shell Recharge NL Andorrastraat 1 IJsselstein","address":"Andorrastraat 1","city":"IJsselstein","operatorName":"Ubitricity","maxPowerKw":11,"isMegawatt":false,"status":"AVAILABLE","source":"ndw"}},{"type":"Feature","geometry":{"type":"Point","coordinates":[5.052863,52.028339]},"properties":{"type":"charge","layer":"passenger","locationId":"25a831e4-a8b8-11eb-8725-42010a840064","name":"TNLP006130","address":"Ruimtevaartbaan 22","city":"IJsselstein","operatorName":"TotalEnergies","maxPowerKw":17,"isMegawatt":false,"status":"AVAILABLE","source":"ndw"}},{"type":"Feature","geometry":{"type":"Point","coordinates":[5.03759,52.01782]},"properties":{"type":"charge","layer":"passenger","locationId":"403692dc-db83-11f0-a0bc-42010aa400b8","name":"Eneco eMobility AxionContinu - Benschopperweg 14 - IJsselstein","address":"Benschopperweg 14","city":"IJsselstein","operatorName":"Eneco","maxPowerKw":11,"isMegawatt":false,"status":"AVAILABLE","source":"ndw"}},{"type":"Feature","geometry":{"type":"Point","coordinates":[5.0561662,52.021167]},"properties":{"type":"charge","layer":"passenger","locationId":"1876","name":"Shell Recharge NL Italielaan 44","address":"Italielaan 44","city":"IJsselstein","operatorName":"Ubitricity","maxPowerKw":22,"isMegawatt":false,"status":"AVAILABLE","source":"ndw"}},{"type":"Feature","geometry":{"type":"Point","coordinates":[5.033823,52.025854]},"properties":{"type":"charge","layer":"passenger","locationId":"1e5f4f78-580b-11ec-8d37-42010a840078","name":"TNLP006877","address":"Klompenmaker 15","city":"IJsselstein","operatorName":"TotalEnergies","maxPowerKw":17,"isMegawatt":false,"status":"CHARGING","source":"ndw"}},{"type":"Feature","geometry":{"type":"Point","coordinates":[5.046643,52.032262]},"properties":{"type":"charge","layer":"passenger","locationId":"b6ae811c-cb75-11ec-9d14-42010a840023","name":"TNLP007330","address":"Edelstenenbaan 52","city":"IJsselstein","operatorName":"TotalEnergies","maxPowerKw":17,"isMegawatt":false,"status":"CHARGING","source":"ndw"}},{"type":"Feature","geometry":{"type":"Point","coordinates":[5.030975,52.012298]},"properties":{"type":"charge","layer":"passenger","locationId":"89334eee-d877-11f0-baf4-42010aa400b8","name":"Shell Recharge NL Ruys de Beerenbrouckstraat 15, IJsselstein","address":"Ruys de Beerenbrouckstraat 15","city":"IJsselstein","operatorName":"Ubitricity","maxPowerKw":22,"isMegawatt":false,"status":"AVAILABLE","source":"ndw"}},{"type":"Feature","geometry":{"type":"Point","coordinates":[5.043738,52.011627]},"properties":{"type":"charge","layer":"passenger","locationId":"fe351dbc-9ec0-11eb-ac93-42010a840002","name":"TNLP005907","address":"Tuinensingel 25","city":"IJsselstein","operatorName":"TotalEnergies","maxPowerKw":17,"isMegawatt":false,"status":"AVAILABLE","source":"ndw"}},{"type":"Feature","geometry":{"type":"Point","coordinates":[5.044215,52.00951]},"properties":{"type":"charge","layer":"passenger","locationId":"08625c9e-ccae-11f0-9184-42010aa400b8","name":"Shell Recharge NL Dakotahof 22, IJsselstein","address":"Dakotahof 22","city":"IJsselstein","operatorName":"Ubitricity","maxPowerKw":22,"isMegawatt":false,"status":"AVAILABLE","source":"ndw"}},{"type":"Feature","geometry":{"type":"Point","coordinates":[5.0376,52.01649]},"properties":{"type":"charge","layer":"passenger","locationId":"3fe125ca-fb3a-11e9-9a27-42010a84000f","name":"Shell Recharge NL Van der Poststraat 12 IJsselstein","address":"Van der Poststraat 12","city":"IJsselstein","operatorName":"Ubitricity","maxPowerKw":11,"isMegawatt":false,"status":"AVAILABLE","source":"ndw"}},{"type":"Feature","geometry":{"type":"Point","coordinates":[5.056922,52.018049]},"properties":{"type":"charge","layer":"passenger","locationId":"OST21P0054_0013_0","name":"OST21P0054_0013_0","address":"Hoge Dijk 1","city":"IJsselstein","operatorName":"e-VOLTT","maxPowerKw":0,"isMegawatt":false,"status":"UNAVAILABLE","source":"ndw"}},{"type":"Feature","geometry":{"type":"Point","coordinates":[5.036804,52.009067]},"properties":{"type":"charge","layer":"passenger","locationId":"802ab7da-d22b-11f0-8e96-42010aa400b8","name":"TNLP006325","address":"Schepenensingel 2","city":"IJsselstein","operatorName":"TotalEnergies","maxPowerKw":17,"isMegawatt":false,"status":"AVAILABLE","source":"ndw"}},{"type":"Feature","geometry":{"type":"Point","coordinates":[5.0495859,52.0105818]},"properties":{"type":"charge","layer":"passenger","locationId":"2106","name":"Shell Recharge NL Cubahof 11","address":"Cubahof 11","city":"IJsselstein","operatorName":"Ubitricity","maxPowerKw":22,"isMegawatt":false,"status":"AVAILABLE","source":"ndw"}},{"type":"Feature","geometry":{"type":"Point","coordinates":[5.03511,52.01506]},"properties":{"type":"charge","layer":"passenger","locationId":"464","name":"Shell Recharge NL Jacob van Deventerstraat 44","address":"Jacob van Deventerstraat 44","city":"Ijsselstein","operatorName":"Ubitricity","maxPowerKw":11,"isMegawatt":false,"status":"AVAILABLE","source":"ndw"}},{"type":"Feature","geometry":{"type":"Point","coordinates":[5.047238,52.028673]},"properties":{"type":"charge","layer":"passenger","locationId":"dea340a2-65b6-11f0-8d5e-42010aa400b8","name":"TNLP008117","address":"Miranda 1","city":"IJsselstein","operatorName":"TotalEnergies","maxPowerKw":17,"isMegawatt":false,"status":"AVAILABLE","source":"ndw"}},{"type":"Feature","geometry":{"type":"Point","coordinates":[5.036804,52.009067]},"properties":{"type":"charge","layer":"passenger","locationId":"ea9151c0-90f3-11f0-aaf0-42010aa400b8","name":"TNLP006325","address":"Schepenensingel 2","city":"IJsselstein","operatorName":"TotalEnergies","maxPowerKw":17,"isMegawatt":false,"status":"AVAILABLE","source":"ndw"}},{"type":"Feature","geometry":{"type":"Point","coordinates":[5.04048,52.00892]},"properties":{"type":"charge","layer":"passenger","locationId":"29dff11c-88ed-11e9-be3e-42010a840032","name":"Shell Recharge NL Arizonahof 8 IJsselstein","address":"Arizonahof 8","city":"IJsselstein","operatorName":"Ubitricity","maxPowerKw":11,"isMegawatt":false,"status":"AVAILABLE","source":"ndw"}},{"type":"Feature","geometry":{"type":"Point","coordinates":[5.046268,52.021148]},"properties":{"type":"charge","layer":"passenger","locationId":"8b1c9d42-8692-11ef-b601-42010aa400b8","name":"Shell Recharge NL Utrechtsestraat 10, IJsselstein, [AN null]","address":"Utrechtsestraat 10","city":"IJsselstein","operatorName":"Ubitricity","maxPowerKw":22,"isMegawatt":false,"status":"AVAILABLE","source":"ndw"}},{"type":"Feature","geometry":{"type":"Point","coordinates":[5.035848,52.0289379]},"properties":{"type":"charge","layer":"passenger","locationId":"1824","name":"Shell Recharge NL Schonauwen 46","address":"Schonauwen 46","city":"IJsselstein","operatorName":"Ubitricity","maxPowerKw":22,"isMegawatt":false,"status":"AVAILABLE","source":"ndw"}},{"type":"Feature","geometry":{"type":"Point","coordinates":[5.042077,52.01303]},"properties":{"type":"charge","layer":"passenger","locationId":"c1e02e22-2c00-11ee-9745-42010aa40fc0","name":"TNLP009055","address":"Sofiastraat 7","city":"IJsselstein","operatorName":"TotalEnergies","maxPowerKw":17,"isMegawatt":false,"status":"AVAILABLE","source":"ndw"}},{"type":"Feature","geometry":{"type":"Point","coordinates":[5.056922,52.018049]},"properties":{"type":"charge","layer":"passenger","locationId":"OST21P0054_0013_1","name":"OST21P0054_0013_1","address":"Hoge Dijk 1","city":"IJsselstein","operatorName":"e-VOLTT","maxPowerKw":0,"isMegawatt":false,"status":"AVAILABLE","source":"ndw"}},{"type":"Feature","geometry":{"type":"Point","coordinates":[5.05517,52.02694]},"properties":{"type":"charge","layer":"passenger","locationId":"7de81e5e-8f30-11e8-99cc-42010a840002","name":"Shell Recharge NL Tereschkovahof 80 IJsselstein","address":"Tereschkovahof 80","city":"IJsselstein","operatorName":"Ubitricity","maxPowerKw":11,"isMegawatt":false,"status":"AVAILABLE","source":"ndw"}},{"type":"Feature","geometry":{"type":"Point","coordinates":[5.043766,52.027116]},"properties":{"type":"charge","layer":"passenger","locationId":"b2fc4d94-90c9-11ef-b99d-42010aa400b8","name":"Shell Recharge NL Wegahof 27, IJsselstein, [AN null]","address":"Wegahof 27","city":"IJsselstein","operatorName":"Ubitricity","maxPowerKw":22,"isMegawatt":false,"status":"AVAILABLE","source":"ndw"}},{"type":"Feature","geometry":{"type":"Point","coordinates":[5.056166,52.021167]},"properties":{"type":"charge","layer":"passenger","locationId":"ce7a4670-35ce-11f0-94aa-42010aa400b8","name":"Shell Recharge NL Italielaan 44, IJsselstein, [AN null]","address":"Italielaan 44","city":"IJsselstein","operatorName":"Ubitricity","maxPowerKw":22,"isMegawatt":false,"status":"AVAILABLE","source":"ndw"}},{"type":"Feature","geometry":{"type":"Point","coordinates":[5.044712,52.014192]},"properties":{"type":"charge","layer":"passenger","locationId":"4397e169-8891-44dd-b3a4-1e2b3e8583a3","name":"TNLP034146","address":"Marga Klompestraat 3","city":"IJsselstein","operatorName":"TotalEnergies","maxPowerKw":14,"isMegawatt":false,"status":"AVAILABLE","source":"ndw"}},{"type":"Feature","geometry":{"type":"Point","coordinates":[5.058534,52.013915]},"properties":{"type":"charge","layer":"passenger","locationId":"307a27fa-e32e-11ed-b922-42010aa40031","name":"Shell Recharge Tinbergenlaan 11","address":"Tinbergenlaan 11","city":"Ijsselstein","operatorName":"Shell Recharge","maxPowerKw":150,"isMegawatt":false,"status":"AVAILABLE","source":"ndw"}},{"type":"Feature","geometry":{"type":"Point","coordinates":[5.03732,52.00987]},"properties":{"type":"charge","layer":"passenger","locationId":"a4c80ffe-4f3c-11e8-a0c1-42010a840002","name":"Shell Recharge NL Hongkongstraat 1 IJsselstein","address":"Hongkongstraat 1","city":"IJsselstein","operatorName":"Ubitricity","maxPowerKw":11,"isMegawatt":false,"status":"AVAILABLE","source":"ndw"}},{"type":"Feature","geometry":{"type":"Point","coordinates":[5.034387,52.029214]},"properties":{"type":"charge","layer":"passenger","locationId":"99d13a3e-43e4-11ed-aada-42010aa4001b","name":"TNLP007576","address":"Herteveld 16","city":"IJsselstein","operatorName":"TotalEnergies","maxPowerKw":17,"isMegawatt":false,"status":"CHARGING","source":"ndw"}},{"type":"Feature","geometry":{"type":"Point","coordinates":[5.048163,52.018422]},"properties":{"type":"charge","layer":"passenger","locationId":"4432e7f6-fbd5-11f0-a578-42010aa400b8","name":"Shell Recharge NL Heer Gijsbrechtstraat 35, IJsselstein","address":"Heer Gijsbrechtstraat 35","city":"IJsselstein","operatorName":"Ubitricity","maxPowerKw":22,"isMegawatt":false,"status":"AVAILABLE","source":"ndw"}},{"type":"Feature","geometry":{"type":"Point","coordinates":[5.038212,52.015536]},"properties":{"type":"charge","layer":"passenger","locationId":"98c24f22-85f2-11f0-b34d-42010aa400b8","name":"TNLP009109","address":"Van Leuffenpad 7","city":"IJsselstein","operatorName":"TotalEnergies","maxPowerKw":17,"isMegawatt":false,"status":"CHARGING","source":"ndw"}},{"type":"Feature","geometry":{"type":"Point","coordinates":[5.026491,52.024407]},"properties":{"type":"charge","layer":"passenger","locationId":"5b3cd4472e46f17d87d0f04d3e9113e6","name":"Tolgaarderlaan 25","address":"Tolgaarderlaan 25","city":"IJsselstein","operatorName":"Vattenfall InCharge","maxPowerKw":11,"isMegawatt":false,"status":"AVAILABLE","source":"ndw"}},{"type":"Feature","geometry":{"type":"Point","coordinates":[5.047808,52.01299]},"properties":{"type":"charge","layer":"passenger","locationId":"15303e1c-d165-11f0-8959-42010aa400b8","name":"Shell Recharge NL Hugo Poortmanstraat 66, IJsselstein","address":"Hugo Poortmanstraat 66","city":"IJsselstein","operatorName":"Ubitricity","maxPowerKw":22,"isMegawatt":false,"status":"AVAILABLE","source":"ndw"}},{"type":"Feature","geometry":{"type":"Point","coordinates":[5.02971,52.02383]},"properties":{"type":"charge","layer":"passenger","locationId":"63cd4ba4-4f3c-11e8-b0a2-42010a840002","name":"Shell Recharge NL Teenschillerlaan 17 IJsselstein","address":"Teenschillerlaan 17","city":"IJsselstein","operatorName":"Ubitricity","maxPowerKw":11,"isMegawatt":false,"status":"AVAILABLE","source":"ndw"}},{"type":"Feature","geometry":{"type":"Point","coordinates":[5.053019,52.022804]},"properties":{"type":"charge","layer":"passenger","locationId":"f6f9d48e-9b98-11ee-9dab-42010aa40fc0","name":"TNLP009880","address":"Belgiëstraat 13","city":"IJsselstein","operatorName":"TotalEnergies","maxPowerKw":17,"isMegawatt":false,"status":"AVAILABLE","source":"ndw"}},{"type":"Feature","geometry":{"type":"Point","coordinates":[5.03391,52.01393]},"properties":{"type":"charge","layer":"passenger","locationId":"a5ee8110-4f3c-11e8-8535-42010a840002","name":"Shell Recharge NL Schaepmanstraat 1 IJsselstein","address":"Schaepmanstraat 1","city":"IJsselstein","operatorName":"Ubitricity","maxPowerKw":11,"isMegawatt":false,"status":"AVAILABLE","source":"ndw"}},{"type":"Feature","geometry":{"type":"Point","coordinates":[5.049586,52.010582]},"properties":{"type":"charge","layer":"passenger","locationId":"dd650632-cbe4-11f0-8cf0-42010aa400b8","name":"Shell Recharge NL Cubahof 11, IJsselstein","address":"Cubahof 11","city":"IJsselstein","operatorName":"Ubitricity","maxPowerKw":22,"isMegawatt":false,"status":"AVAILABLE","source":"ndw"}},{"type":"Feature","geometry":{"type":"Point","coordinates":[5.041709,52.013158]},"properties":{"type":"charge","layer":"passenger","locationId":"e1b51dd6-4e2a-11f0-ba41-42010aa400b8","name":"Shell Recharge NL Sofiastraat 12, IJsselstein","address":"Sofiastraat 12","city":"IJsselstein","operatorName":"Ubitricity","maxPowerKw":22,"isMegawatt":false,"status":"AVAILABLE","source":"ndw"}},{"type":"Feature","geometry":{"type":"Point","coordinates":[5.058534,52.013915]},"properties":{"type":"charge","layer":"passenger","locationId":"349","name":"Shell Recharge NL9127 - Gamma Ijsselstein","address":"Tinbergenlaan 11","city":"Ijsselstein","operatorName":"Shell Recharge","maxPowerKw":150,"isMegawatt":false,"status":"AVAILABLE","source":"ndw"}},{"type":"Feature","geometry":{"type":"Point","coordinates":[5.0439,52.01204]},"properties":{"type":"charge","layer":"passenger","locationId":"1648","name":"Shell Recharge NL Tuinensingel 17","address":"Tuinensingel 17","city":"IJsselstein","operatorName":"Ubitricity","maxPowerKw":11,"isMegawatt":false,"status":"AVAILABLE","source":"ndw"}},{"type":"Feature","geometry":{"type":"Point","coordinates":[5.0319451,52.0141261]},"properties":{"type":"charge","layer":"passenger","locationId":"2382","name":"Shell Recharge NL Johannes Blaeustraat 14","address":"Johannes Blaeustraat 14","city":"IJsselstein","operatorName":"Ubitricity","maxPowerKw":22,"isMegawatt":false,"status":"AVAILABLE","source":"ndw"}},{"type":"Feature","geometry":{"type":"Point","coordinates":[5.04356,52.0187]},"properties":{"type":"charge","layer":"passenger","locationId":"5e371334-d546-11ec-9891-42010a840003","name":"Shell Recharge NL Schuttersgracht 8 IJsselstein","address":"Schuttersgracht 8","city":"IJsselstein","operatorName":"Ubitricity","maxPowerKw":11,"isMegawatt":false,"status":"AVAILABLE","source":"ndw"}},{"type":"Feature","geometry":{"type":"Point","coordinates":[5.035848,52.028938]},"properties":{"type":"charge","layer":"passenger","locationId":"d238926e-48aa-11f0-9dad-42010aa400b8","name":"Shell Recharge NL Schonauwen 46, IJsselstein","address":"Schonauwen 46","city":"IJsselstein","operatorName":"Ubitricity","maxPowerKw":22,"isMegawatt":false,"status":"AVAILABLE","source":"ndw"}},{"type":"Feature","geometry":{"type":"Point","coordinates":[5.05145,52.02288]},"properties":{"type":"charge","layer":"passenger","locationId":"1454","name":"Shell Recharge NL Andorrastraat 1","address":"Andorrastraat 1","city":"IJsselstein","operatorName":"Ubitricity","maxPowerKw":11,"isMegawatt":false,"status":"AVAILABLE","source":"ndw"}},{"type":"Feature","geometry":{"type":"Point","coordinates":[5.057768,52.020074]},"properties":{"type":"charge","layer":"passenger","locationId":"17900582-a69c-11eb-ad1b-42010a840050","name":"TNLP006122","address":"Ringoven 52","city":"IJsselstein","operatorName":"TotalEnergies","maxPowerKw":17,"isMegawatt":false,"status":"AVAILABLE","source":"ndw"}},{"type":"Feature","geometry":{"type":"Point","coordinates":[5.051491,52.021013]},"properties":{"type":"charge","layer":"passenger","locationId":"2bceaca2-f43f-11ea-8b58-42010a84003f","name":"PP005165","address":"Turfschouw 13","city":"Ijsselstein","operatorName":"TotalEnergies","maxPowerKw":0,"isMegawatt":false,"status":"AVAILABLE","source":"ndw"}},{"type":"Feature","geometry":{"type":"Point","coordinates":[5.03145,52.011471]},"properties":{"type":"charge","layer":"passenger","locationId":"40d4051e-9df3-11ee-8608-42010aa40fc0","name":"TNLP009919","address":"Maassingel 104","city":"IJsselstein","operatorName":"TotalEnergies","maxPowerKw":17,"isMegawatt":false,"status":"AVAILABLE","source":"ndw"}},{"type":"Feature","geometry":{"type":"Point","coordinates":[5.033823,52.025854]},"properties":{"type":"charge","layer":"passenger","locationId":"b0215ff8-c4d3-11f0-803e-42010aa400b8","name":"TNLP006877","address":"Klompenmaker 15","city":"IJsselstein","operatorName":"TotalEnergies","maxPowerKw":17,"isMegawatt":false,"status":"AVAILABLE","source":"ndw"}},{"type":"Feature","geometry":{"type":"Point","coordinates":[5.045824,52.033605]},"properties":{"type":"charge","layer":"passenger","locationId":"da325e7c-ca4c-11f0-b46a-42010aa400b8","name":"TNLP009319","address":"Topaashof 7","city":"IJsselstein","operatorName":"TotalEnergies","maxPowerKw":17,"isMegawatt":false,"status":"AVAILABLE","source":"ndw"}},{"type":"Feature","geometry":{"type":"Point","coordinates":[5.024199,52.025645]},"properties":{"type":"charge","layer":"passenger","locationId":"198b045a-8918-11f0-b28a-42010aa400b8","name":"TNLP034110","address":"Fazantenerf 1","city":"IJsselstein","operatorName":"TotalEnergies","maxPowerKw":14,"isMegawatt":false,"status":"AVAILABLE","source":"ndw"}},{"type":"Feature","geometry":{"type":"Point","coordinates":[5.039587,52.019462]},"properties":{"type":"charge","layer":"passenger","locationId":"44ec3bcc-b0d0-11ee-8df1-42010aa40fc0","name":"TNLP008440","address":"Achtersloot 12","city":"IJsselstein","operatorName":"TotalEnergies","maxPowerKw":14,"isMegawatt":false,"status":"CHARGING","source":"ndw"}},{"type":"Feature","geometry":{"type":"Point","coordinates":[5.041699,52.020518]},"properties":{"type":"charge","layer":"passenger","locationId":"632744d0-6ca0-11ed-914a-42010aa40038","name":"TNLP007717","address":"Kasteellaan 1","city":"Ijsselstein","operatorName":"TotalEnergies","maxPowerKw":17,"isMegawatt":false,"status":"AVAILABLE","source":"ndw"}},{"type":"Feature","geometry":{"type":"Point","coordinates":[5.039116,52.011123]},"properties":{"type":"charge","layer":"passenger","locationId":"92e2b526-ccae-11f0-90da-42010aa400b8","name":"TNLP007721","address":"Praagsingel 438","city":"Ijsselstein","operatorName":"TotalEnergies","maxPowerKw":17,"isMegawatt":false,"status":"AVAILABLE","source":"ndw"}},{"type":"Feature","geometry":{"type":"Point","coordinates":[5.044712,52.014192]},"properties":{"type":"charge","layer":"passenger","locationId":"b51d5d36-8784-11f0-a186-42010aa400b8","name":"TNLP034146","address":"Marga Klompestraat 3","city":"IJsselstein","operatorName":"TotalEnergies","maxPowerKw":14,"isMegawatt":false,"status":"AVAILABLE","source":"ndw"}},{"type":"Feature","geometry":{"type":"Point","coordinates":[5.049748,52.029903]},"properties":{"type":"charge","layer":"passenger","locationId":"1a17ecf2-a69c-11eb-8df8-42010a840050","name":"TNLP006128","address":"Diamanthof 1","city":"IJsselstein","operatorName":"TotalEnergies","maxPowerKw":17,"isMegawatt":false,"status":"CHARGING","source":"ndw"}},{"type":"Feature","geometry":{"type":"Point","coordinates":[5.048651,52.011573]},"properties":{"type":"charge","layer":"passenger","locationId":"5347b9d6-100c-11ee-ac70-42010aa4002d","name":"TNLP009054","address":"Johann Knoopstraat 38","city":"IJsselstein","operatorName":"TotalEnergies","maxPowerKw":17,"isMegawatt":false,"status":"AVAILABLE","source":"ndw"}},{"type":"Feature","geometry":{"type":"Point","coordinates":[5.053019,52.022804]},"properties":{"type":"charge","layer":"passenger","locationId":"9127af92-bdbe-11f0-92f9-42010aa400b8","name":"TNLP009880","address":"Belgiëstraat 13","city":"IJsselstein","operatorName":"TotalEnergies","maxPowerKw":17,"isMegawatt":false,"status":"AVAILABLE","source":"ndw"}},{"type":"Feature","geometry":{"type":"Point","coordinates":[5.048761,52.024659]},"properties":{"type":"charge","layer":"passenger","locationId":"ff3d9472-d486-11f0-8010-42010aa400b8","name":"TNLP007338","address":"Koningin Julianalaan 14","city":"IJsselstein","operatorName":"TotalEnergies","maxPowerKw":17,"isMegawatt":false,"status":"AVAILABLE","source":"ndw"}},{"type":"Feature","geometry":{"type":"Point","coordinates":[5.03511,52.01506]},"properties":{"type":"charge","layer":"passenger","locationId":"7e8bc0cc-56b8-11e9-88ae-42010a84003f","name":"Shell Recharge NL Jacob van Deventerstraat 44 Ijsselstein","address":"Jacob van Deventerstraat 44","city":"Ijsselstein","operatorName":"Ubitricity","maxPowerKw":11,"isMegawatt":false,"status":"AVAILABLE","source":"ndw"}},{"type":"Feature","geometry":{"type":"Point","coordinates":[5.04356,52.0187]},"properties":{"type":"charge","layer":"passenger","locationId":"550","name":"Shell Recharge NL Schuttersgracht 8","address":"Schuttersgracht 8","city":"IJsselstein","operatorName":"Ubitricity","maxPowerKw":11,"isMegawatt":false,"status":"AVAILABLE","source":"ndw"}},{"type":"Feature","geometry":{"type":"Point","coordinates":[5.03391,52.01393]},"properties":{"type":"charge","layer":"passenger","locationId":"1627","name":"Shell Recharge NL Schaepmanstraat 1","address":"Schaepmanstraat 1","city":"IJsselstein","operatorName":"Ubitricity","maxPowerKw":11,"isMegawatt":false,"status":"AVAILABLE","source":"ndw"}},{"type":"Feature","geometry":{"type":"Point","coordinates":[5.042741,52.014066]},"properties":{"type":"charge","layer":"passenger","locationId":"ec3149da-8d02-11f0-aa2a-42010aa400b8","name":"TNLP005963","address":"Praagsingel 538","city":"IJsselstein","operatorName":"TotalEnergies","maxPowerKw":17,"isMegawatt":false,"status":"AVAILABLE","source":"ndw"}},{"type":"Feature","geometry":{"type":"Point","coordinates":[5.02756,52.02611]},"properties":{"type":"charge","layer":"passenger","locationId":"7369773c-d547-11ec-bff1-42010a840003","name":"Shell Recharge NL Heemradenlaan 28 IJsselstein","address":"Heemradenlaan 28","city":"IJsselstein","operatorName":"Ubitricity","maxPowerKw":11,"isMegawatt":false,"status":"AVAILABLE","source":"ndw"}},{"type":"Feature","geometry":{"type":"Point","coordinates":[5.036629,52.010122]},"properties":{"type":"charge","layer":"passenger","locationId":"8c78278af3d144794e7d1f0f70fa5721","name":"Schepenensingel 17","address":"Schepenensingel 17","city":"IJsselstein","operatorName":"Vattenfall InCharge","maxPowerKw":11,"isMegawatt":false,"status":"AVAILABLE","source":"ndw"}},{"type":"Feature","geometry":{"type":"Point","coordinates":[5.0442,52.02142]},"properties":{"type":"charge","layer":"passenger","locationId":"831493be-1a9c-11ea-a794-42010a840fcd","name":"Shell Recharge NL Kronenburgplantsoen 1 IJsselstein","address":"Kronenburgplantsoen 1","city":"IJsselstein","operatorName":"Ubitricity","maxPowerKw":11,"isMegawatt":false,"status":"CHARGING","source":"ndw"}},{"type":"Feature","geometry":{"type":"Point","coordinates":[5.04631,52.01678]},"properties":{"type":"charge","layer":"passenger","locationId":"a2d54680-4f3c-11e8-9aad-42010a840002","name":"Shell Recharge NL Heer Arendstraat 11 IJsselstein","address":"Heer Arendstraat 11","city":"IJsselstein","operatorName":"Ubitricity","maxPowerKw":11,"isMegawatt":false,"status":"AVAILABLE","source":"ndw"}},{"type":"Feature","geometry":{"type":"Point","coordinates":[5.057981,52.019673]},"properties":{"type":"charge","layer":"passenger","locationId":"a6469814-4f3c-11e8-802b-42010a840002","name":"Shell Recharge NL Strakonicestraat 19 IJsselstein","address":"Strakonicestraat 19","city":"IJsselstein","operatorName":"Ubitricity","maxPowerKw":11,"isMegawatt":false,"status":"AVAILABLE","source":"ndw"}},{"type":"Feature","geometry":{"type":"Point","coordinates":[5.045824,52.033605]},"properties":{"type":"charge","layer":"passenger","locationId":"471fc9ec-b388-11f0-aff4-42010aa400b8","name":"TNLP009319","address":"Topaashof 7","city":"IJsselstein","operatorName":"TotalEnergies","maxPowerKw":17,"isMegawatt":false,"status":"CHARGING","source":"ndw"}},{"type":"Feature","geometry":{"type":"Point","coordinates":[5.031002,52.026597]},"properties":{"type":"charge","layer":"passenger","locationId":"4c02a104-845e-11f0-9baf-42010aa400b8","name":"TNLP008118","address":"Sijpesteijn 33","city":"IJsselstein","operatorName":"TotalEnergies","maxPowerKw":17,"isMegawatt":false,"status":"AVAILABLE","source":"ndw"}},{"type":"Feature","geometry":{"type":"Point","coordinates":[5.048761,52.024659]},"properties":{"type":"charge","layer":"passenger","locationId":"b63e6d14-cb75-11ec-9eeb-42010a840053","name":"TNLP007338","address":"Koningin Julianalaan 14","city":"IJsselstein","operatorName":"TotalEnergies","maxPowerKw":17,"isMegawatt":false,"status":"AVAILABLE","source":"ndw"}},{"type":"Feature","geometry":{"type":"Point","coordinates":[5.06366,52.012488]},"properties":{"type":"charge","layer":"passenger","locationId":"3968859","name":"Laadnet Heuvelman Sound&Vision BV","address":"Archimedesstraat 2","city":"IJsselstein","operatorName":"Laadnet","maxPowerKw":22,"isMegawatt":false,"status":"AVAILABLE","source":"ndw"}},{"type":"Feature","geometry":{"type":"Point","coordinates":[5.0439,52.01204]},"properties":{"type":"charge","layer":"passenger","locationId":"a515baf6-4f3c-11e8-bc48-42010a840002","name":"Shell Recharge NL Tuinensingel 17 IJsselstein","address":"Tuinensingel 17","city":"IJsselstein","operatorName":"Ubitricity","maxPowerKw":11,"isMegawatt":false,"status":"AVAILABLE","source":"ndw"}},{"type":"Feature","geometry":{"type":"Point","coordinates":[5.044584,52.01663]},"properties":{"type":"charge","layer":"passenger","locationId":"bb86a4f8-b451-11f0-895e-42010aa400b8","name":"TNLP009068","address":"Maximiliaanstraat 17","city":"IJsselstein","operatorName":"TotalEnergies","maxPowerKw":17,"isMegawatt":false,"status":"CHARGING","source":"ndw"}},{"type":"Feature","geometry":{"type":"Point","coordinates":[5.040153,52.021819]},"properties":{"type":"charge","layer":"passenger","locationId":"390ba398-be57-11ef-9916-42010aa400b8","name":"TNLP009939","address":"Philips Willemplantsoen 18","city":"IJsselstein","operatorName":"TotalEnergies","maxPowerKw":17,"isMegawatt":false,"status":"AVAILABLE","source":"ndw"}},{"type":"Feature","geometry":{"type":"Point","coordinates":[5.04393,52.02424]},"properties":{"type":"charge","layer":"passenger","locationId":"7e8cbaa4-56b8-11e9-b29a-42010a840fc1","name":"PP001885","address":"Praamplein 1","city":"Ijsselstein","operatorName":"TotalEnergies","maxPowerKw":17,"isMegawatt":false,"status":"AVAILABLE","source":"ndw"}},{"type":"Feature","geometry":{"type":"Point","coordinates":[5.056384,52.014067]},"properties":{"type":"charge","layer":"passenger","locationId":"8e82a762-5cea-11ec-af92-42010a840003","name":"TNLP006760","address":"Middenweg 31","city":"IJsselstein","operatorName":"TotalEnergies","maxPowerKw":17,"isMegawatt":false,"status":"AVAILABLE","source":"ndw"}},{"type":"Feature","geometry":{"type":"Point","coordinates":[5.0373998,52.0162199]},"properties":{"type":"charge","layer":"passenger","locationId":"2344","name":"Shell Recharge NL Roest Crolliusstraat 17","address":"Roest Crolliusstraat 17","city":"IJsselstein","operatorName":"Ubitricity","maxPowerKw":22,"isMegawatt":false,"status":"AVAILABLE","source":"ndw"}},{"type":"Feature","geometry":{"type":"Point","coordinates":[5.03538,52.02271]},"properties":{"type":"charge","layer":"passenger","locationId":"1486","name":"Shell Recharge NL Dissel 192","address":"Dissel 192","city":"IJsselstein","operatorName":"Ubitricity","maxPowerKw":11,"isMegawatt":false,"status":"AVAILABLE","source":"ndw"}},{"type":"Feature","geometry":{"type":"Point","coordinates":[5.046643,52.032262]},"properties":{"type":"charge","layer":"passenger","locationId":"a92b7214-c1af-11f0-8ebc-42010aa400b8","name":"TNLP007330","address":"Edelstenenbaan 52","city":"IJsselstein","operatorName":"TotalEnergies","maxPowerKw":17,"isMegawatt":false,"status":"AVAILABLE","source":"ndw"}},{"type":"Feature","geometry":{"type":"Point","coordinates":[5.056188,52.024898]},"properties":{"type":"charge","layer":"passenger","locationId":"397ffdda-9417-4b06-b87f-3f65d659c820","name":"TNLP009948","address":"Stereoplein 30","city":"IJsselstein","operatorName":"TotalEnergies","maxPowerKw":17,"isMegawatt":false,"status":"AVAILABLE","source":"ndw"}},{"type":"Feature","geometry":{"type":"Point","coordinates":[5.041663,52.019301]},"properties":{"type":"charge","layer":"passenger","locationId":"a72ed747e9fa0c799a9892133e628150","name":"Kronenburgplantsoen 34","address":"Kronenburgplantsoen 34","city":"IJsselstein","operatorName":"Vattenfall InCharge","maxPowerKw":11,"isMegawatt":false,"status":"CHARGING","source":"ndw"}},{"type":"Feature","geometry":{"type":"Point","coordinates":[5.024199,52.025645]},"properties":{"type":"charge","layer":"passenger","locationId":"30ec61ef-4c26-49ec-a931-12c64b158cdf","name":"TNLP034110","address":"Fazantenerf 1","city":"IJsselstein","operatorName":"TotalEnergies","maxPowerKw":14,"isMegawatt":false,"status":"AVAILABLE","source":"ndw"}},{"type":"Feature","geometry":{"type":"Point","coordinates":[5.052863,52.028339]},"properties":{"type":"charge","layer":"passenger","locationId":"29960152-b5e0-11f0-982c-42010aa400b8","name":"TNLP006130","address":"Ruimtevaartbaan 22","city":"IJsselstein","operatorName":"TotalEnergies","maxPowerKw":17,"isMegawatt":false,"status":"AVAILABLE","source":"ndw"}},{"type":"Feature","geometry":{"type":"Point","coordinates":[5.048022,52.021138]},"properties":{"type":"charge","layer":"passenger","locationId":"485b615e-d0fb-11ec-b645-42010aa40027","name":"TNLP007283","address":"Hazenveld 1","city":"IJsselstein","operatorName":"TotalEnergies","maxPowerKw":17,"isMegawatt":false,"status":"AVAILABLE","source":"ndw"}},{"type":"Feature","geometry":{"type":"Point","coordinates":[5.040849,52.023428]},"properties":{"type":"charge","layer":"passenger","locationId":"ca423622-b2b9-11f0-b5f1-42010aa400b8","name":"TNLP006166","address":"Simon Stevinlaan 2","city":"IJsselstein","operatorName":"TotalEnergies","maxPowerKw":17,"isMegawatt":false,"status":"AVAILABLE","source":"ndw"}},{"type":"Feature","geometry":{"type":"Point","coordinates":[5.037247,52.021153]},"properties":{"type":"charge","layer":"passenger","locationId":"ced085b6-845d-11f0-a686-42010aa400b8","name":"TNLP006093","address":"Vicarielaan 158","city":"IJsselstein","operatorName":"TotalEnergies","maxPowerKw":17,"isMegawatt":false,"status":"AVAILABLE","source":"ndw"}},{"type":"Feature","geometry":{"type":"Point","coordinates":[5.02756,52.02611]},"properties":{"type":"charge","layer":"passenger","locationId":"1509","name":"Shell Recharge NL Heemradenlaan 28","address":"Heemradenlaan 28","city":"IJsselstein","operatorName":"Ubitricity","maxPowerKw":11,"isMegawatt":false,"status":"AVAILABLE","source":"ndw"}},{"type":"Feature","geometry":{"type":"Point","coordinates":[5.027053,52.020957]},"properties":{"type":"charge","layer":"passenger","locationId":"baad6902-d2f3-11f0-b59d-42010aa400b8","name":"TNLP008629","address":"Ganzenweide 1","city":"IJsselstein","operatorName":"TotalEnergies","maxPowerKw":14,"isMegawatt":false,"status":"AVAILABLE","source":"ndw"}},{"type":"Feature","geometry":{"type":"Point","coordinates":[5.041586,52.019247]},"properties":{"type":"charge","layer":"passenger","locationId":"f4c9839c-c023-11eb-aa74-42010a840003","name":"TNLP006211","address":"Kloosterhof 12","city":"IJsselstein","operatorName":"TotalEnergies","maxPowerKw":17,"isMegawatt":false,"status":"CHARGING","source":"ndw"}},{"type":"Feature","geometry":{"type":"Point","coordinates":[5.062681,52.014939]},"properties":{"type":"charge","layer":"passenger","locationId":"243cda66-fc21-4409-a5ab-9bd206ea1a59","name":"Lorentzlaan 1","address":"Lorentzlaan 1","city":"IJsselstein","operatorName":"Vattenfall InCharge","maxPowerKw":50,"isMegawatt":false,"status":"AVAILABLE","source":"ndw"}},{"type":"Feature","geometry":{"type":"Point","coordinates":[5.03335,52.02881]},"properties":{"type":"charge","layer":"passenger","locationId":"0773335aa57f70fbbbccdc9d3f080a45","name":"Schonauwen 69","address":"Schonauwen 69","city":"IJsselstein","operatorName":"Vattenfall InCharge","maxPowerKw":11,"isMegawatt":false,"status":"CHARGING","source":"ndw"}},{"type":"Feature","geometry":{"type":"Point","coordinates":[5.0337295,52.009801]},"properties":{"type":"charge","layer":"passenger","locationId":"2105","name":"Shell Recharge NL Aziesingel 11","address":"Aziesingel 11","city":"IJsselstein","operatorName":"Ubitricity","maxPowerKw":22,"isMegawatt":false,"status":"AVAILABLE","source":"ndw"}},{"type":"Feature","geometry":{"type":"Point","coordinates":[5.042741,52.014066]},"properties":{"type":"charge","layer":"passenger","locationId":"afd5ad7c-c403-11f0-a3ea-42010aa400b8","name":"TNLP005963","address":"Praagsingel 538","city":"IJsselstein","operatorName":"TotalEnergies","maxPowerKw":17,"isMegawatt":false,"status":"AVAILABLE","source":"ndw"}},{"type":"Feature","geometry":{"type":"Point","coordinates":[5.038819,52.013391]},"properties":{"type":"charge","layer":"passenger","locationId":"f41fecf4-fe32-11f0-b385-42010aa400b8","name":"TNLP034521","address":"Waalsingel 52","city":"IJsselstein","operatorName":"TotalEnergies","maxPowerKw":14,"isMegawatt":false,"status":"AVAILABLE","source":"ndw"}},{"type":"Feature","geometry":{"type":"Point","coordinates":[5.031002,52.026597]},"properties":{"type":"charge","layer":"passenger","locationId":"7891b88a-c7f8-11f0-9254-42010aa400b8","name":"TNLP008118","address":"Sijpesteijn 33","city":"IJsselstein","operatorName":"TotalEnergies","maxPowerKw":17,"isMegawatt":false,"status":"AVAILABLE","source":"ndw"}},{"type":"Feature","geometry":{"type":"Point","coordinates":[5.045057,52.026527]},"properties":{"type":"charge","layer":"passenger","locationId":"b6652ab2-ccac-11f0-a90f-42010aa400b8","name":"TNLP006165","address":"Neptunus 32","city":"IJsselstein","operatorName":"TotalEnergies","maxPowerKw":17,"isMegawatt":false,"status":"CHARGING","source":"ndw"}},{"type":"Feature","geometry":{"type":"Point","coordinates":[5.031481,52.02698]},"properties":{"type":"charge","layer":"passenger","locationId":"500b98db45a0411c0106e4c2d91a22de","name":"Sijpesteijn 37","address":"Sijpesteijn 37","city":"IJsselstein","operatorName":"Vattenfall InCharge","maxPowerKw":11,"isMegawatt":false,"status":"UNAVAILABLE","source":"ndw"}},{"type":"Feature","geometry":{"type":"Point","coordinates":[5.036943,52.02716]},"properties":{"type":"charge","layer":"passenger","locationId":"ea6cf438-c983-11f0-abe6-42010aa400b8","name":"TNLP009027","address":"Witakker 20","city":"IJsselstein","operatorName":"TotalEnergies","maxPowerKw":17,"isMegawatt":false,"status":"AVAILABLE","source":"ndw"}},{"type":"Feature","geometry":{"type":"Point","coordinates":[5.055449,52.019026]},"properties":{"type":"charge","layer":"passenger","locationId":"fca43d00-bf13-11ed-b3f1-42010aa4002e","name":"TNLP008150","address":"Willem Barentszstraat 2","city":"IJsselstein","operatorName":"TotalEnergies","maxPowerKw":17,"isMegawatt":false,"status":"AVAILABLE","source":"ndw"}},{"type":"Feature","geometry":{"type":"Point","coordinates":[5.044518,52.009425]},"properties":{"type":"charge","layer":"passenger","locationId":"2ae30a44-ce42-11f0-a176-42010aa400b8","name":"TNLP006137","address":"Dakotahof 18","city":"IJsselstein","operatorName":"TotalEnergies","maxPowerKw":17,"isMegawatt":false,"status":"AVAILABLE","source":"ndw"}},{"type":"Feature","geometry":{"type":"Point","coordinates":[5.048986,52.020525]},"properties":{"type":"charge","layer":"passenger","locationId":"4978515a-d0fb-11ec-bddb-42010aa4007e","name":"TNLP007285","address":"Hazenveld 376","city":"IJsselstein","operatorName":"TotalEnergies","maxPowerKw":17,"isMegawatt":false,"status":"AVAILABLE","source":"ndw"}},{"type":"Feature","geometry":{"type":"Point","coordinates":[5.04217,52.032549]},"properties":{"type":"charge","layer":"passenger","locationId":"6d7be572-ce3a-11f0-ba56-42010aa400b8","name":"TNLP008533","address":"Maansteenhof 5","city":"IJsselstein","operatorName":"TotalEnergies","maxPowerKw":14,"isMegawatt":false,"status":"AVAILABLE","source":"ndw"}},{"type":"Feature","geometry":{"type":"Point","coordinates":[5.043738,52.011627]},"properties":{"type":"charge","layer":"passenger","locationId":"7d66904e-be87-11f0-a057-42010aa400b8","name":"TNLP005907","address":"Tuinensingel 25","city":"IJsselstein","operatorName":"TotalEnergies","maxPowerKw":17,"isMegawatt":false,"status":"AVAILABLE","source":"ndw"}},{"type":"Feature","geometry":{"type":"Point","coordinates":[5.035205,52.012184]},"properties":{"type":"charge","layer":"passenger","locationId":"d6c7f738-42ab-11ec-aa78-42010a840003","name":"TNLP006666","address":"Dommelstraat 6","city":"IJsselstein","operatorName":"TotalEnergies","maxPowerKw":17,"isMegawatt":false,"status":"AVAILABLE","source":"ndw"}},{"type":"Feature","geometry":{"type":"Point","coordinates":[5.029444,52.024717]},"properties":{"type":"charge","layer":"passenger","locationId":"2c949962-a303-11f0-a19c-42010aa400b8","name":"TNLP009124","address":"Teenschillerlaan 45","city":"IJsselstein","operatorName":"TotalEnergies","maxPowerKw":17,"isMegawatt":false,"status":"AVAILABLE","source":"ndw"}},{"type":"Feature","geometry":{"type":"Point","coordinates":[5.033781,52.009953]},"properties":{"type":"charge","layer":"passenger","locationId":"59aca994-9737-11f0-9754-42010aa400b8","name":"TNLP007719","address":"Aziësingel 22","city":"IJsselstein","operatorName":"TotalEnergies","maxPowerKw":17,"isMegawatt":false,"status":"AVAILABLE","source":"ndw"}},{"type":"Feature","geometry":{"type":"Point","coordinates":[5.042077,52.01303]},"properties":{"type":"charge","layer":"passenger","locationId":"51971300-c33a-11f0-9974-42010aa400b8","name":"TNLP009055","address":"Sofiastraat 7","city":"IJsselstein","operatorName":"TotalEnergies","maxPowerKw":17,"isMegawatt":false,"status":"AVAILABLE","source":"ndw"}},{"type":"Feature","geometry":{"type":"Point","coordinates":[5.040595,52.011734]},"properties":{"type":"charge","layer":"passenger","locationId":"1ee22d56-d15d-11f0-bb2c-42010aa400b8","name":"PP001140","address":"Sint Petersburglaan 33","city":"IJsselstein","operatorName":"TotalEnergies","maxPowerKw":17,"isMegawatt":false,"status":"UNAVAILABLE","source":"ndw"}},{"type":"Feature","geometry":{"type":"Point","coordinates":[5.034387,52.029214]},"properties":{"type":"charge","layer":"passenger","locationId":"5d53c440-b778-11f0-9acd-42010aa400b8","name":"TNLP007576","address":"Herteveld 16","city":"IJsselstein","operatorName":"TotalEnergies","maxPowerKw":17,"isMegawatt":false,"status":"CHARGING","source":"ndw"}},{"type":"Feature","geometry":{"type":"Point","coordinates":[5.034014,52.021756]},"properties":{"type":"charge","layer":"passenger","locationId":"da585764-a116-11ee-8999-42010aa40fc0","name":"TNLP009831","address":"Brunel 56","city":"IJsselstein","operatorName":"TotalEnergies","maxPowerKw":17,"isMegawatt":false,"status":"AVAILABLE","source":"ndw"}},{"type":"Feature","geometry":{"type":"Point","coordinates":[5.03167,52.01305]},"properties":{"type":"charge","layer":"passenger","locationId":"a1c441fc-8782-11f0-afa0-42010aa400b8","name":"TNLP007328","address":"Thorbeckesingel 12","city":"IJsselstein","operatorName":"TotalEnergies","maxPowerKw":17,"isMegawatt":false,"status":"AVAILABLE","source":"ndw"}},{"type":"Feature","geometry":{"type":"Point","coordinates":[5.03588,52.024998]},"properties":{"type":"charge","layer":"passenger","locationId":"aa3e0e70-7e84-11ee-b000-42010aa40fc0","name":"TNLP008318","address":"Weegbree 127","city":"IJsselstein","operatorName":"TotalEnergies","maxPowerKw":14,"isMegawatt":false,"status":"AVAILABLE","source":"ndw"}},{"type":"Feature","geometry":{"type":"Point","coordinates":[5.044211,52.013361]},"properties":{"type":"charge","layer":"passenger","locationId":"c5c82cf0-238b-11ef-aaee-42010aa400b8","name":"TNLP008995","address":"Tuinensingel 1","city":"Ijsselstein","operatorName":"TotalEnergies","maxPowerKw":14,"isMegawatt":false,"status":"CHARGING","source":"ndw"}},{"type":"Feature","geometry":{"type":"Point","coordinates":[5.057504,52.025462]},"properties":{"type":"charge","layer":"passenger","locationId":"e461cc96-a94c-11f0-a0c0-42010aa400b8","name":"TNLP006771","address":"Ruimtevaartbaan 143","city":"IJsselstein","operatorName":"TotalEnergies","maxPowerKw":17,"isMegawatt":false,"status":"AVAILABLE","source":"ndw"}},{"type":"Feature","geometry":{"type":"Point","coordinates":[5.0442,52.02142]},"properties":{"type":"charge","layer":"passenger","locationId":"1550","name":"Shell Recharge NL Kronenburgplantsoen 1","address":"Kronenburgplantsoen 1","city":"IJsselstein","operatorName":"Ubitricity","maxPowerKw":11,"isMegawatt":false,"status":"AVAILABLE","source":"ndw"}},{"type":"Feature","geometry":{"type":"Point","coordinates":[5.0309753,52.0122982]},"properties":{"type":"charge","layer":"passenger","locationId":"2117","name":"Shell Recharge NL Ruys de Beerenbrouckstraat 15","address":"Ruys de Beerenbrouckstraat 15","city":"IJsselstein","operatorName":"Ubitricity","maxPowerKw":22,"isMegawatt":false,"status":"AVAILABLE","source":"ndw"}},{"type":"Feature","geometry":{"type":"Point","coordinates":[5.0437657,52.0271158]},"properties":{"type":"charge","layer":"passenger","locationId":"1424","name":"Shell Recharge NL Wegahof 27","address":"Wegahof 27","city":"IJsselstein","operatorName":"Ubitricity","maxPowerKw":22,"isMegawatt":false,"status":"AVAILABLE","source":"ndw"}},{"type":"Feature","geometry":{"type":"Point","coordinates":[5.04267,52.01311]},"properties":{"type":"charge","layer":"passenger","locationId":"1635","name":"Shell Recharge NL Sofiastraat 6","address":"Sofiastraat 6","city":"IJsselstein","operatorName":"Ubitricity","maxPowerKw":11,"isMegawatt":false,"status":"AVAILABLE","source":"ndw"}},{"type":"Feature","geometry":{"type":"Point","coordinates":[5.035713,52.026246]},"properties":{"type":"charge","layer":"passenger","locationId":"3e6b2afe-f653-11f0-b2dc-42010aa400b8","name":"TNLP008381","address":"Pelgrimsweg 64","city":"IJsselstein","operatorName":"TotalEnergies","maxPowerKw":14,"isMegawatt":false,"status":"AVAILABLE","source":"ndw"}},{"type":"Feature","geometry":{"type":"Point","coordinates":[5.0462682,52.0211481]},"properties":{"type":"charge","layer":"passenger","locationId":"1164","name":"Shell Recharge NL Utrechtsestraat 10","address":"Utrechtsestraat 10","city":"IJsselstein","operatorName":"Ubitricity","maxPowerKw":22,"isMegawatt":false,"status":"AVAILABLE","source":"ndw"}},{"type":"Feature","geometry":{"type":"Point","coordinates":[5.037601,52.022894]},"properties":{"type":"charge","layer":"passenger","locationId":"11efa432-5765-11ec-9907-42010a840052","name":"TNLP006868","address":"Dissel 42","city":"IJsselstein","operatorName":"TotalEnergies","maxPowerKw":17,"isMegawatt":false,"status":"AVAILABLE","source":"ndw"}},{"type":"Feature","geometry":{"type":"Point","coordinates":[5.05197,52.012359]},"properties":{"type":"charge","layer":"passenger","locationId":"162a80f2-7abf-11ed-af77-42010aa40046","name":"TNLP007866","address":"Ambachtsweg 1","city":"IJsselstein","operatorName":"TotalEnergies","maxPowerKw":17,"isMegawatt":false,"status":"AVAILABLE","source":"ndw"}},{"type":"Feature","geometry":{"type":"Point","coordinates":[5.046506,52.010569]},"properties":{"type":"charge","layer":"passenger","locationId":"33921502-845c-11f0-b6b0-42010aa400b8","name":"TNLP008646","address":"Colombiahof 2","city":"IJsselstein","operatorName":"TotalEnergies","maxPowerKw":14,"isMegawatt":false,"status":"AVAILABLE","source":"ndw"}},{"type":"Feature","geometry":{"type":"Point","coordinates":[5.032526,52.014874]},"properties":{"type":"charge","layer":"passenger","locationId":"38062bf6-f71a-11f0-aac7-42010aa400b8","name":"TNLP006867","address":"Schepenensingel 83","city":"IJsselstein","operatorName":"TotalEnergies","maxPowerKw":17,"isMegawatt":false,"status":"AVAILABLE","source":"ndw"}},{"type":"Feature","geometry":{"type":"Point","coordinates":[5.058161,52.020815]},"properties":{"type":"charge","layer":"passenger","locationId":"5d282590-cd73-11f0-ae06-42010aa400b8","name":"TNLP008226","address":"Italielaan 23","city":"IJsselstein","operatorName":"TotalEnergies","maxPowerKw":17,"isMegawatt":false,"status":"AVAILABLE","source":"ndw"}},{"type":"Feature","geometry":{"type":"Point","coordinates":[5.040175,52.016205]},"properties":{"type":"charge","layer":"passenger","locationId":"e31d571c-8f30-11e8-ba01-42010a840002","name":"TNLP006316","address":"Tepestraat 44","city":"IJsselstein","operatorName":"TotalEnergies","maxPowerKw":17,"isMegawatt":false,"status":"AVAILABLE","source":"ndw"}},{"type":"Feature","geometry":{"type":"Point","coordinates":[5.03993,52.01]},"properties":{"type":"charge","layer":"passenger","locationId":"e73525e6-ca4c-11f0-9fb5-42010aa400b8","name":"PP002531","address":"Praagsingel 62","city":"IJsselstein","operatorName":"TotalEnergies","maxPowerKw":17,"isMegawatt":false,"status":"AVAILABLE","source":"ndw"}},{"type":"Feature","geometry":{"type":"Point","coordinates":[5.048052,52.018766]},"properties":{"type":"charge","layer":"passenger","locationId":"ed1e60bc-ce3e-11f0-925a-42010aa400b8","name":"TNLP009182","address":"Guyottestraat 12 tt","city":"IJsselstein","operatorName":"TotalEnergies","maxPowerKw":17,"isMegawatt":false,"status":"AVAILABLE","source":"ndw"}},{"type":"Feature","geometry":{"type":"Point","coordinates":[5.044528,52.031324]},"properties":{"type":"charge","layer":"passenger","locationId":"78f9115c-c475-11ee-941d-42010aa40fc0","name":"TNLP009766","address":"Mars 8","city":"IJsselstein","operatorName":"TotalEnergies","maxPowerKw":17,"isMegawatt":false,"status":"AVAILABLE","source":"ndw"}},{"type":"Feature","geometry":{"type":"Point","coordinates":[5.032207,52.009775]},"properties":{"type":"charge","layer":"passenger","locationId":"25a55500-a8b8-11eb-8288-42010a84001e","name":"TNLP006126","address":"Canberrapad 9","city":"IJsselstein","operatorName":"TotalEnergies","maxPowerKw":0,"isMegawatt":false,"status":"AVAILABLE","source":"ndw"}},{"type":"Feature","geometry":{"type":"Point","coordinates":[5.043269,52.025322]},"properties":{"type":"charge","layer":"passenger","locationId":"de032818-91b9-11f0-bb38-42010aa400b8","name":"TNLP006292","address":"Trekschuit 55","city":"IJsselstein","operatorName":"TotalEnergies","maxPowerKw":17,"isMegawatt":false,"status":"AVAILABLE","source":"ndw"}},{"type":"Feature","geometry":{"type":"Point","coordinates":[5.025307,52.024206]},"properties":{"type":"charge","layer":"passenger","locationId":"8239c62c-73e1-11f0-a503-42010aa400b8","name":"TNLP006787","address":"Vinkenerf 10","city":"IJsselstein","operatorName":"TotalEnergies","maxPowerKw":17,"isMegawatt":false,"status":"AVAILABLE","source":"ndw"}},{"type":"Feature","geometry":{"type":"Point","coordinates":[5.03413,52.028479]},"properties":{"type":"charge","layer":"passenger","locationId":"33489b34-4432-11ec-b072-42010a840003","name":"TNLP006789","address":"Herteveld 5","city":"IJsselstein","operatorName":"TotalEnergies","maxPowerKw":17,"isMegawatt":false,"status":"AVAILABLE","source":"ndw"}},{"type":"Feature","geometry":{"type":"Point","coordinates":[5.059129,52.018065]},"properties":{"type":"charge","layer":"passenger","locationId":"838ee87a-e9b1-11e8-bb93-42010a840002","name":"TNLP008448","address":"Jenastraat 1","city":"IJsselstein","operatorName":"TotalEnergies","maxPowerKw":14,"isMegawatt":false,"status":"AVAILABLE","source":"ndw"}},{"type":"Feature","geometry":{"type":"Point","coordinates":[5.031321,52.029507]},"properties":{"type":"charge","layer":"passenger","locationId":"c4b55bb0-c7f1-11f0-9204-42010aa400b8","name":"TNLP008332","address":"Guntersteijn 22","city":"IJsselstein","operatorName":"TotalEnergies","maxPowerKw":14,"isMegawatt":false,"status":"CHARGING","source":"ndw"}},{"type":"Feature","geometry":{"type":"Point","coordinates":[5.02535,52.02269]},"properties":{"type":"charge","layer":"passenger","locationId":"c8ef37fe-9d18-11eb-9686-42010a84003f","name":"TNLP005713","address":"Goudplevier 89","city":"IJsselstein","operatorName":"TotalEnergies","maxPowerKw":17,"isMegawatt":false,"status":"AVAILABLE","source":"ndw"}},{"type":"Feature","geometry":{"type":"Point","coordinates":[5.03867,52.025219]},"properties":{"type":"charge","layer":"passenger","locationId":"4f43c660-c985-11f0-8281-42010aa400b8","name":"TNLP006811","address":"Haanderik 15","city":"IJsselstein","operatorName":"TotalEnergies","maxPowerKw":17,"isMegawatt":false,"status":"AVAILABLE","source":"ndw"}},{"type":"Feature","geometry":{"type":"Point","coordinates":[5.053993,52.024156]},"properties":{"type":"charge","layer":"passenger","locationId":"5db694da-b5de-11f0-a0ba-42010aa400b8","name":"TNLP007831","address":"Frankrijkstraat 53","city":"IJsselstein","operatorName":"TotalEnergies","maxPowerKw":17,"isMegawatt":false,"status":"AVAILABLE","source":"ndw"}},{"type":"Feature","geometry":{"type":"Point","coordinates":[5.030406,52.021724]},"properties":{"type":"charge","layer":"passenger","locationId":"fe9a07ae-9ec0-11eb-a0b9-42010a84005e","name":"TNLP005900","address":"Ratelaar 1","city":"IJsselstein","operatorName":"TotalEnergies","maxPowerKw":17,"isMegawatt":false,"status":"AVAILABLE","source":"ndw"}},{"type":"Feature","geometry":{"type":"Point","coordinates":[5.041209,52.009041]},"properties":{"type":"charge","layer":"passenger","locationId":"a2964ca6-f2d2-11ee-82fd-42010aa400b8","name":"TNLP008462","address":"Arizonahof 22","city":"IJsselstein","operatorName":"TotalEnergies","maxPowerKw":14,"isMegawatt":false,"status":"AVAILABLE","source":"ndw"}},{"type":"Feature","geometry":{"type":"Point","coordinates":[5.04158,52.010202]},"properties":{"type":"charge","layer":"passenger","locationId":"aae9af1c-7fab-11f0-8554-42010aa400b8","name":"TNLP008225","address":"Rigastraat 2","city":"IJsselstein","operatorName":"TotalEnergies","maxPowerKw":17,"isMegawatt":false,"status":"AVAILABLE","source":"ndw"}},{"type":"Feature","geometry":{"type":"Point","coordinates":[5.050388,52.029519]},"properties":{"type":"charge","layer":"passenger","locationId":"d6f9b65e-a21a-11ed-a1b4-42010aa4002e","name":"TNLP007989","address":"Ametisthof 1","city":"IJsselstein","operatorName":"TotalEnergies","maxPowerKw":17,"isMegawatt":false,"status":"AVAILABLE","source":"ndw"}},{"type":"Feature","geometry":{"type":"Point","coordinates":[5.047238,52.028673]},"properties":{"type":"charge","layer":"passenger","locationId":"e804a624-c1a8-11f0-a18c-42010aa400b8","name":"TNLP008117","address":"Miranda 1","city":"IJsselstein","operatorName":"TotalEnergies","maxPowerKw":17,"isMegawatt":false,"status":"AVAILABLE","source":"ndw"}},{"type":"Feature","geometry":{"type":"Point","coordinates":[5.038819,52.013391]},"properties":{"type":"charge","layer":"passenger","locationId":"588506b8-8fc5-4059-abf7-f0f59a588e97","name":"TNLP034521","address":"Waalsingel 52","city":"IJsselstein","operatorName":"TotalEnergies","maxPowerKw":14,"isMegawatt":false,"status":"CHARGING","source":"ndw"}},{"type":"Feature","geometry":{"type":"Point","coordinates":[5.0451077,52.0262802]},"properties":{"type":"charge","layer":"passenger","locationId":"2597","name":"Shell Recharge NL Neptunus 32","address":"Neptunus 32","city":"IJsselstein","operatorName":"Ubitricity","maxPowerKw":22,"isMegawatt":false,"status":"CHARGING","source":"ndw"}},{"type":"Feature","geometry":{"type":"Point","coordinates":[5.03732,52.00987]},"properties":{"type":"charge","layer":"passenger","locationId":"1519","name":"Shell Recharge NL Hongkongstraat 1","address":"Hongkongstraat 1","city":"IJsselstein","operatorName":"Ubitricity","maxPowerKw":11,"isMegawatt":false,"status":"AVAILABLE","source":"ndw"}},{"type":"Feature","geometry":{"type":"Point","coordinates":[5.055638,52.022427]},"properties":{"type":"charge","layer":"passenger","locationId":"2f953fba-b89b-11eb-9d9a-42010a84005d","name":"TNLP005962","address":"Duitslandstraat 36","city":"IJsselstein","operatorName":"TotalEnergies","maxPowerKw":17,"isMegawatt":false,"status":"AVAILABLE","source":"ndw"}},{"type":"Feature","geometry":{"type":"Point","coordinates":[5.025743,52.026594]},"properties":{"type":"charge","layer":"passenger","locationId":"7b70875e-e987-11ed-8beb-42010aa40043","name":"TNLP008028","address":"Merelweg 4","city":"IJsselstein","operatorName":"TotalEnergies","maxPowerKw":17,"isMegawatt":false,"status":"AVAILABLE","source":"ndw"}},{"type":"Feature","geometry":{"type":"Point","coordinates":[5.056188,52.024898]},"properties":{"type":"charge","layer":"passenger","locationId":"1ea1c2ea-b718-11ee-bee6-42010aa40fc0","name":"TNLP009948","address":"Stereoplein 30","city":"IJsselstein","operatorName":"TotalEnergies","maxPowerKw":17,"isMegawatt":false,"status":"AVAILABLE","source":"ndw"}},{"type":"Feature","geometry":{"type":"Point","coordinates":[5.049945,52.010087]},"properties":{"type":"charge","layer":"passenger","locationId":"8efbd530-05fc-11ee-990d-42010aa4003a","name":"TNLP009051","address":"Jamaicahof 1","city":"IJsselstein","operatorName":"TotalEnergies","maxPowerKw":17,"isMegawatt":false,"status":"AVAILABLE","source":"ndw"}},{"type":"Feature","geometry":{"type":"Point","coordinates":[5.0548795,52.0275831]},"properties":{"type":"charge","layer":"passenger","locationId":"2515","name":"Shell Recharge NL Ruimtevaartbaan 62","address":"Ruimtevaartbaan 62","city":"IJsselstein","operatorName":"Ubitricity","maxPowerKw":22,"isMegawatt":false,"status":"AVAILABLE","source":"ndw"}},{"type":"Feature","geometry":{"type":"Point","coordinates":[5.065056,52.012045]},"properties":{"type":"charge","layer":"passenger","locationId":"922941","name":"Parkdeck 3 DAE_NL_2000736","address":"Kamerlingh Onneslaan 9","city":"IJsselstein","operatorName":"DAEN Mobility","maxPowerKw":22,"isMegawatt":false,"status":"AVAILABLE","source":"ndw"}},{"type":"Feature","geometry":{"type":"Point","coordinates":[5.04048,52.00892]},"properties":{"type":"charge","layer":"passenger","locationId":"670","name":"Shell Recharge NL Arizonahof 8","address":"Arizonahof 8","city":"IJsselstein","operatorName":"Ubitricity","maxPowerKw":11,"isMegawatt":false,"status":"AVAILABLE","source":"ndw"}},{"type":"Feature","geometry":{"type":"Point","coordinates":[5.02971,52.02383]},"properties":{"type":"charge","layer":"passenger","locationId":"98","name":"Shell Recharge NL Teenschillerlaan 17","address":"Teenschillerlaan 17","city":"IJsselstein","operatorName":"Ubitricity","maxPowerKw":11,"isMegawatt":false,"status":"AVAILABLE","source":"ndw"}},{"type":"Feature","geometry":{"type":"Point","coordinates":[5.0376,52.01649]},"properties":{"type":"charge","layer":"passenger","locationId":"749","name":"Shell Recharge NL Van der Poststraat 12","address":"Van der Poststraat 12","city":"IJsselstein","operatorName":"Ubitricity","maxPowerKw":11,"isMegawatt":false,"status":"AVAILABLE","source":"ndw"}},{"type":"Feature","geometry":{"type":"Point","coordinates":[5.04631,52.01678]},"properties":{"type":"charge","layer":"passenger","locationId":"1511","name":"Shell Recharge NL Heer Arendstraat 11","address":"Heer Arendstraat 11","city":"IJsselstein","operatorName":"Ubitricity","maxPowerKw":11,"isMegawatt":false,"status":"AVAILABLE","source":"ndw"}},{"type":"Feature","geometry":{"type":"Point","coordinates":[5.061354,52.013376]},"properties":{"type":"charge","layer":"passenger","locationId":"2686368","name":"Laadnet Rudon IJsselstein","address":"Lorentzlaan 12","city":"IJsselstein","operatorName":"Laadnet","maxPowerKw":22,"isMegawatt":false,"status":"CHARGING","source":"ndw"}},{"type":"Feature","geometry":{"type":"Point","coordinates":[5.019511,52.046795]},"properties":{"type":"charge","layer":"passenger","locationId":"67e54837228c13d89e320e66","name":"Marnemoende 's station","address":"Noord IJsseldijk  107b","city":"IJsselstein","operatorName":"E-Flux by Road","maxPowerKw":21,"isMegawatt":false,"status":"AVAILABLE","source":"ndw"}},{"type":"Feature","geometry":{"type":"Point","coordinates":[5.03759,52.01782]},"properties":{"type":"charge","layer":"passenger","locationId":"D96B2D61-2C00-4B7F-91E1-A7EA15B44B4B","name":"Eneco eMobility AxionContinu - Benschopperweg 14 - IJsselstein","address":"Benschopperweg 14","city":"IJsselstein","operatorName":"Eneco","maxPowerKw":11,"isMegawatt":false,"status":"CHARGING","source":"ndw"}},{"type":"Feature","geometry":{"type":"Point","coordinates":[5.053127,52.026295]},"properties":{"type":"charge","layer":"passenger","locationId":"a7b7b420-117c-4181-9cc2-a790661ef7a0","name":"TNLP034198","address":"Nipkowplein 58","city":"IJsselstein","operatorName":"TotalEnergies","maxPowerKw":14,"isMegawatt":false,"status":"AVAILABLE","source":"ndw"}},{"type":"Feature","geometry":{"type":"Point","coordinates":[5.065056,52.012045]},"properties":{"type":"charge","layer":"passenger","locationId":"922942","name":"Parkdeck 4 DAE_NL_2000737","address":"Kamerlingh Onneslaan 9","city":"IJsselstein","operatorName":"DAEN Mobility","maxPowerKw":22,"isMegawatt":false,"status":"UNAVAILABLE","source":"ndw"}},{"type":"Feature","geometry":{"type":"Point","coordinates":[5.037924,52.007063]},"properties":{"type":"charge","layer":"passenger","locationId":"923512","name":"DAE_NL_2001226","address":"Floridalaan 39","city":"IJsselstein","operatorName":"DAEN Mobility","maxPowerKw":11,"isMegawatt":false,"status":"AVAILABLE","source":"ndw"}},{"type":"Feature","geometry":{"type":"Point","coordinates":[5.033998,52.026097]},"properties":{"type":"charge","layer":"passenger","locationId":"69cca2187d39e5eb29ec5bdd1502b879","name":"Klompenmaker 17","address":"Klompenmaker 17","city":"IJsselstein","operatorName":"Vattenfall InCharge","maxPowerKw":11,"isMegawatt":false,"status":"AVAILABLE","source":"ndw"}},{"type":"Feature","geometry":{"type":"Point","coordinates":[5.057981,52.019673]},"properties":{"type":"charge","layer":"passenger","locationId":"1641","name":"Shell Recharge NL Strakonicestraat 19","address":"Strakonicestraat 19","city":"IJsselstein","operatorName":"Ubitricity","maxPowerKw":11,"isMegawatt":false,"status":"AVAILABLE","source":"ndw"}},{"type":"Feature","geometry":{"type":"Point","coordinates":[5.050512,52.024126]},"properties":{"type":"charge","layer":"passenger","locationId":"894b46b06651716ae95c0d4a8e19a586","name":"Kon. Julianalaan 94","address":"Kon. Julianalaan 94","city":"IJsselstein","operatorName":"Vattenfall InCharge","maxPowerKw":11,"isMegawatt":false,"status":"AVAILABLE","source":"ndw"}},{"type":"Feature","geometry":{"type":"Point","coordinates":[5.038106,52.021969]},"properties":{"type":"charge","layer":"passenger","locationId":"4eb33696321a0e75096ecc1ea458c7c4","name":"Stalpaert van de Wielenlaan 2","address":"Stalpaert van de Wielenlaan 2","city":"IJsselstein","operatorName":"Vattenfall InCharge","maxPowerKw":11,"isMegawatt":false,"status":"AVAILABLE","source":"ndw"}},{"type":"Feature","geometry":{"type":"Point","coordinates":[5.063861,52.01182]},"properties":{"type":"charge","layer":"passenger","locationId":"922940","name":"Portiersloge","address":"Kamerlingh Onneslaan 18","city":"IJsselstein","operatorName":"DAEN Mobility","maxPowerKw":22,"isMegawatt":false,"status":"CHARGING","source":"ndw"}},{"type":"Feature","geometry":{"type":"Point","coordinates":[5.050574,52.024488]},"properties":{"type":"charge","layer":"passenger","locationId":"2272c415238dbea3111eca9db1f740c0","name":"Pr. Christinaplein","address":"Pr. Christinaplein","city":"IJsselstein","operatorName":"Vattenfall InCharge","maxPowerKw":11,"isMegawatt":false,"status":"AVAILABLE","source":"ndw"}},{"type":"Feature","geometry":{"type":"Point","coordinates":[5.0433256,52.0108425]},"properties":{"type":"charge","layer":"passenger","locationId":"2649","name":"Shell Recharge NL Tuinensingel 33","address":"Tuinensingel 33","city":"IJsselstein","operatorName":"Ubitricity","maxPowerKw":22,"isMegawatt":false,"status":"AVAILABLE","source":"ndw"}},{"type":"Feature","geometry":{"type":"Point","coordinates":[5.0417085,52.0131584]},"properties":{"type":"charge","layer":"passenger","locationId":"1879","name":"Shell Recharge NL Sofiastraat 12","address":"Sofiastraat 12","city":"IJsselstein","operatorName":"Ubitricity","maxPowerKw":22,"isMegawatt":false,"status":"AVAILABLE","source":"ndw"}},{"type":"Feature","geometry":{"type":"Point","coordinates":[5.03993,52.01]},"properties":{"type":"charge","layer":"passenger","locationId":"39AD5071-0531-4955-99D8-0B8E2A1FA651","name":"PP002531","address":"Praagsingel 62","city":"IJsselstein","operatorName":"TotalEnergies","maxPowerKw":17,"isMegawatt":false,"status":"AVAILABLE","source":"ndw"}},{"type":"Feature","geometry":{"type":"Point","coordinates":[5.02448,52.02136]},"properties":{"type":"charge","layer":"passenger","locationId":"dfd52d3c9167ecb427cfdf5de8c08ba4","name":"Talingweide 133","address":"Talingweide 133","city":"IJsselstein","operatorName":"Vattenfall InCharge","maxPowerKw":11,"isMegawatt":false,"status":"AVAILABLE","source":"ndw"}},{"type":"Feature","geometry":{"type":"Point","coordinates":[5.031645,52.020229]},"properties":{"type":"charge","layer":"passenger","locationId":"866fdb01cd489c6f176a2f63c05aec12","name":"Duizendblad 23","address":"Duizendblad 23","city":"IJsselstein","operatorName":"Vattenfall InCharge","maxPowerKw":11,"isMegawatt":false,"status":"AVAILABLE","source":"ndw"}},{"type":"Feature","geometry":{"type":"Point","coordinates":[5.0481629,52.0184225]},"properties":{"type":"charge","layer":"passenger","locationId":"2334","name":"Shell Recharge NL Heer Gijsbrechtstraat 35","address":"Heer Gijsbrechtstraat 35","city":"IJsselstein","operatorName":"Ubitricity","maxPowerKw":22,"isMegawatt":false,"status":"AVAILABLE","source":"ndw"}},{"type":"Feature","geometry":{"type":"Point","coordinates":[5.057504,52.025462]},"properties":{"type":"charge","layer":"passenger","locationId":"4c40f022-0b77-409b-8542-e956f76c567a","name":"TNLP006771","address":"Ruimtevaartbaan 143","city":"IJsselstein","operatorName":"TotalEnergies","maxPowerKw":17,"isMegawatt":false,"status":"UNAVAILABLE","source":"ndw"}},{"type":"Feature","geometry":{"type":"Point","coordinates":[5.031089,52.014591]},"properties":{"type":"charge","layer":"passenger","locationId":"bb606d669fbf3b3383f78d17c4ffbb5a","name":"Jacob van Maerlantstraat 3","address":"Jacob van Maerlantstraat 3","city":"IJsselstein","operatorName":"Vattenfall InCharge","maxPowerKw":11,"isMegawatt":false,"status":"AVAILABLE","source":"ndw"}},{"type":"Feature","geometry":{"type":"Point","coordinates":[5.026599,52.023185]},"properties":{"type":"charge","layer":"passenger","locationId":"61f6a9ce2da5302f2a8305268a5165a2","name":"Goudplevier 14","address":"Goudplevier 14","city":"IJsselstein","operatorName":"Vattenfall InCharge","maxPowerKw":11,"isMegawatt":false,"status":"AVAILABLE","source":"ndw"}},{"type":"Feature","geometry":{"type":"Point","coordinates":[5.050568,52.018986]},"properties":{"type":"charge","layer":"passenger","locationId":"f7d1d384504048831156b561035043b8","name":"Jolandeplantsoen 49","address":"Jolandeplantsoen 49","city":"IJsselstein","operatorName":"Vattenfall InCharge","maxPowerKw":11,"isMegawatt":false,"status":"AVAILABLE","source":"ndw"}},{"type":"Feature","geometry":{"type":"Point","coordinates":[5.0478077,52.0129904]},"properties":{"type":"charge","layer":"passenger","locationId":"2165","name":"Shell Recharge NL Hugo Poortmanstraat 66","address":"Hugo Poortmanstraat 66","city":"IJsselstein","operatorName":"Ubitricity","maxPowerKw":22,"isMegawatt":false,"status":"AVAILABLE","source":"ndw"}},{"type":"Feature","geometry":{"type":"Point","coordinates":[5.0442154,52.00951]},"properties":{"type":"charge","layer":"passenger","locationId":"2108","name":"Shell Recharge NL Dakotahof 22","address":"Dakotahof 22","city":"IJsselstein","operatorName":"Ubitricity","maxPowerKw":22,"isMegawatt":false,"status":"AVAILABLE","source":"ndw"}},{"type":"Feature","geometry":{"type":"Point","coordinates":[5.028222,52.023471]},"properties":{"type":"charge","layer":"passenger","locationId":"3406c69c053452be426cb5926cef9d2d","name":"Koperslagerlaan 21","address":"Koperslagerlaan 21","city":"IJsselstein","operatorName":"Vattenfall InCharge","maxPowerKw":11,"isMegawatt":false,"status":"AVAILABLE","source":"ndw"}},{"type":"Feature","geometry":{"type":"Point","coordinates":[5.065056,52.012045]},"properties":{"type":"charge","layer":"passenger","locationId":"922943","name":"Parkdeck 5 DAE_NL_2000738","address":"Kamerlingh Onneslaan 9","city":"IJsselstein","operatorName":"DAEN Mobility","maxPowerKw":22,"isMegawatt":false,"status":"UNAVAILABLE","source":"ndw"}},{"type":"Feature","geometry":{"type":"Point","coordinates":[5.05517,52.02694]},"properties":{"type":"charge","layer":"passenger","locationId":"75","name":"Shell Recharge NL Tereschkovahof 80","address":"Tereschkovahof 80","city":"IJsselstein","operatorName":"Ubitricity","maxPowerKw":11,"isMegawatt":false,"status":"AVAILABLE","source":"ndw"}},{"type":"Feature","geometry":{"type":"Point","coordinates":[5.040479,52.029921]},"properties":{"type":"charge","layer":"passenger","locationId":"3b788a6258c6a1fd28a19e801fc1c469","name":"Zomerdijk 42A","address":"Zomerdijk 42A","city":"IJsselstein","operatorName":"Vattenfall InCharge","maxPowerKw":11,"isMegawatt":false,"status":"AVAILABLE","source":"ndw"}},{"type":"Feature","geometry":{"type":"Point","coordinates":[5.044588,52.033744]},"properties":{"type":"charge","layer":"passenger","locationId":"ecffb4d5ecd1938011427e2b8e77eada","name":"Opaalhof 37","address":"Opaalhof 37","city":"IJsselstein","operatorName":"Vattenfall InCharge","maxPowerKw":11,"isMegawatt":false,"status":"AVAILABLE","source":"ndw"}},{"type":"Feature","geometry":{"type":"Point","coordinates":[5.035378,52.027164]},"properties":{"type":"charge","layer":"passenger","locationId":"71b0bf97e130288c11b827453f7bc2d2","name":"Witakker 10","address":"Witakker 10","city":"IJsselstein","operatorName":"Vattenfall InCharge","maxPowerKw":11,"isMegawatt":false,"status":"AVAILABLE","source":"ndw"}},{"type":"Feature","geometry":{"type":"MultiPolygon","coordinates":[[[[5.017426544132499,52.06099123575772],[5.021610170188505,52.05580807376402],[5.025592871541456,52.05585653495651],[5.027119326639002,52.055395792115746],[5.026960786870317,52.054632483701056],[5.028261084725285,52.05358063937901],[5.027671942773891,52.0516959973651],[5.028339686441588,52.05076109827617],[5.038043947207031,52.04417163839349],[5.045582916957311,52.03477382141114],[5.051421063613552,52.030105584238825],[5.0519795394485385,52.030888041728744],[5.055339435930278,52.02973838468715],[5.054909528754518,52.02886563495622],[5.061020539992151,52.02628213702803],[5.062800805926896,52.02682334893733],[5.062873344617924,52.025743331485124],[5.062944404832146,52.02523847184984],[5.065991079163381,52.01870455233562],[5.067998203949836,52.01440398310947],[5.0689327525622945,52.01416923258175],[5.071426141856793,52.009862831994894],[5.073601296453921,52.005909504717515],[5.074860500135513,52.00355362681657],[5.072793442975842,52.00030816150496],[5.075785156069744,52.00078097314134],[5.077717271314899,51.998705087651864],[5.0775349583841605,51.99745194616231],[5.066285917941778,51.99407351758932],[5.06263785006036,51.99123318293138],[5.055865870255645,51.99408070444221],[5.053082016016007,51.995384778083434],[5.0538856736851825,51.99663113680382],[5.052611583215514,51.99765435090302],[5.042469870462761,52.00566838525822],[5.036045368444086,52.004259003660536],[5.034001936290021,52.00393699368139],[5.031771977129605,52.007518950584924],[5.030141967654709,52.01016433558413],[5.029351557296188,52.011472023631256],[5.027316222786485,52.014779718524395],[5.027082431575816,52.014776994894945],[5.023913048994802,52.019932168852534],[5.020353528098904,52.02556571408812],[5.019721449093311,52.025533075099155],[4.995194549862604,52.02172055202113],[4.99404609348215,52.02974025142749],[4.983138845411771,52.02778473814673],[4.978989596948677,52.03807157196513],[4.978392416352495,52.039686679077285],[4.983276465757504,52.04023687731737],[4.9903029302557895,52.05243854167597],[4.991074511830785,52.052864563459764],[4.9953322344184645,52.0526078557763],[4.997147406193667,52.05295231783571],[5.001125450629815,52.05402884217726],[5.004900937923043,52.055556130582715],[5.0102834042931335,52.05374121945355],[5.01707425726037,52.06114306357085],[5.017426544132499,52.06099123575772]]]]},"properties":{"type":"boundary","gemeente":"IJsselstein","code":"GM0353"}}]}