{"type":"FeatureCollection","metadata":{"gemeente":"Laarbeek","slug":"laarbeek","code":"GM1659","generated_at":"2026-06-07T19:22:09.578Z","total_passenger":65,"total_freight":0,"bounds":[5.5330817557200485,51.494882750447736,5.686004134950334,51.56967815582702],"operators":["DAEN Mobility","E-Flux by Road","Eneco","Laadnet","Pluq","Vattenfall InCharge"]},"features":[{"type":"Feature","geometry":{"type":"Point","coordinates":[5.60772,51.51719]},"properties":{"type":"charge","layer":"passenger","locationId":"833b904c-2da5-11ef-9a3c-42010aa400b8","name":"Eneco eMobility Royal Swinkels Family Brewers - Lieshout","address":"De Stater 1","city":"Lieshout","operatorName":"Eneco","maxPowerKw":22,"isMegawatt":false,"status":"AVAILABLE","source":"ndw","priceKwh":0.32}},{"type":"Feature","geometry":{"type":"Point","coordinates":[5.63143,51.508782]},"properties":{"type":"charge","layer":"passenger","locationId":"0a7365bd-05f4-4789-abaf-c5bed7e25894","name":"Lieshoutseweg","address":"Lieshoutseweg 39","city":"Aarle-Rixtel","operatorName":"Vattenfall InCharge","maxPowerKw":11,"isMegawatt":false,"status":"AVAILABLE","source":"ndw"}},{"type":"Feature","geometry":{"type":"Point","coordinates":[5.590679,51.51552]},"properties":{"type":"charge","layer":"passenger","locationId":"ba5e641c-916d-4bcd-a2cd-f8c5b6b5e9de","name":"De Vang","address":"De Vang 4","city":"Lieshout","operatorName":"Vattenfall InCharge","maxPowerKw":11,"isMegawatt":false,"status":"AVAILABLE","source":"ndw"}},{"type":"Feature","geometry":{"type":"Point","coordinates":[5.632888,51.534731]},"properties":{"type":"charge","layer":"passenger","locationId":"b83627f7-8b51-4a61-86ed-9501f411e5c6","name":"Raadhuisplein","address":"Raadhuisplein 2","city":"Beek en Donk","operatorName":"Vattenfall InCharge","maxPowerKw":11,"isMegawatt":false,"status":"AVAILABLE","source":"ndw"}},{"type":"Feature","geometry":{"type":"Point","coordinates":[5.628211,51.538245]},"properties":{"type":"charge","layer":"passenger","locationId":"3de436c488ebb31cdf53d5db77bdb4ca","name":"Piet van Thielplein 25","address":"Piet van Thielplein 25","city":"Beek en Donk","operatorName":"Vattenfall InCharge","maxPowerKw":11,"isMegawatt":false,"status":"AVAILABLE","source":"ndw"}},{"type":"Feature","geometry":{"type":"Point","coordinates":[5.643125,51.524208]},"properties":{"type":"charge","layer":"passenger","locationId":"AE8FAD65-13D9-478C-BC68-4737C528330C","name":"Eneco eMobility Beekerheide 26 Laarbeek","address":"Beekerheide 26","city":"Laarbeek","operatorName":"Eneco","maxPowerKw":0,"isMegawatt":false,"status":"UNAVAILABLE","source":"ndw","priceKwh":0.32}},{"type":"Feature","geometry":{"type":"Point","coordinates":[5.577709,51.542381]},"properties":{"type":"charge","layer":"passenger","locationId":"3844a4c7-a771-4122-ac90-e85255536b25","name":"Bikkel 4","address":"Bikkel 4","city":"Mariahout","operatorName":"Vattenfall InCharge","maxPowerKw":11,"isMegawatt":false,"status":"AVAILABLE","source":"ndw"}},{"type":"Feature","geometry":{"type":"Point","coordinates":[5.622848,51.52729]},"properties":{"type":"charge","layer":"passenger","locationId":"2566e8c0-02d0-4475-a7c1-0d2502028295","name":"Harmonielaan","address":"Harmonielaan 35","city":"Beek en Donk","operatorName":"Vattenfall InCharge","maxPowerKw":11,"isMegawatt":false,"status":"AVAILABLE","source":"ndw"}},{"type":"Feature","geometry":{"type":"Point","coordinates":[5.621486,51.528233]},"properties":{"type":"charge","layer":"passenger","locationId":"6d8c8320-1340-4772-8122-e499a5c0ea98","name":"Ouverturelaan","address":"Ouverturelaan 30","city":"Beek en Donk","operatorName":"Vattenfall InCharge","maxPowerKw":11,"isMegawatt":false,"status":"AVAILABLE","source":"ndw"}},{"type":"Feature","geometry":{"type":"Point","coordinates":[5.636868,51.510994]},"properties":{"type":"charge","layer":"passenger","locationId":"27e89f91-bac4-4c04-b012-433be834cc53","name":"Het Klavier 27","address":"Het Klavier 27","city":"Aarle-Rixtel","operatorName":"Vattenfall InCharge","maxPowerKw":11,"isMegawatt":false,"status":"AVAILABLE","source":"ndw"}},{"type":"Feature","geometry":{"type":"Point","coordinates":[5.590585,51.518107]},"properties":{"type":"charge","layer":"passenger","locationId":"a2408e40-c7ce-41bf-ad11-d2267694bf43","name":"Ekelcamp 32","address":"Ekelcamp 32","city":"Lieshout","operatorName":"Vattenfall InCharge","maxPowerKw":11,"isMegawatt":false,"status":"AVAILABLE","source":"ndw"}},{"type":"Feature","geometry":{"type":"Point","coordinates":[5.62881,51.527633]},"properties":{"type":"charge","layer":"passenger","locationId":"cbd72a3b-9dde-41f1-b44f-d5c5ffe575ff","name":"Klaproosstraat 32","address":"Klaproosstraat 32","city":"Beek en Donk","operatorName":"Vattenfall InCharge","maxPowerKw":11,"isMegawatt":false,"status":"AVAILABLE","source":"ndw"}},{"type":"Feature","geometry":{"type":"Point","coordinates":[5.597712,51.51888]},"properties":{"type":"charge","layer":"passenger","locationId":"077fbfb1-2a58-4d90-b681-5fee561d49fd","name":"Nieuwstraat","address":"Nieuwstraat 32","city":"Lieshout","operatorName":"Vattenfall InCharge","maxPowerKw":11,"isMegawatt":false,"status":"AVAILABLE","source":"ndw"}},{"type":"Feature","geometry":{"type":"Point","coordinates":[5.654306,51.513287]},"properties":{"type":"charge","layer":"passenger","locationId":"dbcaee89d1262c471e3d21b386cab6d0","name":"Bakelseweg 1","address":"Bakelseweg 1","city":"Aarle-Rixtel","operatorName":"Vattenfall InCharge","maxPowerKw":11,"isMegawatt":false,"status":"AVAILABLE","source":"ndw"}},{"type":"Feature","geometry":{"type":"Point","coordinates":[5.622232,51.52929]},"properties":{"type":"charge","layer":"passenger","locationId":"b3f42c2f5d21d9794e28d32d264c5a96","name":"Klavierstraat 44","address":"Klavierstraat 44","city":"Beek en Donk","operatorName":"Vattenfall InCharge","maxPowerKw":11,"isMegawatt":false,"status":"CHARGING","source":"ndw"}},{"type":"Feature","geometry":{"type":"Point","coordinates":[5.621475,51.543911]},"properties":{"type":"charge","layer":"passenger","locationId":"1457a6a7fb2a0c720679048967b6d604","name":"De Peppel 20","address":"De Peppel 20","city":"Beek en Donk","operatorName":"Vattenfall InCharge","maxPowerKw":11,"isMegawatt":false,"status":"AVAILABLE","source":"ndw"}},{"type":"Feature","geometry":{"type":"Point","coordinates":[5.636443,51.532934]},"properties":{"type":"charge","layer":"passenger","locationId":"66ffe7d82f93b3001c4fa7a3","name":"Lifestyle Center Laarbeek B.V.","address":"Parklaan 6","city":"Beek en Donk","operatorName":"Pluq","maxPowerKw":22,"isMegawatt":false,"status":"AVAILABLE","source":"ndw","priceKwh":0.33}},{"type":"Feature","geometry":{"type":"Point","coordinates":[5.58594,51.51476]},"properties":{"type":"charge","layer":"passenger","locationId":"ca5a78c24bd23d796fceeed3a0403f87","name":"De Schop 29","address":"De Schop 29","city":"Lieshout","operatorName":"Vattenfall InCharge","maxPowerKw":11,"isMegawatt":false,"status":"AVAILABLE","source":"ndw"}},{"type":"Feature","geometry":{"type":"Point","coordinates":[5.637243,51.529181]},"properties":{"type":"charge","layer":"passenger","locationId":"f4c9bbedc186629cf866417b1b4b836d","name":"Kerkstraat 5","address":"Kerkstraat 5","city":"Beek en Donk","operatorName":"Vattenfall InCharge","maxPowerKw":11,"isMegawatt":false,"status":"AVAILABLE","source":"ndw"}},{"type":"Feature","geometry":{"type":"Point","coordinates":[5.634311,51.540908]},"properties":{"type":"charge","layer":"passenger","locationId":"4202988","name":"Laadnet Monseigneur Verhagenstraat","address":"Monseigneur Verhagenstraat 40","city":"Beek en Donk","operatorName":"Laadnet","maxPowerKw":11,"isMegawatt":false,"status":"AVAILABLE","source":"ndw"}},{"type":"Feature","geometry":{"type":"Point","coordinates":[5.633551,51.524979]},"properties":{"type":"charge","layer":"passenger","locationId":"54bda30c-cf26-40b3-a85b-b1aa207db9aa","name":"Merensteinplein","address":"Merensteinplein 31","city":"Beek en Donk","operatorName":"Vattenfall InCharge","maxPowerKw":11,"isMegawatt":false,"status":"CHARGING","source":"ndw"}},{"type":"Feature","geometry":{"type":"Point","coordinates":[5.620098,51.530821]},"properties":{"type":"charge","layer":"passenger","locationId":"a30fbc5c4c91d690a6356d312b1c8e6b","name":"Groes 16","address":"Groes 16","city":"Beek en Donk","operatorName":"Vattenfall InCharge","maxPowerKw":11,"isMegawatt":false,"status":"AVAILABLE","source":"ndw"}},{"type":"Feature","geometry":{"type":"Point","coordinates":[5.627547,51.533636]},"properties":{"type":"charge","layer":"passenger","locationId":"34476703-5b53-4dc6-9bf5-8c9b1644e3f8","name":"Nachtegaallaan 59","address":"Nachtegaallaan 59","city":"Beek en Donk","operatorName":"Vattenfall InCharge","maxPowerKw":11,"isMegawatt":false,"status":"AVAILABLE","source":"ndw"}},{"type":"Feature","geometry":{"type":"Point","coordinates":[5.592118,51.518421]},"properties":{"type":"charge","layer":"passenger","locationId":"263544bf-c9fb-4f59-b7f9-981361f396d1","name":"Grotenhof","address":"Grotenhof 38","city":"Lieshout","operatorName":"Vattenfall InCharge","maxPowerKw":11,"isMegawatt":false,"status":"AVAILABLE","source":"ndw"}},{"type":"Feature","geometry":{"type":"Point","coordinates":[5.566761,51.540099]},"properties":{"type":"charge","layer":"passenger","locationId":"922668","name":"DAE-NL-2000165","address":"Meerven 5","city":"Mariahout","operatorName":"DAEN Mobility","maxPowerKw":11,"isMegawatt":false,"status":"AVAILABLE","source":"ndw","priceKwh":0.38}},{"type":"Feature","geometry":{"type":"Point","coordinates":[5.60772,51.51719]},"properties":{"type":"charge","layer":"passenger","locationId":"9F46329E-3A09-4D05-B98D-473C787F0958","name":"Eneco eMobility Royal Swinkels Family Brewers - Lieshout","address":"De Stater 1","city":"Lieshout","operatorName":"Eneco","maxPowerKw":22,"isMegawatt":false,"status":"AVAILABLE","source":"ndw","priceKwh":0.32}},{"type":"Feature","geometry":{"type":"Point","coordinates":[5.568766,51.539983]},"properties":{"type":"charge","layer":"passenger","locationId":"b3ab8af3-84bf-435d-9c3b-868b12773f08","name":"Bernadettestraat 43","address":"Bernadettestraat 43","city":"Mariahout","operatorName":"Vattenfall InCharge","maxPowerKw":11,"isMegawatt":false,"status":"AVAILABLE","source":"ndw"}},{"type":"Feature","geometry":{"type":"Point","coordinates":[5.632484,51.511912]},"properties":{"type":"charge","layer":"passenger","locationId":"254de095c4b120af26f9024217650ecc","name":"Kempenstraat 16","address":"Kempenstraat 16","city":"Aarle-Rixtel","operatorName":"Vattenfall InCharge","maxPowerKw":11,"isMegawatt":false,"status":"AVAILABLE","source":"ndw"}},{"type":"Feature","geometry":{"type":"Point","coordinates":[5.630587,51.531365]},"properties":{"type":"charge","layer":"passenger","locationId":"bbb89002e3793aef0a514577ef2ba528","name":"Leeuweriklaan 2","address":"Leeuweriklaan 2","city":"Beek en Donk","operatorName":"Vattenfall InCharge","maxPowerKw":11,"isMegawatt":false,"status":"AVAILABLE","source":"ndw"}},{"type":"Feature","geometry":{"type":"Point","coordinates":[5.638677,51.529127]},"properties":{"type":"charge","layer":"passenger","locationId":"3edad6918ab66e221a331508d83f0736","name":"Kerkstraat 38","address":"Kerkstraat 38","city":"Beek en Donk","operatorName":"Vattenfall InCharge","maxPowerKw":11,"isMegawatt":false,"status":"AVAILABLE","source":"ndw"}},{"type":"Feature","geometry":{"type":"Point","coordinates":[5.621101,51.542239]},"properties":{"type":"charge","layer":"passenger","locationId":"eb203ef7-ca86-4d52-8852-2c253c972eee","name":"Beukenlaan ","address":"Beukenlaan  10","city":"Beek en Donk","operatorName":"Vattenfall InCharge","maxPowerKw":11,"isMegawatt":false,"status":"AVAILABLE","source":"ndw"}},{"type":"Feature","geometry":{"type":"Point","coordinates":[5.588381,51.516491]},"properties":{"type":"charge","layer":"passenger","locationId":"ce91d481-8195-49ef-bea7-e3d134aac9be","name":"De Eg 20","address":"De Eg 20","city":"Lieshout","operatorName":"Vattenfall InCharge","maxPowerKw":11,"isMegawatt":false,"status":"AVAILABLE","source":"ndw"}},{"type":"Feature","geometry":{"type":"Point","coordinates":[5.64043,51.51177]},"properties":{"type":"charge","layer":"passenger","locationId":"65eed1ed-c218-4d22-a603-9f3e2b534771","name":"Schoolstraat 3","address":"Schoolstraat 3","city":"Aarle-Rixtel","operatorName":"Vattenfall InCharge","maxPowerKw":11,"isMegawatt":false,"status":"AVAILABLE","source":"ndw"}},{"type":"Feature","geometry":{"type":"Point","coordinates":[5.588316,51.523352]},"properties":{"type":"charge","layer":"passenger","locationId":"4162289","name":"Laadnet Molendreef","address":"Molendreef 12","city":"Lieshout","operatorName":"Laadnet","maxPowerKw":11,"isMegawatt":false,"status":"AVAILABLE","source":"ndw"}},{"type":"Feature","geometry":{"type":"Point","coordinates":[5.625211,51.537324]},"properties":{"type":"charge","layer":"passenger","locationId":"1fe20735fe349d0a29bb09a5ed30c0fe","name":"Kloostertuin 31","address":"Kloostertuin 31","city":"Beek en Donk","operatorName":"Vattenfall InCharge","maxPowerKw":11,"isMegawatt":false,"status":"AVAILABLE","source":"ndw"}},{"type":"Feature","geometry":{"type":"Point","coordinates":[5.648236,51.507465]},"properties":{"type":"charge","layer":"passenger","locationId":"18c8693b-a3b3-45a6-bbbe-a5b0a0d1bbbb","name":"De Duivenakker 24","address":"De Duivenakker 24","city":"Aarle-Rixtel","operatorName":"Vattenfall InCharge","maxPowerKw":11,"isMegawatt":false,"status":"AVAILABLE","source":"ndw"}},{"type":"Feature","geometry":{"type":"Point","coordinates":[5.629787,51.532622]},"properties":{"type":"charge","layer":"passenger","locationId":"dfe21229-0ffc-4b75-98ae-014cc4fafd47","name":"Sijsjesplein 10","address":"Sijsjesplein 10","city":"Beek en Donk","operatorName":"Vattenfall InCharge","maxPowerKw":11,"isMegawatt":false,"status":"AVAILABLE","source":"ndw"}},{"type":"Feature","geometry":{"type":"Point","coordinates":[5.589717,51.552628]},"properties":{"type":"charge","layer":"passenger","locationId":"6453c5faeec975001235b9f3","name":"Jos van Vijfeijken 's station","address":"Schaapsdijk 6","city":"Mariahout","operatorName":"E-Flux by Road","maxPowerKw":17,"isMegawatt":false,"status":"AVAILABLE","source":"ndw","priceKwh":0.63}},{"type":"Feature","geometry":{"type":"Point","coordinates":[5.627872,51.529165]},"properties":{"type":"charge","layer":"passenger","locationId":"76e07789-db7b-4bdf-a55c-1ae62bd0dc53","name":"Zaagmolenweg 29","address":"Zaagmolenweg 29","city":"Beek en Donk","operatorName":"Vattenfall InCharge","maxPowerKw":11,"isMegawatt":false,"status":"AVAILABLE","source":"ndw"}},{"type":"Feature","geometry":{"type":"Point","coordinates":[5.62557,51.533017]},"properties":{"type":"charge","layer":"passenger","locationId":"871a0fc8-dec5-4218-99e1-7a5d6dbe31f2","name":"Beverstraat 123","address":"Beverstraat 123","city":"Beek en Donk","operatorName":"Vattenfall InCharge","maxPowerKw":11,"isMegawatt":false,"status":"AVAILABLE","source":"ndw"}},{"type":"Feature","geometry":{"type":"Point","coordinates":[5.595635,51.515082]},"properties":{"type":"charge","layer":"passenger","locationId":"2b35a53eff8bf204a6917fe9858ca41a","name":"Papenhoef 2a","address":"Papenhoef 2a","city":"Lieshout","operatorName":"Vattenfall InCharge","maxPowerKw":11,"isMegawatt":false,"status":"AVAILABLE","source":"ndw"}},{"type":"Feature","geometry":{"type":"Point","coordinates":[5.571652,51.540903]},"properties":{"type":"charge","layer":"passenger","locationId":"1808afa1-ecd5-4def-a1a2-14dcd9783096","name":"Oranjeplein","address":"Oranjeplein 1c","city":"Mariahout","operatorName":"Vattenfall InCharge","maxPowerKw":11,"isMegawatt":false,"status":"CHARGING","source":"ndw"}},{"type":"Feature","geometry":{"type":"Point","coordinates":[5.633625,51.528785]},"properties":{"type":"charge","layer":"passenger","locationId":"c943d9f4-3929-4bef-b926-570d8136e628","name":"Heuvelplein","address":"Heuvelplein 65","city":"Beek en Donk","operatorName":"Vattenfall InCharge","maxPowerKw":11,"isMegawatt":false,"status":"AVAILABLE","source":"ndw"}},{"type":"Feature","geometry":{"type":"Point","coordinates":[5.601442,51.521213]},"properties":{"type":"charge","layer":"passenger","locationId":"eb0049df9e17ce82cefb8bfbe25b4af1","name":"De Wolwever 19","address":"De Wolwever 19","city":"Lieshout","operatorName":"Vattenfall InCharge","maxPowerKw":11,"isMegawatt":false,"status":"AVAILABLE","source":"ndw"}},{"type":"Feature","geometry":{"type":"Point","coordinates":[5.631703,51.537969]},"properties":{"type":"charge","layer":"passenger","locationId":"11a12d1a-cc1e-40aa-9618-c54b34997570","name":"Rubenslaan 10","address":"Rubenslaan 10","city":"Beek en Donk","operatorName":"Vattenfall InCharge","maxPowerKw":11,"isMegawatt":false,"status":"AVAILABLE","source":"ndw"}},{"type":"Feature","geometry":{"type":"Point","coordinates":[5.634552,51.524654]},"properties":{"type":"charge","layer":"passenger","locationId":"2ba03dbf-a978-4466-bf68-f00cb6913299","name":"Ter Lijnden 18","address":"Ter Lijnden 18","city":"Beek en Donk","operatorName":"Vattenfall InCharge","maxPowerKw":11,"isMegawatt":false,"status":"AVAILABLE","source":"ndw"}},{"type":"Feature","geometry":{"type":"Point","coordinates":[5.628027,51.530602]},"properties":{"type":"charge","layer":"passenger","locationId":"d49e7f79-3af0-4539-93a9-65b47b374638","name":"Molenhoek","address":"Molenhoek 12","city":"Beek en Donk","operatorName":"Vattenfall InCharge","maxPowerKw":11,"isMegawatt":false,"status":"AVAILABLE","source":"ndw"}},{"type":"Feature","geometry":{"type":"Point","coordinates":[5.633528,51.539937]},"properties":{"type":"charge","layer":"passenger","locationId":"04cfcef958ecb666f4e4f39b2d6026eb","name":"Tuinstraat 8","address":"Tuinstraat 8","city":"Beek en Donk","operatorName":"Vattenfall InCharge","maxPowerKw":11,"isMegawatt":false,"status":"AVAILABLE","source":"ndw"}},{"type":"Feature","geometry":{"type":"Point","coordinates":[5.63804,51.52289]},"properties":{"type":"charge","layer":"passenger","locationId":"b4edcbfe-6a1f-496d-9499-ede27691cb0d","name":"Malborg","address":"Malborg 25","city":"Beek en Donk","operatorName":"Vattenfall InCharge","maxPowerKw":11,"isMegawatt":false,"status":"AVAILABLE","source":"ndw"}},{"type":"Feature","geometry":{"type":"Point","coordinates":[5.62709,51.538548]},"properties":{"type":"charge","layer":"passenger","locationId":"5328aff4-f48f-42c0-bdba-c03c8df3176a","name":"Schoolstraat","address":"Schoolstraat 1","city":"Beek en Donk","operatorName":"Vattenfall InCharge","maxPowerKw":11,"isMegawatt":false,"status":"AVAILABLE","source":"ndw"}},{"type":"Feature","geometry":{"type":"Point","coordinates":[5.644693,51.509682]},"properties":{"type":"charge","layer":"passenger","locationId":"09b882fdd9e1789b91f2e46b3544cce4","name":"De Vinken 27","address":"De Vinken 27","city":"Aarle-Rixtel","operatorName":"Vattenfall InCharge","maxPowerKw":11,"isMegawatt":false,"status":"AVAILABLE","source":"ndw"}},{"type":"Feature","geometry":{"type":"Point","coordinates":[5.577337,51.541424]},"properties":{"type":"charge","layer":"passenger","locationId":"51bccf26-6680-4330-acc6-b2d3df0780d7","name":"Struikheide 13","address":"Struikheide 13","city":"Mariahout","operatorName":"Vattenfall InCharge","maxPowerKw":11,"isMegawatt":false,"status":"AVAILABLE","source":"ndw"}},{"type":"Feature","geometry":{"type":"Point","coordinates":[5.64541,51.50617]},"properties":{"type":"charge","layer":"passenger","locationId":"8c581be14d39997a65ca61a210c381d2","name":"De Duivenakker 72","address":"De Duivenakker 72","city":"Aarle-Rixtel","operatorName":"Vattenfall InCharge","maxPowerKw":11,"isMegawatt":false,"status":"AVAILABLE","source":"ndw"}},{"type":"Feature","geometry":{"type":"Point","coordinates":[5.641619,51.509653]},"properties":{"type":"charge","layer":"passenger","locationId":"37afc0bd-33a8-4cbf-a3f5-d3ad1a4bf09b","name":"Dijkmanstraat","address":"Dijkmanstraat 16","city":"Aarle-Rixtel","operatorName":"Vattenfall InCharge","maxPowerKw":11,"isMegawatt":false,"status":"AVAILABLE","source":"ndw"}},{"type":"Feature","geometry":{"type":"Point","coordinates":[5.64529,51.506126]},"properties":{"type":"charge","layer":"passenger","locationId":"aec9e0e9-d442-4249-8347-d8ce7367ddfd","name":"De Duivenakker 74","address":"De Duivenakker 74","city":"Aarle-Rixtel","operatorName":"Vattenfall InCharge","maxPowerKw":11,"isMegawatt":false,"status":"AVAILABLE","source":"ndw"}},{"type":"Feature","geometry":{"type":"Point","coordinates":[5.625635,51.529342]},"properties":{"type":"charge","layer":"passenger","locationId":"0398b949-6fb1-4ac8-84e9-0e82a1871fd2","name":"De Wieken","address":"De Wieken 106","city":"Beek en Donk","operatorName":"Vattenfall InCharge","maxPowerKw":11,"isMegawatt":false,"status":"AVAILABLE","source":"ndw"}},{"type":"Feature","geometry":{"type":"Point","coordinates":[5.632885,51.511757]},"properties":{"type":"charge","layer":"passenger","locationId":"3b5d8dac-762c-4231-81bb-3d02332e7ea4","name":"Kempenstraat","address":"Kempenstraat 6","city":"Aarle-Rixtel","operatorName":"Vattenfall InCharge","maxPowerKw":11,"isMegawatt":false,"status":"AVAILABLE","source":"ndw"}},{"type":"Feature","geometry":{"type":"Point","coordinates":[5.62041,51.530376]},"properties":{"type":"charge","layer":"passenger","locationId":"4fa34344-6b92-4294-b317-15825ad51453","name":"Ten Bleek 23","address":"Ten Bleek 23","city":"Beek en Donk","operatorName":"Vattenfall InCharge","maxPowerKw":11,"isMegawatt":false,"status":"AVAILABLE","source":"ndw"}},{"type":"Feature","geometry":{"type":"Point","coordinates":[5.625068,51.525983]},"properties":{"type":"charge","layer":"passenger","locationId":"41233d3432a06d970c8809ce34987f82","name":"Engelen 9","address":"Engelen 9","city":"Beek en Donk","operatorName":"Vattenfall InCharge","maxPowerKw":11,"isMegawatt":false,"status":"AVAILABLE","source":"ndw"}},{"type":"Feature","geometry":{"type":"Point","coordinates":[5.6333,51.53107]},"properties":{"type":"charge","layer":"passenger","locationId":"6560aef50141a9206c071c9ae010bcbb","name":"Nieuwstraat 2","address":"Nieuwstraat 2","city":"Beek en Donk","operatorName":"Vattenfall InCharge","maxPowerKw":11,"isMegawatt":false,"status":"AVAILABLE","source":"ndw"}},{"type":"Feature","geometry":{"type":"Point","coordinates":[5.64721,51.50782]},"properties":{"type":"charge","layer":"passenger","locationId":"98f16e7dd51cf2328b374ae8dc78f8e9","name":"De Zitter 40","address":"De Zitter 40","city":"Aarle-Rixtel","operatorName":"Vattenfall InCharge","maxPowerKw":11,"isMegawatt":false,"status":"AVAILABLE","source":"ndw"}},{"type":"Feature","geometry":{"type":"Point","coordinates":[5.62994,51.539331]},"properties":{"type":"charge","layer":"passenger","locationId":"714236e65b5b05335d6c8e573e8f6c2a","name":"Baron van Leefdaelstraat 24","address":"Baron van Leefdaelstraat 24","city":"Beek en Donk","operatorName":"Vattenfall InCharge","maxPowerKw":11,"isMegawatt":false,"status":"AVAILABLE","source":"ndw"}},{"type":"Feature","geometry":{"type":"Point","coordinates":[5.634119,51.530207]},"properties":{"type":"charge","layer":"passenger","locationId":"82d112f807829b0d7768205fd00cccbf","name":"Michaelplein 1","address":"Michaelplein 1","city":"Beek en Donk","operatorName":"Vattenfall InCharge","maxPowerKw":11,"isMegawatt":false,"status":"AVAILABLE","source":"ndw"}},{"type":"Feature","geometry":{"type":"Point","coordinates":[5.630331,51.526251]},"properties":{"type":"charge","layer":"passenger","locationId":"09bdf395-227a-443e-a07f-cdd9dd5f10b7","name":"Leliestraat","address":"Leliestraat 2","city":"Beek en Donk","operatorName":"Vattenfall InCharge","maxPowerKw":11,"isMegawatt":false,"status":"AVAILABLE","source":"ndw"}},{"type":"Feature","geometry":{"type":"Point","coordinates":[5.59305,51.52383]},"properties":{"type":"charge","layer":"passenger","locationId":"3aa8827fd7a53becb540eab26339d1f7","name":"Dorpsstraat 102","address":"Dorpsstraat 102","city":"Lieshout","operatorName":"Vattenfall InCharge","maxPowerKw":11,"isMegawatt":false,"status":"AVAILABLE","source":"ndw"}},{"type":"Feature","geometry":{"type":"MultiPolygon","coordinates":[[[[5.659449581476498,51.55375883396677],[5.660477919636234,51.55132555976146],[5.666854594727917,51.54066655246589],[5.674528808824618,51.53326124421436],[5.677451878659477,51.53085646703707],[5.682173305058272,51.52764024654422],[5.67837301345511,51.528356868382396],[5.677702111774998,51.52725732768819],[5.681301449380504,51.52636143881741],[5.680653370516245,51.52589588378748],[5.674537764394226,51.52577523015622],[5.676737241705471,51.52435386466596],[5.68157469465661,51.51838906075758],[5.684519611440184,51.51777883498808],[5.685288036387198,51.51516846721344],[5.684069167096992,51.513227410375855],[5.686004134950334,51.512735583455246],[5.684143158788134,51.507699584282285],[5.682960391480599,51.50447920734747],[5.6726673756073955,51.50544116741865],[5.669950905924262,51.50413771420757],[5.6751045414237105,51.49894710152888],[5.663584274574324,51.50225543369222],[5.656402824125347,51.50730887158134],[5.652515585860738,51.504010311834406],[5.6502527214232225,51.503748329391144],[5.646384536970031,51.5020963730831],[5.644155572438304,51.501237998189744],[5.641137963091151,51.498303300572246],[5.6348213333463395,51.494882750447736],[5.630938210123957,51.495110213257554],[5.626929712251541,51.49627470732535],[5.626065081867547,51.4982850214445],[5.622036138786976,51.49809012631609],[5.618729654078,51.498638507254874],[5.614827500592695,51.50044722586963],[5.6105606264213685,51.504725401726205],[5.611236788493771,51.50797474784505],[5.609652828737597,51.509216922162544],[5.579932137190882,51.49875966752633],[5.576728772117623,51.49945274590941],[5.566550579957376,51.50167202972553],[5.55765126591873,51.50936930181519],[5.554379721154007,51.5189877183671],[5.547913123958448,51.538075463096376],[5.547436083628369,51.53773161169728],[5.5430415122927394,51.540000270775145],[5.545206075985763,51.541686539740724],[5.537945964899936,51.5513183240748],[5.5330817557200485,51.557803230624664],[5.545238369848581,51.55809599517782],[5.555335955620678,51.55852421945782],[5.584339762417959,51.56273098696393],[5.607414973937736,51.55969262470068],[5.614223995379546,51.554604321868865],[5.618191285247857,51.55584113421731],[5.619232885303258,51.553995679268986],[5.621794237095595,51.55326814608668],[5.625668903948521,51.55509892723606],[5.640334049140845,51.56441787670836],[5.652484713534729,51.56967815582702],[5.659449581476498,51.55375883396677]]]]},"properties":{"type":"boundary","gemeente":"Laarbeek","code":"GM1659"}}]}