{"type":"FeatureCollection","metadata":{"gemeente":"Leiden","slug":"leiden","code":"GM0546","generated_at":"2026-06-07T19:22:09.578Z","total_passenger":587,"total_freight":0,"bounds":[4.438865008633264,52.118952018446336,4.524037525517154,52.18462183517697],"operators":["Allego","E-Flux by Road","EQUANS","Eneco","IPCharging","Laadnet","Lanova Laadpalen","NXT Charging Solutions","Opcharge","Pluq","Valk Energy","Vattenfall InCharge","e-VOLTT"]},"features":[{"type":"Feature","geometry":{"type":"Point","coordinates":[4.476387,52.156663]},"properties":{"type":"charge","layer":"passenger","locationId":"NLLOC000881","name":"NLD, Leiden, Ten Katestraat 1","address":"Ten Katestraat 1","city":"Leiden","operatorName":"Allego","maxPowerKw":0,"isMegawatt":false,"status":"AVAILABLE","source":"ndw","priceKwh":0.511}},{"type":"Feature","geometry":{"type":"Point","coordinates":[4.502491,52.177798]},"properties":{"type":"charge","layer":"passenger","locationId":"655dfae62feacf001cfba606","name":"Leiden Kokkelbank/Zaagjesbank 4","address":"Zaagjesbank 5","city":"Leiden","operatorName":"E-Flux by Road","maxPowerKw":14,"isMegawatt":false,"status":"AVAILABLE","source":"ndw","priceKwh":0.5217}},{"type":"Feature","geometry":{"type":"Point","coordinates":[4.499262,52.178275]},"properties":{"type":"charge","layer":"passenger","locationId":"NLLOC000724","name":"NLD, Leiden, Kruisbes 1","address":"Kruisbes 1","city":"Leiden","operatorName":"Allego","maxPowerKw":0,"isMegawatt":false,"status":"AVAILABLE","source":"ndw","priceKwh":0.511}},{"type":"Feature","geometry":{"type":"Point","coordinates":[4.49142,52.168416]},"properties":{"type":"charge","layer":"passenger","locationId":"NLLOC008851","name":"NL, Musschenbroekstraat 15, 2316 AW Leiden","address":"Musschenbroekstraat 15","city":"Leiden","operatorName":"Allego","maxPowerKw":0,"isMegawatt":false,"status":"AVAILABLE","source":"ndw","priceKwh":0.511}},{"type":"Feature","geometry":{"type":"Point","coordinates":[4.457039,52.153727]},"properties":{"type":"charge","layer":"passenger","locationId":"674867d17baaf249839cfb3e","name":"Leiden/Rijndijk 114","address":"Rijndijk 114","city":"Leiden","operatorName":"E-Flux by Road","maxPowerKw":14,"isMegawatt":false,"status":"AVAILABLE","source":"ndw","priceKwh":0.5217}},{"type":"Feature","geometry":{"type":"Point","coordinates":[4.46452,52.157889]},"properties":{"type":"charge","layer":"passenger","locationId":"NLLOC011512","name":"NL, Opaalstraat 229, 2332TA, Leiden","address":"Opaalstraat 229","city":"Leiden","operatorName":"Allego","maxPowerKw":0,"isMegawatt":false,"status":"AVAILABLE","source":"ndw","priceKwh":0.511}},{"type":"Feature","geometry":{"type":"Point","coordinates":[4.494817,52.15024]},"properties":{"type":"charge","layer":"passenger","locationId":"NLLOC000638","name":"NL, Lammenschansweg 42, 2313 DM, Leiden","address":"Lammenschansweg 42","city":"Leiden","operatorName":"Allego","maxPowerKw":0,"isMegawatt":false,"status":"AVAILABLE","source":"ndw","priceKwh":0.511}},{"type":"Feature","geometry":{"type":"Point","coordinates":[4.499811,52.163429]},"properties":{"type":"charge","layer":"passenger","locationId":"NLLOC001135","name":"NLD, Leiden, Houtmarkt 22","address":"Houtmarkt 22","city":"Leiden","operatorName":"Allego","maxPowerKw":0,"isMegawatt":false,"status":"AVAILABLE","source":"ndw","priceKwh":0.511}},{"type":"Feature","geometry":{"type":"Point","coordinates":[4.495222,52.154183]},"properties":{"type":"charge","layer":"passenger","locationId":"NLLOC003899","name":"NLD, Gemeente Leiden, Geregracht 42 2311PB Leiden","address":"Geregracht 42","city":"Leiden","operatorName":"Allego","maxPowerKw":0,"isMegawatt":false,"status":"CHARGING","source":"ndw","priceKwh":0.511}},{"type":"Feature","geometry":{"type":"Point","coordinates":[4.499325,52.156444]},"properties":{"type":"charge","layer":"passenger","locationId":"NLLOC003939","name":"NLD, Gemeente Leiden, Herengracht 5 2312LA Leiden","address":"Herengracht 5","city":"Leiden","operatorName":"Allego","maxPowerKw":0,"isMegawatt":false,"status":"CHARGING","source":"ndw","priceKwh":0.511}},{"type":"Feature","geometry":{"type":"Point","coordinates":[4.506939,52.154294]},"properties":{"type":"charge","layer":"passenger","locationId":"NLLOC003363","name":"NLD, Kernstraat 1, 2313 EV Leiden","address":"Kernstraat 1","city":"Leiden","operatorName":"Allego","maxPowerKw":0,"isMegawatt":false,"status":"CHARGING","source":"ndw","priceKwh":0.511}},{"type":"Feature","geometry":{"type":"Point","coordinates":[4.461589,52.158442]},"properties":{"type":"charge","layer":"passenger","locationId":"NLLOC020948","name":"NL, Topaaslaan 21, 2332JC, Leiden","address":"Topaaslaan 21","city":"Leiden","operatorName":"Allego","maxPowerKw":0,"isMegawatt":false,"status":"AVAILABLE","source":"ndw","priceKwh":0.511}},{"type":"Feature","geometry":{"type":"Point","coordinates":[4.46909,52.15598]},"properties":{"type":"charge","layer":"passenger","locationId":"9639eb74-fc35-11ec-bd6a-42010aa40fc4","name":"Eneco eMobility Amphoraweg 1 Leiden","address":"Amphoraweg 1","city":"Leiden","operatorName":"Eneco","maxPowerKw":0,"isMegawatt":false,"status":"AVAILABLE","source":"ndw","priceKwh":0.55}},{"type":"Feature","geometry":{"type":"Point","coordinates":[4.484529,52.150212]},"properties":{"type":"charge","layer":"passenger","locationId":"NLLOC000131","name":"NLD, Leiden, Schelpenkade 60","address":"Schelpenkade 60","city":"Leiden","operatorName":"Allego","maxPowerKw":0,"isMegawatt":false,"status":"AVAILABLE","source":"ndw","priceKwh":0.511}},{"type":"Feature","geometry":{"type":"Point","coordinates":[4.471736,52.155472]},"properties":{"type":"charge","layer":"passenger","locationId":"7F6602AB-0A51-41F3-8BBC-4F5056DA2C9A","name":"Eneco eMobility RWV Advocaten - Haagweg 149 - Leiden","address":"Haagweg 149","city":"Leiden","operatorName":"Eneco","maxPowerKw":22,"isMegawatt":false,"status":"CHARGING","source":"ndw","priceKwh":0.35}},{"type":"Feature","geometry":{"type":"Point","coordinates":[4.445997,52.154132]},"properties":{"type":"charge","layer":"passenger","locationId":"NLLOC013496","name":"NL, Esther de Boer-van Rijkstraat 32, 2331HJ, Leiden","address":"Esther de Boer-van Rijkstraat 32","city":"Leiden","operatorName":"Allego","maxPowerKw":0,"isMegawatt":false,"status":"AVAILABLE","source":"ndw","priceKwh":0.511}},{"type":"Feature","geometry":{"type":"Point","coordinates":[4.477432,52.167665]},"properties":{"type":"charge","layer":"passenger","locationId":"OST23P0040_0066_0","name":"OST23P0040_0066_0","address":"Albinusdreef 14","city":"Leiden","operatorName":"IPCharging","maxPowerKw":0,"isMegawatt":false,"status":"AVAILABLE","source":"ndw","priceKwh":0.3}},{"type":"Feature","geometry":{"type":"Point","coordinates":[4.501534,52.152651]},"properties":{"type":"charge","layer":"passenger","locationId":"NLLOC001129","name":"NLD, Leiden, Thorbeckestraat 4","address":"Thorbeckestraat 4","city":"Leiden","operatorName":"Allego","maxPowerKw":0,"isMegawatt":false,"status":"AVAILABLE","source":"ndw","priceKwh":0.511}},{"type":"Feature","geometry":{"type":"Point","coordinates":[4.481942,52.172003]},"properties":{"type":"charge","layer":"passenger","locationId":"NLLOC003584","name":"NLD, Kagerstraat 3C 2334 CP Leiden","address":"Kagerstraat 3C","city":"Leiden","operatorName":"Allego","maxPowerKw":0,"isMegawatt":false,"status":"AVAILABLE","source":"ndw","priceKwh":0.511}},{"type":"Feature","geometry":{"type":"Point","coordinates":[4.48424,52.141008]},"properties":{"type":"charge","layer":"passenger","locationId":"NLLOC004190","name":"NLD, Mary Beystraat 9 2324DK Leiden","address":"Mary Beystraat 9","city":"Leiden","operatorName":"Allego","maxPowerKw":0,"isMegawatt":false,"status":"AVAILABLE","source":"ndw","priceKwh":0.511}},{"type":"Feature","geometry":{"type":"Point","coordinates":[4.449686,52.153313]},"properties":{"type":"charge","layer":"passenger","locationId":"2a2846e6-267b-11ec-bc1a-42010a840003","name":"NL, Petronella Moenspad 30, 2331GX, Leiden","address":"Petronella Moenspad 30","city":"Leiden","operatorName":"Allego","maxPowerKw":0,"isMegawatt":false,"status":"AVAILABLE","source":"ndw"}},{"type":"Feature","geometry":{"type":"Point","coordinates":[4.481973,52.16411]},"properties":{"type":"charge","layer":"passenger","locationId":"NLLOC000355","name":"NLD, Leiden, Morssingel 189","address":"Morssingel 189","city":"Leiden","operatorName":"Allego","maxPowerKw":0,"isMegawatt":false,"status":"AVAILABLE","source":"ndw","priceKwh":0.511}},{"type":"Feature","geometry":{"type":"Point","coordinates":[4.483903,52.151562]},"properties":{"type":"charge","layer":"passenger","locationId":"58a311be-4f3c-11e8-b24a-42010a840002","name":"NLD, Leiden, Witte Rozenstraat 57","address":"Witte Rozenstraat 57","city":"Leiden","operatorName":"Allego","maxPowerKw":0,"isMegawatt":false,"status":"AVAILABLE","source":"ndw"}},{"type":"Feature","geometry":{"type":"Point","coordinates":[4.476601,52.149747]},"properties":{"type":"charge","layer":"passenger","locationId":"67822014-4675-11ed-98a0-42010aa40fc0","name":"NL, Boshuizerlaan 1, 2321SG, Leiden","address":"Boshuizerlaan 1","city":"Leiden","operatorName":"Allego","maxPowerKw":0,"isMegawatt":false,"status":"AVAILABLE","source":"ndw"}},{"type":"Feature","geometry":{"type":"Point","coordinates":[4.461589,52.158442]},"properties":{"type":"charge","layer":"passenger","locationId":"7da64e5a-6b65-11ed-b494-42010aa40fc0","name":"NL, Topaaslaan 21, 2332JC, Leiden","address":"Topaaslaan 21","city":"Leiden","operatorName":"Allego","maxPowerKw":0,"isMegawatt":false,"status":"AVAILABLE","source":"ndw"}},{"type":"Feature","geometry":{"type":"Point","coordinates":[4.499325,52.156444]},"properties":{"type":"charge","layer":"passenger","locationId":"ce0569fa-6d2e-11e9-80b1-42010a840003","name":"NLD, Gemeente Leiden, Herengracht 5 2312LA Leiden","address":"Herengracht 5","city":"Leiden","operatorName":"Allego","maxPowerKw":0,"isMegawatt":false,"status":"AVAILABLE","source":"ndw"}},{"type":"Feature","geometry":{"type":"Point","coordinates":[4.45013,52.147904]},"properties":{"type":"charge","layer":"passenger","locationId":"d775a6f2-1e05-11ea-9dc8-42010a840003","name":"NLD, Diaconessenstraat 2 2331PB Leiden","address":"Diaconessenstraat 2","city":"Leiden","operatorName":"Allego","maxPowerKw":0,"isMegawatt":false,"status":"AVAILABLE","source":"ndw"}},{"type":"Feature","geometry":{"type":"Point","coordinates":[4.514204,52.148704]},"properties":{"type":"charge","layer":"passenger","locationId":"67220ffb4ba517001c9b0836","name":"Leiden/Ovidiusstraat 21","address":"Ovidiusstraat 21","city":"Leiden","operatorName":"E-Flux by Road","maxPowerKw":14,"isMegawatt":false,"status":"AVAILABLE","source":"ndw","priceKwh":0.5217}},{"type":"Feature","geometry":{"type":"Point","coordinates":[4.518359,52.146935]},"properties":{"type":"charge","layer":"passenger","locationId":"4122822","name":"Laadnet Vitruviusstraat 114","address":"Vitruviusstraat 114","city":"Leiden","operatorName":"Laadnet","maxPowerKw":11,"isMegawatt":false,"status":"AVAILABLE","source":"ndw"}},{"type":"Feature","geometry":{"type":"Point","coordinates":[4.520595,52.155159]},"properties":{"type":"charge","layer":"passenger","locationId":"6842905a34b5c8c5089b3ccf","name":"Leiden/Aletta Jacobslaan 55, 2314GA","address":"Aletta Jacobslaan 55","city":"Leiden","operatorName":"E-Flux by Road","maxPowerKw":14,"isMegawatt":false,"status":"AVAILABLE","source":"ndw","priceKwh":0.562}},{"type":"Feature","geometry":{"type":"Point","coordinates":[4.491497,52.150392]},"properties":{"type":"charge","layer":"passenger","locationId":"NLLOC004192","name":"NLD, Pieter de la Courtstraat 67 2313BR Leiden","address":"Pieter de la Courtstraat 67","city":"Leiden","operatorName":"Allego","maxPowerKw":0,"isMegawatt":false,"status":"AVAILABLE","source":"ndw","priceKwh":0.511}},{"type":"Feature","geometry":{"type":"Point","coordinates":[4.509362,52.15723]},"properties":{"type":"charge","layer":"passenger","locationId":"NLLOC021818","name":"NL, Evertsenstraat 98, 2315 SN Leiden","address":"Evertsenstraat 98","city":"Leiden","operatorName":"Allego","maxPowerKw":0,"isMegawatt":false,"status":"AVAILABLE","source":"ndw","priceKwh":0.511}},{"type":"Feature","geometry":{"type":"Point","coordinates":[4.488313,52.142589]},"properties":{"type":"charge","layer":"passenger","locationId":"OST22P0016_0073_0","name":"OST22P0016_0073_0","address":"Lammenschansweg 144","city":"Leiden","operatorName":"e-VOLTT","maxPowerKw":0,"isMegawatt":false,"status":"AVAILABLE","source":"ndw","priceKwh":0.537}},{"type":"Feature","geometry":{"type":"Point","coordinates":[4.510353,52.180977]},"properties":{"type":"charge","layer":"passenger","locationId":"29b1a2ac-267b-11ec-9c72-42010a840003","name":"NL, Dagvlinder, 12, 2317JJ, Leiden","address":"Dagvlinder 12","city":"Leiden","operatorName":"Allego","maxPowerKw":0,"isMegawatt":false,"status":"AVAILABLE","source":"ndw"}},{"type":"Feature","geometry":{"type":"Point","coordinates":[4.506766,52.168103]},"properties":{"type":"charge","layer":"passenger","locationId":"4d7b5e82-9993-11eb-a4dc-42010a840003","name":"NL, Jan Pieterszoon Coenhof 61, 2315AM, Leiden","address":"Jan Pieterszoon Coenhof 61","city":"Leiden","operatorName":"Allego","maxPowerKw":0,"isMegawatt":false,"status":"AVAILABLE","source":"ndw"}},{"type":"Feature","geometry":{"type":"Point","coordinates":[4.472671,52.175205]},"properties":{"type":"charge","layer":"passenger","locationId":"5824cd4a-4f3c-11e8-b85a-42010a840002","name":"NLD, Leiden, Warmonderweg 15","address":"Warmonderweg 15","city":"Leiden","operatorName":"Allego","maxPowerKw":0,"isMegawatt":false,"status":"AVAILABLE","source":"ndw"}},{"type":"Feature","geometry":{"type":"Point","coordinates":[4.481973,52.16411]},"properties":{"type":"charge","layer":"passenger","locationId":"5973ef8c-4f3c-11e8-a755-42010a840002","name":"NLD, Leiden, Morssingel 189","address":"Morssingel 189","city":"Leiden","operatorName":"Allego","maxPowerKw":0,"isMegawatt":false,"status":"CHARGING","source":"ndw"}},{"type":"Feature","geometry":{"type":"Point","coordinates":[4.498511,52.150512]},"properties":{"type":"charge","layer":"passenger","locationId":"64eb0ff4-f9b8-11e8-af18-42010a840002","name":"NLD, Thorbeckestraat 78, 2313 HG Leiden","address":"Thorbeckestraat 78","city":"Leiden","operatorName":"Allego","maxPowerKw":0,"isMegawatt":false,"status":"AVAILABLE","source":"ndw"}},{"type":"Feature","geometry":{"type":"Point","coordinates":[4.50147,52.159112]},"properties":{"type":"charge","layer":"passenger","locationId":"79eb1b14-4f3c-11e8-9ba5-42010a840002","name":"NL, Nieuwe Waardstraat 18, 2312SM, Leiden","address":"Nieuwe Waardstraat 18","city":"Leiden","operatorName":"Allego","maxPowerKw":0,"isMegawatt":false,"status":"AVAILABLE","source":"ndw"}},{"type":"Feature","geometry":{"type":"Point","coordinates":[4.479046,52.170196]},"properties":{"type":"charge","layer":"passenger","locationId":"bf3861a0-88c2-11eb-b08b-42010a840003","name":"NL, Wassenaarseweg 8, 2333 AK, Leiden","address":"Wassenaarseweg 8","city":"Leiden","operatorName":"Allego","maxPowerKw":0,"isMegawatt":false,"status":"AVAILABLE","source":"ndw"}},{"type":"Feature","geometry":{"type":"Point","coordinates":[4.4489,52.145449]},"properties":{"type":"charge","layer":"passenger","locationId":"582bdacc-4f3c-11e8-ae39-42010a840002","name":"NLD, Leiden, Gerda Brautigamsingel 26","address":"Gerda Brautigamsingel 26","city":"Leiden","operatorName":"Allego","maxPowerKw":0,"isMegawatt":false,"status":"AVAILABLE","source":"ndw"}},{"type":"Feature","geometry":{"type":"Point","coordinates":[4.500549,52.160477]},"properties":{"type":"charge","layer":"passenger","locationId":"58947bd6-4f3c-11e8-871b-42010a840002","name":"NLD, Leiden, Kalvermarkt 3","address":"Kalvermarkt 3","city":"Leiden","operatorName":"Allego","maxPowerKw":0,"isMegawatt":false,"status":"CHARGING","source":"ndw"}},{"type":"Feature","geometry":{"type":"Point","coordinates":[4.452029,52.157283]},"properties":{"type":"charge","layer":"passenger","locationId":"59bae61c-4f3c-11e8-8f06-42010a840002","name":"NLD, Leiden, Rijndijk 246","address":"Rijndijk 246","city":"Leiden","operatorName":"Allego","maxPowerKw":0,"isMegawatt":false,"status":"AVAILABLE","source":"ndw"}},{"type":"Feature","geometry":{"type":"Point","coordinates":[4.479753,52.159429]},"properties":{"type":"charge","layer":"passenger","locationId":"59fac7dc-4f3c-11e8-bc98-42010a840002","name":"NLD, Leiden, Rijn en Schiekade 1","address":"Rijn en Schiekade 1-A","city":"Leiden","operatorName":"Allego","maxPowerKw":0,"isMegawatt":false,"status":"AVAILABLE","source":"ndw"}},{"type":"Feature","geometry":{"type":"Point","coordinates":[4.495222,52.154183]},"properties":{"type":"charge","layer":"passenger","locationId":"65906332-6ad3-11e9-a9f8-42010a840003","name":"NLD, Gemeente Leiden, Geregracht 42 2311PB Leiden","address":"Geregracht 42","city":"Leiden","operatorName":"Allego","maxPowerKw":0,"isMegawatt":false,"status":"AVAILABLE","source":"ndw"}},{"type":"Feature","geometry":{"type":"Point","coordinates":[4.47929,52.155162]},"properties":{"type":"charge","layer":"passenger","locationId":"7926389e-4f3c-11e8-a90f-42010a840002","name":"NLD, Leiden, Lucebertstraat 2","address":"Lucebertstraat 2","city":"Leiden","operatorName":"Allego","maxPowerKw":0,"isMegawatt":false,"status":"AVAILABLE","source":"ndw"}},{"type":"Feature","geometry":{"type":"Point","coordinates":[4.47291,52.173283]},"properties":{"type":"charge","layer":"passenger","locationId":"793bf24c-4f3c-11e8-8d9a-42010a840002","name":"NLD, Leiden, Lijsterstraat 1","address":"Lijsterstraat 1","city":"Leiden","operatorName":"Allego","maxPowerKw":0,"isMegawatt":false,"status":"AVAILABLE","source":"ndw"}},{"type":"Feature","geometry":{"type":"Point","coordinates":[4.499811,52.163429]},"properties":{"type":"charge","layer":"passenger","locationId":"79584910-4f3c-11e8-b476-42010a840002","name":"NLD, Leiden, Houtmarkt 22","address":"Houtmarkt 22","city":"Leiden","operatorName":"Allego","maxPowerKw":0,"isMegawatt":false,"status":"AVAILABLE","source":"ndw"}},{"type":"Feature","geometry":{"type":"Point","coordinates":[4.489912,52.14492]},"properties":{"type":"charge","layer":"passenger","locationId":"7bd58b30-4f3c-11e8-a6ff-42010a840002","name":"NLD, Leiden, Lammenschansweg 132","address":"Lammenschansweg 132","city":"Leiden","operatorName":"Allego","maxPowerKw":0,"isMegawatt":false,"status":"AVAILABLE","source":"ndw"}},{"type":"Feature","geometry":{"type":"Point","coordinates":[4.515178,52.174133]},"properties":{"type":"charge","layer":"passenger","locationId":"c12dd0f4-849b-11e8-bf42-42010a840002","name":"NLD, Damloperwerf 3 2317DS Leiden","address":"Damloperwerf 3","city":"Leiden","operatorName":"Allego","maxPowerKw":0,"isMegawatt":false,"status":"AVAILABLE","source":"ndw"}},{"type":"Feature","geometry":{"type":"Point","coordinates":[4.4867,52.166105]},"properties":{"type":"charge","layer":"passenger","locationId":"NLLOC004159","name":"NLD, Marislaan 19 2316XV Leiden","address":"Marislaan 19","city":"Leiden","operatorName":"Allego","maxPowerKw":0,"isMegawatt":false,"status":"CHARGING","source":"ndw","priceKwh":0.511}},{"type":"Feature","geometry":{"type":"Point","coordinates":[4.500707,52.151555]},"properties":{"type":"charge","layer":"passenger","locationId":"NLLOC000145","name":"NLD, Leiden, Wasstraat 40","address":"Wasstraat 40","city":"Leiden","operatorName":"Allego","maxPowerKw":0,"isMegawatt":false,"status":"CHARGING","source":"ndw","priceKwh":0.511}},{"type":"Feature","geometry":{"type":"Point","coordinates":[4.506529,52.157631]},"properties":{"type":"charge","layer":"passenger","locationId":"NLLOC000877","name":"NLD, Leiden, Oosterstraat 24","address":"Oosterstraat 24","city":"Leiden","operatorName":"Allego","maxPowerKw":0,"isMegawatt":false,"status":"AVAILABLE","source":"ndw","priceKwh":0.511}},{"type":"Feature","geometry":{"type":"Point","coordinates":[4.471736,52.155472]},"properties":{"type":"charge","layer":"passenger","locationId":"54779574-ea1c-11ef-a11b-42010aa400b8","name":"Eneco eMobility RWV Advocaten - Haagweg 149 - Leiden","address":"Haagweg 149","city":"Leiden","operatorName":"Eneco","maxPowerKw":22,"isMegawatt":false,"status":"CHARGING","source":"ndw","priceKwh":0.35}},{"type":"Feature","geometry":{"type":"Point","coordinates":[4.503787,52.166256]},"properties":{"type":"charge","layer":"passenger","locationId":"89157874","name":"EQUANS Parkeergarages Leiden","address":"Soestdijkkade","city":"Leiden","operatorName":"EQUANS","maxPowerKw":0,"isMegawatt":false,"status":"AVAILABLE","source":"ndw"}},{"type":"Feature","geometry":{"type":"Point","coordinates":[4.487012,52.148408]},"properties":{"type":"charge","layer":"passenger","locationId":"NLLOC001131","name":"NLD, Fruitweg 2 2321GK Leiden","address":"Fruitweg 2","city":"Leiden","operatorName":"Allego","maxPowerKw":0,"isMegawatt":false,"status":"AVAILABLE","source":"ndw","priceKwh":0.511}},{"type":"Feature","geometry":{"type":"Point","coordinates":[4.484543,52.152503]},"properties":{"type":"charge","layer":"passenger","locationId":"NLLOC000138","name":"NLD, Gerrit Doustraat 69 2311XN Leiden","address":"Gerrit Doustraat 69","city":"Leiden","operatorName":"Allego","maxPowerKw":0,"isMegawatt":false,"status":"CHARGING","source":"ndw","priceKwh":0.511}},{"type":"Feature","geometry":{"type":"Point","coordinates":[4.515332,52.154483]},"properties":{"type":"charge","layer":"passenger","locationId":"59d7e514-4f3c-11e8-924a-42010a840002","name":"NLD, Leiden, Aarstraat 1","address":"Aarstraat 1","city":"Leiden","operatorName":"Allego","maxPowerKw":0,"isMegawatt":false,"status":"AVAILABLE","source":"ndw"}},{"type":"Feature","geometry":{"type":"Point","coordinates":[4.509681,52.149774]},"properties":{"type":"charge","layer":"passenger","locationId":"685a9654-934a-11eb-a522-42010a840003","name":"NL, Van Vollenhovenplein 112, 2313EE, Leiden","address":"Van Vollenhovenplein 112","city":"Leiden","operatorName":"Allego","maxPowerKw":0,"isMegawatt":false,"status":"AVAILABLE","source":"ndw"}},{"type":"Feature","geometry":{"type":"Point","coordinates":[4.518374,52.147429]},"properties":{"type":"charge","layer":"passenger","locationId":"74119792-dbed-11ee-a4a4-42010aa400b8","name":"NL, Concordiastraat 9, 2314 CX, Leiden","address":"Concordiastraat 9","city":"Leiden","operatorName":"Allego","maxPowerKw":0,"isMegawatt":false,"status":"AVAILABLE","source":"ndw"}},{"type":"Feature","geometry":{"type":"Point","coordinates":[4.504366,52.155202]},"properties":{"type":"charge","layer":"passenger","locationId":"a645f564-c8f7-11e8-acb6-42010a840002","name":"NLD, Zoeterwoudsesingel 109 2313 EN Leiden","address":"Zoeterwoudsesingel 109","city":"Leiden","operatorName":"Allego","maxPowerKw":0,"isMegawatt":false,"status":"AVAILABLE","source":"ndw"}},{"type":"Feature","geometry":{"type":"Point","coordinates":[4.490509,52.156389]},"properties":{"type":"charge","layer":"passenger","locationId":"d0df2460-d41f-11e9-9506-42010a840003","name":"NLD, Langebrug 152 2311TB Leiden","address":"Langebrug 152","city":"Leiden","operatorName":"Allego","maxPowerKw":0,"isMegawatt":false,"status":"CHARGING","source":"ndw"}},{"type":"Feature","geometry":{"type":"Point","coordinates":[4.503767,52.163415]},"properties":{"type":"charge","layer":"passenger","locationId":"d9b83bfa-e86e-11e8-9ad1-42010a840002","name":"NLD Lusthoflaan 2 2316 JA Leiden","address":"Lusthoflaan 2","city":"Leiden","operatorName":"Allego","maxPowerKw":0,"isMegawatt":false,"status":"AVAILABLE","source":"ndw"}},{"type":"Feature","geometry":{"type":"Point","coordinates":[4.457045,52.16391]},"properties":{"type":"charge","layer":"passenger","locationId":"6949449a99287f24ffe170bc","name":"ECC Leiden","address":"Haagse Schouwweg 10","city":"Leiden","operatorName":"Pluq","maxPowerKw":22,"isMegawatt":false,"status":"AVAILABLE","source":"ndw","priceKwh":0.4}},{"type":"Feature","geometry":{"type":"Point","coordinates":[4.481273,52.156106]},"properties":{"type":"charge","layer":"passenger","locationId":"NLLOC001288","name":"NLD, Leiden, Groenhovenstraat 6","address":"Groenhovenstraat 6","city":"Leiden","operatorName":"Allego","maxPowerKw":0,"isMegawatt":false,"status":"AVAILABLE","source":"ndw","priceKwh":0.511}},{"type":"Feature","geometry":{"type":"Point","coordinates":[4.495167,52.169773]},"properties":{"type":"charge","layer":"passenger","locationId":"NLLOC004296","name":"NLD Evenementenlaan 1 2316LC Leiden","address":"Evenementenlaan 1","city":"Leiden","operatorName":"Allego","maxPowerKw":0,"isMegawatt":false,"status":"AVAILABLE","source":"ndw","priceKwh":0.511}},{"type":"Feature","geometry":{"type":"Point","coordinates":[4.49376,52.17215]},"properties":{"type":"charge","layer":"passenger","locationId":"C265CFD4-EA88-401C-A143-14D4699E12A1","name":"Eneco eMobility Gabri?l Metzustraat 62 Leiden","address":"Gabriël Metzustraat 62","city":"Leiden","operatorName":"Eneco","maxPowerKw":0,"isMegawatt":false,"status":"AVAILABLE","source":"ndw","priceKwh":0.65}},{"type":"Feature","geometry":{"type":"Point","coordinates":[4.447229,52.148983]},"properties":{"type":"charge","layer":"passenger","locationId":"NLLOC002658","name":"NLD Mary Zeldenrustweg 58 2331 NE Leiden","address":"Mary Zeldenrustweg 58","city":"Leiden","operatorName":"Allego","maxPowerKw":0,"isMegawatt":false,"status":"CHARGING","source":"ndw","priceKwh":0.511}},{"type":"Feature","geometry":{"type":"Point","coordinates":[4.488837,52.142229]},"properties":{"type":"charge","layer":"passenger","locationId":"73e64616e9c8431e904d","name":"DHVM - De Gruyter Brill, Plantijnstraat 2, Leiden","address":"Plantijnstraat 2","city":"Leiden","operatorName":"Opcharge","maxPowerKw":22,"isMegawatt":false,"status":"AVAILABLE","source":"ndw","priceKwh":0.45}},{"type":"Feature","geometry":{"type":"Point","coordinates":[4.48519,52.162699]},"properties":{"type":"charge","layer":"passenger","locationId":"fbb54adb7ca34d61b92c3a125771ca88","name":"Leiden Beestenmarkt evenement","address":"Beestenmarkt 1","city":"Leiden","operatorName":"","maxPowerKw":22,"isMegawatt":false,"status":"UNAVAILABLE","source":"ndw"}},{"type":"Feature","geometry":{"type":"Point","coordinates":[4.494765,52.154159]},"properties":{"type":"charge","layer":"passenger","locationId":"8fb4808af1f540d1ab7b","name":"Gemaal Geregracht","address":"Geregracht 50","city":"Leiden","operatorName":"","maxPowerKw":43,"isMegawatt":false,"status":"AVAILABLE","source":"ndw","priceKwh":0.5}},{"type":"Feature","geometry":{"type":"Point","coordinates":[4.492846,52.152789]},"properties":{"type":"charge","layer":"passenger","locationId":"3161145","name":"Laadnet Bloemistenhof","address":"Bloemistenhof 6","city":"Leiden","operatorName":"Laadnet","maxPowerKw":22,"isMegawatt":false,"status":"UNAVAILABLE","source":"ndw"}},{"type":"Feature","geometry":{"type":"Point","coordinates":[4.46901,52.143519]},"properties":{"type":"charge","layer":"passenger","locationId":"NLLOC000133","name":"NLD, Leiden, Händelstraat 26","address":"Händelstraat 26","city":"Leiden","operatorName":"Allego","maxPowerKw":0,"isMegawatt":false,"status":"AVAILABLE","source":"ndw","priceKwh":0.511}},{"type":"Feature","geometry":{"type":"Point","coordinates":[4.516858,52.146759]},"properties":{"type":"charge","layer":"passenger","locationId":"NLLOC000640","name":"NLD, Leiden, Vitruviusstraat 137","address":"Vitruviusstraat 137","city":"Leiden","operatorName":"Allego","maxPowerKw":0,"isMegawatt":false,"status":"CHARGING","source":"ndw","priceKwh":0.511}},{"type":"Feature","geometry":{"type":"Point","coordinates":[4.502581,52.155343]},"properties":{"type":"charge","layer":"passenger","locationId":"NLLOC016175","name":"NL, Plantage 8, 2311 JC Leiden","address":"Plantage 8","city":"Leiden","operatorName":"Allego","maxPowerKw":0,"isMegawatt":false,"status":"AVAILABLE","source":"ndw","priceKwh":0.511}},{"type":"Feature","geometry":{"type":"Point","coordinates":[4.452029,52.157283]},"properties":{"type":"charge","layer":"passenger","locationId":"NLLOC000571","name":"NLD, Leiden, Rijndijk 246","address":"Rijndijk 246","city":"Leiden","operatorName":"Allego","maxPowerKw":0,"isMegawatt":false,"status":"AVAILABLE","source":"ndw","priceKwh":0.511}},{"type":"Feature","geometry":{"type":"Point","coordinates":[4.507339,52.175452]},"properties":{"type":"charge","layer":"passenger","locationId":"NLLOC009706","name":"NL, Standerdmolen 3 2317 NZ Leiden","address":"Standerdmolen 3","city":"Leiden","operatorName":"Allego","maxPowerKw":0,"isMegawatt":false,"status":"AVAILABLE","source":"ndw","priceKwh":0.511}},{"type":"Feature","geometry":{"type":"Point","coordinates":[4.450081,52.147846]},"properties":{"type":"charge","layer":"passenger","locationId":"6821e468909b52aaf804cabf","name":"Leiden/Diaconessenstraat 2","address":"Diaconessenstraat 2","city":"Leiden","operatorName":"E-Flux by Road","maxPowerKw":14,"isMegawatt":false,"status":"AVAILABLE","source":"ndw","priceKwh":0.562}},{"type":"Feature","geometry":{"type":"Point","coordinates":[4.505082,52.166359]},"properties":{"type":"charge","layer":"passenger","locationId":"68c12fa057f875b47b45e05c","name":"Leiden/ Soestdijkkade 70","address":"Soestdijkkade 70","city":"Leiden","operatorName":"E-Flux by Road","maxPowerKw":14,"isMegawatt":false,"status":"CHARGING","source":"ndw","priceKwh":0.5217}},{"type":"Feature","geometry":{"type":"Point","coordinates":[4.47926,52.156307]},"properties":{"type":"charge","layer":"passenger","locationId":"NLLOC001287","name":"NLD, Leiden, Blauwe Tramstraat 118","address":"Blauwe Tramstraat 118","city":"Leiden","operatorName":"Allego","maxPowerKw":0,"isMegawatt":false,"status":"AVAILABLE","source":"ndw","priceKwh":0.511}},{"type":"Feature","geometry":{"type":"Point","coordinates":[4.479282,52.140896]},"properties":{"type":"charge","layer":"passenger","locationId":"31d3a4ba-5cae-11e9-b220-42010a840003","name":"NLD, Gemeente Leiden, Berlagestraat 58 2321EL Leiden","address":"Berlagestraat 58","city":"Leiden","operatorName":"Allego","maxPowerKw":0,"isMegawatt":false,"status":"AVAILABLE","source":"ndw"}},{"type":"Feature","geometry":{"type":"Point","coordinates":[4.476245,52.13954]},"properties":{"type":"charge","layer":"passenger","locationId":"3883701a-8c36-11eb-a2de-42010a840003","name":"NL, Apollolaan 1 A, 2324 BR, Leiden","address":"Apollolaan 1 A","city":"Leiden","operatorName":"Allego","maxPowerKw":0,"isMegawatt":false,"status":"AVAILABLE","source":"ndw"}},{"type":"Feature","geometry":{"type":"Point","coordinates":[4.500707,52.151555]},"properties":{"type":"charge","layer":"passenger","locationId":"58b1aa80-4f3c-11e8-bb4d-42010a840002","name":"NLD, Leiden, Wasstraat 40","address":"Wasstraat 40","city":"Leiden","operatorName":"Allego","maxPowerKw":0,"isMegawatt":false,"status":"AVAILABLE","source":"ndw"}},{"type":"Feature","geometry":{"type":"Point","coordinates":[4.510814,52.173114]},"properties":{"type":"charge","layer":"passenger","locationId":"5b15ca40-4f3c-11e8-a801-42010a840002","name":"NLD, Leiden, Merendonk 44","address":"Merendonk 44","city":"Leiden","operatorName":"Allego","maxPowerKw":0,"isMegawatt":false,"status":"AVAILABLE","source":"ndw"}},{"type":"Feature","geometry":{"type":"Point","coordinates":[4.498168,52.147938]},"properties":{"type":"charge","layer":"passenger","locationId":"5b74616a-101e-11e9-8799-42010a840003","name":"NLD, Bakhuis Roozenboomstraat 39, 2313 RC Leiden","address":"Bakhuis Roozenboomstraat 39","city":"Leiden","operatorName":"Allego","maxPowerKw":0,"isMegawatt":false,"status":"AVAILABLE","source":"ndw"}},{"type":"Feature","geometry":{"type":"Point","coordinates":[4.506551,52.151714]},"properties":{"type":"charge","layer":"passenger","locationId":"5c81751e-4f3c-11e8-91ab-42010a840002","name":"NLD, Leiden, Burggravenlaan 34","address":"Burggravenlaan 34","city":"Leiden","operatorName":"Allego","maxPowerKw":0,"isMegawatt":false,"status":"AVAILABLE","source":"ndw"}},{"type":"Feature","geometry":{"type":"Point","coordinates":[4.478911,52.152477]},"properties":{"type":"charge","layer":"passenger","locationId":"710362ac-72dc-11ea-8f55-42010a840003","name":"NL, Akkerhof 54, 2321 VG, Leiden","address":"Akkerhof 54","city":"Leiden","operatorName":"Allego","maxPowerKw":0,"isMegawatt":false,"status":"AVAILABLE","source":"ndw"}},{"type":"Feature","geometry":{"type":"Point","coordinates":[4.495853,52.164485]},"properties":{"type":"charge","layer":"passenger","locationId":"735fc878-dbed-11ee-b642-42010aa400b8","name":"NL, Koningstraat 2 A, 2316 CE, Leiden","address":"Koningstraat 2 A","city":"Leiden","operatorName":"Allego","maxPowerKw":0,"isMegawatt":false,"status":"AVAILABLE","source":"ndw"}},{"type":"Feature","geometry":{"type":"Point","coordinates":[4.486251,52.155341]},"properties":{"type":"charge","layer":"passenger","locationId":"9774161c-a15a-11ec-987d-42010a840003","name":"NL, Kaiserstraat 45, 2311GP, Leiden","address":"Kaiserstraat 45","city":"Leiden","operatorName":"Allego","maxPowerKw":0,"isMegawatt":false,"status":"AVAILABLE","source":"ndw"}},{"type":"Feature","geometry":{"type":"Point","coordinates":[4.460609,52.154505]},"properties":{"type":"charge","layer":"passenger","locationId":"a3f4d212-6e2d-11ea-aa83-42010a840003","name":"NL, Carneoolstraat 5, 2332 KA, Leiden","address":"Carneoolstraat 5","city":"Leiden","operatorName":"Allego","maxPowerKw":0,"isMegawatt":false,"status":"AVAILABLE","source":"ndw"}},{"type":"Feature","geometry":{"type":"Point","coordinates":[4.511482,52.165312]},"properties":{"type":"charge","layer":"passenger","locationId":"b8428b3e-4d03-11e9-8609-42010a840003","name":"NLD Gemeente Leiden Madoerastraat 19 2315BX Leiden","address":"Madoerastraat 3","city":"Leiden","operatorName":"Allego","maxPowerKw":0,"isMegawatt":false,"status":"AVAILABLE","source":"ndw"}},{"type":"Feature","geometry":{"type":"Point","coordinates":[4.48581,52.151587]},"properties":{"type":"charge","layer":"passenger","locationId":"58aa669e-4f3c-11e8-8d0a-42010a840002","name":"NLD, Leiden, Stadhouderslaan 35","address":"Stadhouderslaan 35","city":"Leiden","operatorName":"Allego","maxPowerKw":0,"isMegawatt":false,"status":"AVAILABLE","source":"ndw"}},{"type":"Feature","geometry":{"type":"Point","coordinates":[4.485802,52.159423]},"properties":{"type":"charge","layer":"passenger","locationId":"58d5dcac-4f3c-11e8-bbb8-42010a840002","name":"NLD, Leiden, Langebrug 4","address":"Langebrug 4-A","city":"Leiden","operatorName":"Allego","maxPowerKw":0,"isMegawatt":false,"status":"CHARGING","source":"ndw"}},{"type":"Feature","geometry":{"type":"Point","coordinates":[4.496429,52.160075]},"properties":{"type":"charge","layer":"passenger","locationId":"58f40650-4f3c-11e8-9b89-42010a840002","name":"NLD Kaasmarkt 10 2312 HZ Leiden","address":"Kaasmarkt 10","city":"Leiden","operatorName":"Allego","maxPowerKw":0,"isMegawatt":false,"status":"AVAILABLE","source":"ndw"}},{"type":"Feature","geometry":{"type":"Point","coordinates":[4.479888,52.15018]},"properties":{"type":"charge","layer":"passenger","locationId":"5bfae29c-4f3c-11e8-b8cb-42010a840002","name":"NLD, Leiden, Hoflaan 84","address":"Hoflaan 84","city":"Leiden","operatorName":"Allego","maxPowerKw":0,"isMegawatt":false,"status":"AVAILABLE","source":"ndw"}},{"type":"Feature","geometry":{"type":"Point","coordinates":[4.487012,52.148408]},"properties":{"type":"charge","layer":"passenger","locationId":"790a06a6-4f3c-11e8-944e-42010a840002","name":"NLD, Fruitweg 2 2321GK Leiden","address":"Fruitweg 2","city":"Leiden","operatorName":"Allego","maxPowerKw":0,"isMegawatt":false,"status":"AVAILABLE","source":"ndw"}},{"type":"Feature","geometry":{"type":"Point","coordinates":[4.510451,52.161679]},"properties":{"type":"charge","layer":"passenger","locationId":"7be9fb4c-4f3c-11e8-8129-42010a840002","name":"NLD, Leiden, Driftstraat 1","address":"Driftstraat 1","city":"Leiden","operatorName":"Allego","maxPowerKw":0,"isMegawatt":false,"status":"UNAVAILABLE","source":"ndw"}},{"type":"Feature","geometry":{"type":"Point","coordinates":[4.482,52.152921]},"properties":{"type":"charge","layer":"passenger","locationId":"81955424-8b30-11ea-9660-42010a840003","name":"NL, Rijn en Schiekade 114 A, 2311 AS, Leiden","address":"Rijn en Schiekade 114 A","city":"Leiden","operatorName":"Allego","maxPowerKw":0,"isMegawatt":false,"status":"AVAILABLE","source":"ndw"}},{"type":"Feature","geometry":{"type":"Point","coordinates":[4.475358,52.144199]},"properties":{"type":"charge","layer":"passenger","locationId":"04bc2074-4cc5-11ec-a66a-42010a840003","name":"NL, Bachstraat 13, 2324GX Leiden","address":"Bachstraat 13","city":"Leiden","operatorName":"Allego","maxPowerKw":0,"isMegawatt":false,"status":"CHARGING","source":"ndw"}},{"type":"Feature","geometry":{"type":"Point","coordinates":[4.496358,52.169612]},"properties":{"type":"charge","layer":"passenger","locationId":"43d1ee7e-2af5-11ed-a125-42010aa40fc0","name":"NL, Prins Clausweg 307, 2316 EX Leiden","address":"Prins Clausweg 307","city":"Leiden","operatorName":"Allego","maxPowerKw":0,"isMegawatt":false,"status":"AVAILABLE","source":"ndw"}},{"type":"Feature","geometry":{"type":"Point","coordinates":[4.49682,52.162185]},"properties":{"type":"charge","layer":"passenger","locationId":"aa2ebe32-d265-11e8-82fb-42010a840002","name":"NLD, Oostdwarsgracht 1 2312 PM Leiden","address":"Oostdwarsgracht 1","city":"Leiden","operatorName":"Allego","maxPowerKw":0,"isMegawatt":false,"status":"AVAILABLE","source":"ndw"}},{"type":"Feature","geometry":{"type":"Point","coordinates":[4.47597,52.14216]},"properties":{"type":"charge","layer":"passenger","locationId":"db47be6c-5b1b-11e9-9f09-42010a840003","name":"NLD, Gemeente Leiden, Bachstraat 546 2324HC Leiden","address":"Bachstraat 546","city":"Leiden","operatorName":"Allego","maxPowerKw":0,"isMegawatt":false,"status":"AVAILABLE","source":"ndw"}},{"type":"Feature","geometry":{"type":"Point","coordinates":[4.517897,52.153472]},"properties":{"type":"charge","layer":"passenger","locationId":"14855322-bb21-11ea-b9de-42010a840003","name":"NL, Lekstraat 2, 2314 VG, Leiden","address":"Lekstraat 2","city":"Leiden","operatorName":"Allego","maxPowerKw":0,"isMegawatt":false,"status":"CHARGING","source":"ndw"}},{"type":"Feature","geometry":{"type":"Point","coordinates":[4.500037,52.153994]},"properties":{"type":"charge","layer":"passenger","locationId":"a76614a4-cdae-11e8-a914-42010a840002","name":"NLD, Plantsoen 39 2311 KG Leiden","address":"Plantsoen 39","city":"Leiden","operatorName":"Allego","maxPowerKw":0,"isMegawatt":false,"status":"AVAILABLE","source":"ndw"}},{"type":"Feature","geometry":{"type":"Point","coordinates":[4.476245,52.13954]},"properties":{"type":"charge","layer":"passenger","locationId":"NLLOC006854","name":"NL, Apollolaan 1 A, 2324 BR, Leiden","address":"Apollolaan 1 A","city":"Leiden","operatorName":"Allego","maxPowerKw":0,"isMegawatt":false,"status":"AVAILABLE","source":"ndw","priceKwh":0.511}},{"type":"Feature","geometry":{"type":"Point","coordinates":[4.457812,52.153214]},"properties":{"type":"charge","layer":"passenger","locationId":"52e4ce9c-71cd-11ea-a6a9-42010a840003","name":"NLD, Rijndijk 96 2331AJ Leiden","address":"Rijndijk 96","city":"Leiden","operatorName":"Allego","maxPowerKw":0,"isMegawatt":false,"status":"AVAILABLE","source":"ndw"}},{"type":"Feature","geometry":{"type":"Point","coordinates":[4.468358,52.163617]},"properties":{"type":"charge","layer":"passenger","locationId":"551f3a34-4163-11ea-b589-42010a840003","name":"NL, Jan Luykenlaan 18, 2332 DA, Leiden","address":"Jan Luykenlaan 18","city":"Leiden","operatorName":"Allego","maxPowerKw":0,"isMegawatt":false,"status":"AVAILABLE","source":"ndw"}},{"type":"Feature","geometry":{"type":"Point","coordinates":[4.494594,52.165788]},"properties":{"type":"charge","layer":"passenger","locationId":"584f1604-4f3c-11e8-bae6-42010a840002","name":"NLD, Leiden, Slachthuislaan 24","address":"Slachthuislaan 24","city":"Leiden","operatorName":"Allego","maxPowerKw":0,"isMegawatt":false,"status":"AVAILABLE","source":"ndw"}},{"type":"Feature","geometry":{"type":"Point","coordinates":[4.483013,52.149449]},"properties":{"type":"charge","layer":"passenger","locationId":"589b9614-4f3c-11e8-a049-42010a840002","name":"NLD, Leiden, Kraanbaan 1","address":"Kraanbaan 1","city":"Leiden","operatorName":"Allego","maxPowerKw":0,"isMegawatt":false,"status":"AVAILABLE","source":"ndw"}},{"type":"Feature","geometry":{"type":"Point","coordinates":[4.507797,52.153222]},"properties":{"type":"charge","layer":"passenger","locationId":"598c8f2e-4f3c-11e8-b7f8-42010a840002","name":"NLD, Leiden, Fruinlaan 32","address":"Fruinlaan 32","city":"Leiden","operatorName":"Allego","maxPowerKw":0,"isMegawatt":false,"status":"AVAILABLE","source":"ndw"}},{"type":"Feature","geometry":{"type":"Point","coordinates":[4.494322,52.149054]},"properties":{"type":"charge","layer":"passenger","locationId":"59e5fae6-4f3c-11e8-98e8-42010a840002","name":"NLD Van der Waalsstraat 4 2313 VD Leiden","address":"Van der Waalsstraat 4","city":"Leiden","operatorName":"Allego","maxPowerKw":0,"isMegawatt":false,"status":"AVAILABLE","source":"ndw"}},{"type":"Feature","geometry":{"type":"Point","coordinates":[4.493431,52.162164]},"properties":{"type":"charge","layer":"passenger","locationId":"5b1ca0f4-4f3c-11e8-a3b7-42010a840002","name":"NLD, Leiden, Oude Vest 113","address":"Oude Vest 113","city":"Leiden","operatorName":"Allego","maxPowerKw":0,"isMegawatt":false,"status":"CHARGING","source":"ndw"}},{"type":"Feature","geometry":{"type":"Point","coordinates":[4.491528,52.16895]},"properties":{"type":"charge","layer":"passenger","locationId":"7bb8d4a4-4f3c-11e8-b4d1-42010a840002","name":"NLD, Leiden, Flemingstraat 47","address":"Flemingstraat 47","city":"Leiden","operatorName":"Allego","maxPowerKw":0,"isMegawatt":false,"status":"AVAILABLE","source":"ndw"}},{"type":"Feature","geometry":{"type":"Point","coordinates":[4.512374,52.162914]},"properties":{"type":"charge","layer":"passenger","locationId":"7bdc8930-4f3c-11e8-ac02-42010a840002","name":"NLD, Leiden, Sumatrastraat 47","address":"Sumatrastraat 47","city":"Leiden","operatorName":"Allego","maxPowerKw":0,"isMegawatt":false,"status":"AVAILABLE","source":"ndw"}},{"type":"Feature","geometry":{"type":"Point","coordinates":[4.470948,52.172139]},"properties":{"type":"charge","layer":"passenger","locationId":"8cff60aa-ce9f-11e9-8926-42010a840003","name":"NLD, Leiden, Leeuwerikstraat 27","address":"Leeuwerikstraat 27","city":"Leiden","operatorName":"Allego","maxPowerKw":0,"isMegawatt":false,"status":"AVAILABLE","source":"ndw"}},{"type":"Feature","geometry":{"type":"Point","coordinates":[4.511507,52.157433]},"properties":{"type":"charge","layer":"passenger","locationId":"9a8e13aa-4b56-11ee-9b92-42010aa40fc0","name":"NLD, Leiden, Admiraal Banckertweg 12","address":"Admiraal Banckertweg 12","city":"Leiden","operatorName":"Allego","maxPowerKw":0,"isMegawatt":false,"status":"AVAILABLE","source":"ndw"}},{"type":"Feature","geometry":{"type":"Point","coordinates":[4.502047,52.150152]},"properties":{"type":"charge","layer":"passenger","locationId":"dcf98f72-5fd2-11e9-83f9-42010a840003","name":"NLD, Gemeente Leiden, De Meij van Streefkerkstraat 60 2313JP Leiden","address":"De Meij van Streefkerkstraat 60","city":"Leiden","operatorName":"Allego","maxPowerKw":0,"isMegawatt":false,"status":"AVAILABLE","source":"ndw"}},{"type":"Feature","geometry":{"type":"Point","coordinates":[4.513157,52.147533]},"properties":{"type":"charge","layer":"passenger","locationId":"f35e119c-56f6-11ed-9a32-42010aa40062","name":"NL, Dianastraat 2, 2314 BK Leiden","address":"Dianastraat 2","city":"Leiden","operatorName":"Allego","maxPowerKw":0,"isMegawatt":false,"status":"AVAILABLE","source":"ndw"}},{"type":"Feature","geometry":{"type":"Point","coordinates":[4.486275,52.153112]},"properties":{"type":"charge","layer":"passenger","locationId":"NLLOC003086","name":"NLD, Vreewijkstraat 10 2311XH leiden","address":"Vreewijkstraat 10","city":"Leiden","operatorName":"Allego","maxPowerKw":0,"isMegawatt":false,"status":"CHARGING","source":"ndw","priceKwh":0.511}},{"type":"Feature","geometry":{"type":"Point","coordinates":[4.49376,52.17215]},"properties":{"type":"charge","layer":"passenger","locationId":"59c13a3e-fc36-11ec-88d7-42010aa4000d","name":"Eneco eMobility Gabri?l Metzustraat 62 Leiden","address":"Gabriël Metzustraat 62","city":"Leiden","operatorName":"Eneco","maxPowerKw":0,"isMegawatt":false,"status":"CHARGING","source":"ndw","priceKwh":0.48}},{"type":"Feature","geometry":{"type":"Point","coordinates":[4.508439,52.158233]},"properties":{"type":"charge","layer":"passenger","locationId":"NLLOC005562","name":"NLD, Kortenaerstraat 79 2315TL Leiden","address":"Kortenaerstraat 79","city":"Leiden","operatorName":"Allego","maxPowerKw":0,"isMegawatt":false,"status":"AVAILABLE","source":"ndw","priceKwh":0.511}},{"type":"Feature","geometry":{"type":"Point","coordinates":[4.498147,52.173862]},"properties":{"type":"charge","layer":"passenger","locationId":"68668bb71016c4a3754a9407","name":"SJARTEC  -left-","address":"Flevoweg 2","city":"Leiden","operatorName":"E-Flux by Road","maxPowerKw":11,"isMegawatt":false,"status":"AVAILABLE","source":"ndw","priceKwh":0.52}},{"type":"Feature","geometry":{"type":"Point","coordinates":[4.500885,52.177018]},"properties":{"type":"charge","layer":"passenger","locationId":"NLLOC018962","name":"NL, Lupinetuin 16, 2317MX, Leiden","address":"Lupinetuin 16","city":"Leiden","operatorName":"Allego","maxPowerKw":0,"isMegawatt":false,"status":"AVAILABLE","source":"ndw","priceKwh":0.511}},{"type":"Feature","geometry":{"type":"Point","coordinates":[4.495986,52.169212]},"properties":{"type":"charge","layer":"passenger","locationId":"645b39b181d587001292e732","name":"Leiden/Prins Clausweg 263 A","address":"Prins Clausweg 263","city":"Leiden","operatorName":"E-Flux by Road","maxPowerKw":14,"isMegawatt":false,"status":"AVAILABLE","source":"ndw","priceKwh":0.5217}},{"type":"Feature","geometry":{"type":"Point","coordinates":[4.505487,52.183634]},"properties":{"type":"charge","layer":"passenger","locationId":"NLLOC003645","name":"NLD, , Zeeforel 16 2318MP Leiden","address":"Zeeforel 16","city":"Leiden","operatorName":"Allego","maxPowerKw":0,"isMegawatt":false,"status":"CHARGING","source":"ndw","priceKwh":0.511}},{"type":"Feature","geometry":{"type":"Point","coordinates":[4.512374,52.162914]},"properties":{"type":"charge","layer":"passenger","locationId":"NLLOC001754","name":"NLD, Leiden, Sumatrastraat 47","address":"Sumatrastraat 47","city":"Leiden","operatorName":"Allego","maxPowerKw":0,"isMegawatt":false,"status":"AVAILABLE","source":"ndw","priceKwh":0.511}},{"type":"Feature","geometry":{"type":"Point","coordinates":[4.492577,52.161006]},"properties":{"type":"charge","layer":"passenger","locationId":"NLLOC000127","name":"NLD, Leiden, Janvossensteeg 46","address":"Janvossensteeg 46","city":"Leiden","operatorName":"Allego","maxPowerKw":0,"isMegawatt":false,"status":"AVAILABLE","source":"ndw","priceKwh":0.511}},{"type":"Feature","geometry":{"type":"Point","coordinates":[4.503738,52.178494]},"properties":{"type":"charge","layer":"passenger","locationId":"NLLOC007173","name":"NL, Oesterbank 36, 2317MP, Leiden","address":"Oesterbank 36","city":"Leiden","operatorName":"Allego","maxPowerKw":0,"isMegawatt":false,"status":"AVAILABLE","source":"ndw","priceKwh":0.511}},{"type":"Feature","geometry":{"type":"Point","coordinates":[4.49702,52.157644]},"properties":{"type":"charge","layer":"passenger","locationId":"NLLOC021165","name":"NL, Middelstegracht 47, 2312TS, Leiden","address":"Middelstegracht 47","city":"Leiden","operatorName":"Allego","maxPowerKw":0,"isMegawatt":false,"status":"CHARGING","source":"ndw","priceKwh":0.511}},{"type":"Feature","geometry":{"type":"Point","coordinates":[4.500549,52.160477]},"properties":{"type":"charge","layer":"passenger","locationId":"NLLOC000143","name":"NLD, Leiden, Kalvermarkt 3","address":"Kalvermarkt 3","city":"Leiden","operatorName":"Allego","maxPowerKw":0,"isMegawatt":false,"status":"AVAILABLE","source":"ndw","priceKwh":0.511}},{"type":"Feature","geometry":{"type":"Point","coordinates":[4.491525,52.15179]},"properties":{"type":"charge","layer":"passenger","locationId":"251bf7be-14d2-11e9-ab09-42010a840003","name":"NLD, Leliestraat 31, 2313 BD Leiden","address":"Leliestraat 31","city":"Leiden","operatorName":"Allego","maxPowerKw":0,"isMegawatt":false,"status":"AVAILABLE","source":"ndw"}},{"type":"Feature","geometry":{"type":"Point","coordinates":[4.496429,52.160075]},"properties":{"type":"charge","layer":"passenger","locationId":"NLLOC000318","name":"NLD Kaasmarkt 10 2312 HZ Leiden","address":"Kaasmarkt 10","city":"Leiden","operatorName":"Allego","maxPowerKw":0,"isMegawatt":false,"status":"AVAILABLE","source":"ndw","priceKwh":0.511}},{"type":"Feature","geometry":{"type":"Point","coordinates":[4.494765,52.154159]},"properties":{"type":"charge","layer":"passenger","locationId":"9522c095d5ce41b3b6e55c567a93dda7","name":"Gemaal geregracht","address":"Geregracht 50","city":"Leiden","operatorName":"","maxPowerKw":22,"isMegawatt":false,"status":"AVAILABLE","source":"ndw","priceKwh":0.5}},{"type":"Feature","geometry":{"type":"Point","coordinates":[4.473911,52.153006]},"properties":{"type":"charge","layer":"passenger","locationId":"003ed650-f1c9-11ec-b0f1-42010aa40fc0","name":"NL, Arthur van Schendelstraat 214, 2321WH, Leiden","address":"Arthur van Schendelstraat 214","city":"Leiden","operatorName":"Allego","maxPowerKw":0,"isMegawatt":false,"status":"AVAILABLE","source":"ndw"}},{"type":"Feature","geometry":{"type":"Point","coordinates":[4.512305,52.148938]},"properties":{"type":"charge","layer":"passenger","locationId":"6e3505b4-934a-11eb-a949-42010a840003","name":"NL, Julius Caesarlaan 4, 2314 BR, Leiden","address":"Julius Caesarlaan 4","city":"Leiden","operatorName":"Allego","maxPowerKw":0,"isMegawatt":false,"status":"AVAILABLE","source":"ndw"}},{"type":"Feature","geometry":{"type":"Point","coordinates":[4.444849,52.151527]},"properties":{"type":"charge","layer":"passenger","locationId":"7898b668-4f3c-11e8-b5ab-42010a840002","name":"NLD, Leiden, Cornelie van Zantenstraat 1","address":"Cornelie van Zantenstraat 1","city":"Leiden","operatorName":"Allego","maxPowerKw":0,"isMegawatt":false,"status":"AVAILABLE","source":"ndw"}},{"type":"Feature","geometry":{"type":"Point","coordinates":[4.476387,52.156663]},"properties":{"type":"charge","layer":"passenger","locationId":"789f9c6c-4f3c-11e8-92ed-42010a840002","name":"NLD, Leiden, Ten Katestraat 1","address":"Ten Katestraat 1","city":"Leiden","operatorName":"Allego","maxPowerKw":0,"isMegawatt":false,"status":"AVAILABLE","source":"ndw"}},{"type":"Feature","geometry":{"type":"Point","coordinates":[4.481273,52.156106]},"properties":{"type":"charge","layer":"passenger","locationId":"79d4d5ca-4f3c-11e8-9a12-42010a840002","name":"NLD, Leiden, Groenhovenstraat 6","address":"Groenhovenstraat 6","city":"Leiden","operatorName":"Allego","maxPowerKw":0,"isMegawatt":false,"status":"AVAILABLE","source":"ndw"}},{"type":"Feature","geometry":{"type":"Point","coordinates":[4.504826,52.153224]},"properties":{"type":"charge","layer":"passenger","locationId":"be92003a-88c2-11eb-9d98-42010a840003","name":"NL, Fruinlaan 6, 2313 ER, Leiden","address":"Fruinlaan 6","city":"Leiden","operatorName":"Allego","maxPowerKw":0,"isMegawatt":false,"status":"AVAILABLE","source":"ndw"}},{"type":"Feature","geometry":{"type":"Point","coordinates":[4.494619,52.170536]},"properties":{"type":"charge","layer":"passenger","locationId":"d8d6c036-a9b0-11e9-ae3c-42010a840003","name":"NLD, Evenementenlaan 37 2316LC Leiden","address":"Evenementenlaan 37","city":"Leiden","operatorName":"Allego","maxPowerKw":0,"isMegawatt":false,"status":"AVAILABLE","source":"ndw"}},{"type":"Feature","geometry":{"type":"Point","coordinates":[4.452706,52.154239]},"properties":{"type":"charge","layer":"passenger","locationId":"e77e5af8-92e6-11e9-838e-42010a840003","name":"NLD Nienke van Hichtumstraat 32 2331EZ Leiden","address":"Nienke van Hichtumstraat 32","city":"Leiden","operatorName":"Allego","maxPowerKw":0,"isMegawatt":false,"status":"AVAILABLE","source":"ndw"}},{"type":"Feature","geometry":{"type":"Point","coordinates":[4.477432,52.167665]},"properties":{"type":"charge","layer":"passenger","locationId":"OST23P0040_0061_0","name":"OST23P0040_0061_0","address":"Albinusdreef 14","city":"Leiden","operatorName":"IPCharging","maxPowerKw":0,"isMegawatt":false,"status":"AVAILABLE","source":"ndw","priceKwh":0.3}},{"type":"Feature","geometry":{"type":"Point","coordinates":[4.466526,52.161478]},"properties":{"type":"charge","layer":"passenger","locationId":"588d025c-4f3c-11e8-9579-42010a840002","name":"NLD, Leiden, Lage Morsweg 91","address":"Lage Morsweg 91","city":"Leiden","operatorName":"Allego","maxPowerKw":0,"isMegawatt":false,"status":"CHARGING","source":"ndw"}},{"type":"Feature","geometry":{"type":"Point","coordinates":[4.466092,52.157022]},"properties":{"type":"charge","layer":"passenger","locationId":"595cdae0-4f3c-11e8-be1a-42010a840002","name":"NLD, Leiden, Opaalstraat 128","address":"Opaalstraat 128","city":"Leiden","operatorName":"Allego","maxPowerKw":0,"isMegawatt":false,"status":"AVAILABLE","source":"ndw"}},{"type":"Feature","geometry":{"type":"Point","coordinates":[4.501179,52.14851]},"properties":{"type":"charge","layer":"passenger","locationId":"59ac5386-4f3c-11e8-9883-42010a840002","name":"NLD, Leiden, Burggravenlaan 250","address":"Burggravenlaan 250","city":"Leiden","operatorName":"Allego","maxPowerKw":0,"isMegawatt":false,"status":"AVAILABLE","source":"ndw"}},{"type":"Feature","geometry":{"type":"Point","coordinates":[4.494599,52.172066]},"properties":{"type":"charge","layer":"passenger","locationId":"5b6098e0-4f3c-11e8-b4ab-42010a840002","name":"NLD, Leiden, Evenementenlaan 55","address":"Evenementenlaan 55","city":"Leiden","operatorName":"Allego","maxPowerKw":0,"isMegawatt":false,"status":"CHARGING","source":"ndw"}},{"type":"Feature","geometry":{"type":"Point","coordinates":[4.445997,52.154132]},"properties":{"type":"charge","layer":"passenger","locationId":"61cfd89a-88cb-11ec-8c54-42010a840003","name":"NL, Esther de Boer-van Rijkstraat 32, 2331HJ, Leiden","address":"Esther de Boer-van Rijkstraat 32","city":"Leiden","operatorName":"Allego","maxPowerKw":0,"isMegawatt":false,"status":"AVAILABLE","source":"ndw"}},{"type":"Feature","geometry":{"type":"Point","coordinates":[4.456546,52.151121]},"properties":{"type":"charge","layer":"passenger","locationId":"67a254ba-4675-11ed-bc09-42010aa40fc0","name":"NL, Jo de Clerstraat 18, 2331 CG Leiden","address":"Jo de Clerstraat 18","city":"Leiden","operatorName":"Allego","maxPowerKw":0,"isMegawatt":false,"status":"AVAILABLE","source":"ndw"}},{"type":"Feature","geometry":{"type":"Point","coordinates":[4.466081,52.163204]},"properties":{"type":"charge","layer":"passenger","locationId":"793e20c4-661c-11e9-81cc-42010a840003","name":"NLD, Jan Luykenlaan 186, 2332 DH Leiden","address":"Jan Luykenlaan 186","city":"Leiden","operatorName":"Allego","maxPowerKw":0,"isMegawatt":false,"status":"AVAILABLE","source":"ndw"}},{"type":"Feature","geometry":{"type":"Point","coordinates":[4.510868,52.153937]},"properties":{"type":"charge","layer":"passenger","locationId":"794313ce-4f3c-11e8-9fea-42010a840002","name":"NLD, Leiden, Hartmanstraat 2","address":"Hartmanstraat 2","city":"Leiden","operatorName":"Allego","maxPowerKw":0,"isMegawatt":false,"status":"AVAILABLE","source":"ndw"}},{"type":"Feature","geometry":{"type":"Point","coordinates":[4.468903,52.159539]},"properties":{"type":"charge","layer":"passenger","locationId":"79517a18-4f3c-11e8-9410-42010a840002","name":"NLD, Leiden, Vondellaan 2","address":"Vondellaan 2","city":"Leiden","operatorName":"Allego","maxPowerKw":0,"isMegawatt":false,"status":"AVAILABLE","source":"ndw"}},{"type":"Feature","geometry":{"type":"Point","coordinates":[4.512535,52.173073]},"properties":{"type":"charge","layer":"passenger","locationId":"7a56337a-1d9e-11ec-822a-42010a840003","name":"NL, Drontermeerlaan, 5, 2317GG, Leiden","address":"Drontermeerlaan 5","city":"Leiden","operatorName":"Allego","maxPowerKw":0,"isMegawatt":false,"status":"AVAILABLE","source":"ndw"}},{"type":"Feature","geometry":{"type":"Point","coordinates":[4.486001,52.151007]},"properties":{"type":"charge","layer":"passenger","locationId":"c37e7da2-44e2-11ed-b9e1-42010aa40fc0","name":"NL, Drie Octoberstraat 28, 2313ZR, Leiden","address":"Drie Octoberstraat 28","city":"Leiden","operatorName":"Allego","maxPowerKw":0,"isMegawatt":false,"status":"AVAILABLE","source":"ndw"}},{"type":"Feature","geometry":{"type":"Point","coordinates":[4.451778,52.151919]},"properties":{"type":"charge","layer":"passenger","locationId":"cec416d2a8ab441b83826577b31bdcbb","name":"Leiden OPL0280 Bakkerplein","address":"Ina Boudier-Bakkerplein 48","city":"Leiden","operatorName":"Opcharge","maxPowerKw":22,"isMegawatt":false,"status":"AVAILABLE","source":"ndw","priceKwh":0.49}},{"type":"Feature","geometry":{"type":"Point","coordinates":[4.48666,52.153856]},"properties":{"type":"charge","layer":"passenger","locationId":"NLLOC000315","name":"NLD, Leiden, Bilderdijkstraat 1","address":"Bilderdijkstraat 1","city":"Leiden","operatorName":"Allego","maxPowerKw":0,"isMegawatt":false,"status":"AVAILABLE","source":"ndw","priceKwh":0.511}},{"type":"Feature","geometry":{"type":"Point","coordinates":[4.490378,52.166251]},"properties":{"type":"charge","layer":"passenger","locationId":"2c81b4a8-ab1e-11e8-9a15-42010a840002","name":"NLD, Haarlemmerweg 20A, Leiden","address":"Haarlemmerweg 20A","city":"Leiden","operatorName":"Allego","maxPowerKw":0,"isMegawatt":false,"status":"AVAILABLE","source":"ndw"}},{"type":"Feature","geometry":{"type":"Point","coordinates":[4.484543,52.152503]},"properties":{"type":"charge","layer":"passenger","locationId":"585734ba-4f3c-11e8-ba38-42010a840002","name":"NLD, Gerrit Doustraat 69 2311XN Leiden","address":"Gerrit Doustraat 69","city":"Leiden","operatorName":"Allego","maxPowerKw":0,"isMegawatt":false,"status":"CHARGING","source":"ndw"}},{"type":"Feature","geometry":{"type":"Point","coordinates":[4.494207,52.153219]},"properties":{"type":"charge","layer":"passenger","locationId":"592139cc-4f3c-11e8-b4b7-42010a840002","name":"NLD, Leiden, Lammenschansweg 29","address":"Lammenschansweg 29","city":"Leiden","operatorName":"Allego","maxPowerKw":0,"isMegawatt":false,"status":"AVAILABLE","source":"ndw"}},{"type":"Feature","geometry":{"type":"Point","coordinates":[4.510296,52.1474]},"properties":{"type":"charge","layer":"passenger","locationId":"5a327394-4f3c-11e8-8786-42010a840002","name":"NLD, Leiden, Venusstraat 50","address":"Venusstraat 50","city":"Leiden","operatorName":"Allego","maxPowerKw":0,"isMegawatt":false,"status":"AVAILABLE","source":"ndw"}},{"type":"Feature","geometry":{"type":"Point","coordinates":[4.504842,52.151755]},"properties":{"type":"charge","layer":"passenger","locationId":"5a4eb8d8-4f3c-11e8-9476-42010a840002","name":"NLD, Leiden, De Meij van Streefkerkstraat 2","address":"De Meij van Streefkerkstraat 2","city":"Leiden","operatorName":"Allego","maxPowerKw":0,"isMegawatt":false,"status":"AVAILABLE","source":"ndw"}},{"type":"Feature","geometry":{"type":"Point","coordinates":[4.452046,52.159014]},"properties":{"type":"charge","layer":"passenger","locationId":"64734a3e-b1f1-11eb-9cb7-42010a840003","name":"NL, Andrej Sacharovstraat 15, 2332AB, Leiden","address":"Andrej Sacharovstraat 15","city":"Leiden","operatorName":"Allego","maxPowerKw":0,"isMegawatt":false,"status":"AVAILABLE","source":"ndw"}},{"type":"Feature","geometry":{"type":"Point","coordinates":[4.503111,52.151778]},"properties":{"type":"charge","layer":"passenger","locationId":"6e422fd2-934a-11eb-9881-42010a840003","name":"NL, Cobetstraat 58, 2313KD, Leiden","address":"Cobetstraat 58","city":"Leiden","operatorName":"Allego","maxPowerKw":0,"isMegawatt":false,"status":"AVAILABLE","source":"ndw"}},{"type":"Feature","geometry":{"type":"Point","coordinates":[4.465274,52.151571]},"properties":{"type":"charge","layer":"passenger","locationId":"78a63a22-4f3c-11e8-863a-42010a840002","name":"NLD, Leiden, Haagweg 243","address":"Haagweg 243","city":"Leiden","operatorName":"Allego","maxPowerKw":0,"isMegawatt":false,"status":"AVAILABLE","source":"ndw"}},{"type":"Feature","geometry":{"type":"Point","coordinates":[4.495943,52.170904]},"properties":{"type":"charge","layer":"passenger","locationId":"87cfa700-a662-11ec-ac64-42010a840003","name":"NL, Leidatoweg 24, 2316 JX Leiden","address":"Leidatoweg 24","city":"Leiden","operatorName":"Allego","maxPowerKw":0,"isMegawatt":false,"status":"AVAILABLE","source":"ndw"}},{"type":"Feature","geometry":{"type":"Point","coordinates":[4.514668,52.152278]},"properties":{"type":"charge","layer":"passenger","locationId":"18bca3b4-ce3a-11eb-bbe3-42010a840003","name":"NL, Meerburgerkade, 38, 2314VR, Leiden","address":"Meerburgerkade 38","city":"Leiden","operatorName":"Allego","maxPowerKw":0,"isMegawatt":false,"status":"AVAILABLE","source":"ndw"}},{"type":"Feature","geometry":{"type":"Point","coordinates":[4.469384,52.151177]},"properties":{"type":"charge","layer":"passenger","locationId":"1b65cbcc-ce3a-11eb-a663-42010a840003","name":"NL, Noachstraat 68, 2324LT, Leiden","address":"Noachstraat 68","city":"Leiden","operatorName":"Allego","maxPowerKw":0,"isMegawatt":false,"status":"AVAILABLE","source":"ndw"}},{"type":"Feature","geometry":{"type":"Point","coordinates":[4.45475,52.148979]},"properties":{"type":"charge","layer":"passenger","locationId":"NLLOC000135","name":"NL, Clara Visserplaats 1, 2331BN Leiden (Laadpaal 2)","address":"Clara Visserplaats 1","city":"Leiden","operatorName":"Allego","maxPowerKw":0,"isMegawatt":false,"status":"AVAILABLE","source":"ndw","priceKwh":0.511}},{"type":"Feature","geometry":{"type":"Point","coordinates":[4.502358,52.149472]},"properties":{"type":"charge","layer":"passenger","locationId":"00c80f08-f36f-11e8-a84b-42010a840002","name":"NLD, Burggravenlaan 193, 2313 HS Leiden","address":"Burggravenlaan 193","city":"Leiden","operatorName":"Allego","maxPowerKw":0,"isMegawatt":false,"status":"AVAILABLE","source":"ndw"}},{"type":"Feature","geometry":{"type":"Point","coordinates":[4.49102,52.148668]},"properties":{"type":"charge","layer":"passenger","locationId":"5734225e-7f18-11ec-b285-42010a840003","name":"NL, Seringenstraat 30, 2313VV, Leiden","address":"Seringenstraat 30","city":"Leiden","operatorName":"Allego","maxPowerKw":0,"isMegawatt":false,"status":"AVAILABLE","source":"ndw"}},{"type":"Feature","geometry":{"type":"Point","coordinates":[4.452136,52.144343]},"properties":{"type":"charge","layer":"passenger","locationId":"58ecc4f8-4f3c-11e8-ba0a-42010a840002","name":"NLD, Leiden, Ida de Leeuwstraat 51","address":"Ida de Leeuwstraat 51","city":"Leiden","operatorName":"Allego","maxPowerKw":0,"isMegawatt":false,"status":"AVAILABLE","source":"ndw"}},{"type":"Feature","geometry":{"type":"Point","coordinates":[4.503149,52.179884]},"properties":{"type":"charge","layer":"passenger","locationId":"5b0d307e-4f3c-11e8-a218-42010a840002","name":"NLD, Leiden, Fakkelgras 50","address":"Fakkelgras 50","city":"Leiden","operatorName":"Allego","maxPowerKw":0,"isMegawatt":false,"status":"AVAILABLE","source":"ndw"}},{"type":"Feature","geometry":{"type":"Point","coordinates":[4.489121,52.156661]},"properties":{"type":"charge","layer":"passenger","locationId":"5c09bbfa-4f3c-11e8-88ff-42010a840002","name":"NLD, Leiden, Zonneveldstraat 1","address":"Zonneveldstraat 1","city":"Leiden","operatorName":"Allego","maxPowerKw":0,"isMegawatt":false,"status":"AVAILABLE","source":"ndw"}},{"type":"Feature","geometry":{"type":"Point","coordinates":[4.488018,52.146767]},"properties":{"type":"charge","layer":"passenger","locationId":"7934ac94-4f3c-11e8-9e55-42010a840002","name":"NLD, Leiden, Morellenweg 1","address":"Morellenweg 1","city":"Leiden","operatorName":"Allego","maxPowerKw":0,"isMegawatt":false,"status":"AVAILABLE","source":"ndw"}},{"type":"Feature","geometry":{"type":"Point","coordinates":[4.470431,52.147374]},"properties":{"type":"charge","layer":"passenger","locationId":"9bf6625a-a662-11ec-bf59-42010a840003","name":"NL, Valeriusstraat 152, 2324 XK Leiden","address":"Valeriusstraat 152","city":"Leiden","operatorName":"Allego","maxPowerKw":0,"isMegawatt":false,"status":"AVAILABLE","source":"ndw"}},{"type":"Feature","geometry":{"type":"Point","coordinates":[4.49702,52.157644]},"properties":{"type":"charge","layer":"passenger","locationId":"c0bd36fe-6453-11ed-81d9-42010aa40fc0","name":"NL, Middelstegracht 47, 2312TS, Leiden","address":"Middelstegracht 47","city":"Leiden","operatorName":"Allego","maxPowerKw":0,"isMegawatt":false,"status":"AVAILABLE","source":"ndw"}},{"type":"Feature","geometry":{"type":"Point","coordinates":[4.451901,52.157747]},"properties":{"type":"charge","layer":"passenger","locationId":"69fc918a4319c30c024b7f87","name":"Leiden/ Rijndijk 264 / Paal 1","address":"Rijndijk 264","city":"Leiden","operatorName":"E-Flux by Road","maxPowerKw":14,"isMegawatt":false,"status":"AVAILABLE","source":"ndw","priceKwh":0.562}},{"type":"Feature","geometry":{"type":"Point","coordinates":[4.451873,52.152027]},"properties":{"type":"charge","layer":"passenger","locationId":"9248b6c1a2874a62b8dab735c86a215b","name":"Leiden OPL0270 Bakkerplein","address":"Ina Boudier-Bakkerplein 3","city":"Leiden","operatorName":"Opcharge","maxPowerKw":22,"isMegawatt":false,"status":"AVAILABLE","source":"ndw","priceKwh":0.49}},{"type":"Feature","geometry":{"type":"Point","coordinates":[4.520189,52.152735]},"properties":{"type":"charge","layer":"passenger","locationId":"5b053f0e-4f3c-11e8-84e3-42010a840002","name":"NLD, Leiden, Hoge Rijndijk 209","address":"Hoge Rijndijk 209","city":"Leiden","operatorName":"Allego","maxPowerKw":0,"isMegawatt":false,"status":"AVAILABLE","source":"ndw"}},{"type":"Feature","geometry":{"type":"Point","coordinates":[4.4826,52.17043]},"properties":{"type":"charge","layer":"passenger","locationId":"7891df50-4f3c-11e8-a83d-42010a840002","name":"NLD, Mariënpoelstraat 37, 2334 CX Leiden","address":"Mariënpoelstraat 37","city":"Leiden","operatorName":"Allego","maxPowerKw":0,"isMegawatt":false,"status":"AVAILABLE","source":"ndw"}},{"type":"Feature","geometry":{"type":"Point","coordinates":[4.500163,52.151554]},"properties":{"type":"charge","layer":"passenger","locationId":"792da642-4f3c-11e8-b8d4-42010a840002","name":"NLD, Leiden, Thorbeckestraat 36","address":"Thorbeckestraat 36","city":"Leiden","operatorName":"Allego","maxPowerKw":0,"isMegawatt":false,"status":"AVAILABLE","source":"ndw"}},{"type":"Feature","geometry":{"type":"Point","coordinates":[4.463955,52.156136]},"properties":{"type":"charge","layer":"passenger","locationId":"7969f99e-40fb-11ec-b686-42010a840003","name":"NL, Robijnstraat 94, 2332 KV Leiden","address":"Robijnstraat 94","city":"Leiden","operatorName":"Allego","maxPowerKw":0,"isMegawatt":false,"status":"CHARGING","source":"ndw"}},{"type":"Feature","geometry":{"type":"Point","coordinates":[4.509415,52.152614]},"properties":{"type":"charge","layer":"passenger","locationId":"a4a56600-ce9f-11e9-a52f-42010a840003","name":"NLD, Roomburgerlaan 16 2313PS Leiden","address":"Roomburgerlaan 16","city":"Leiden","operatorName":"Allego","maxPowerKw":0,"isMegawatt":false,"status":"AVAILABLE","source":"ndw"}},{"type":"Feature","geometry":{"type":"Point","coordinates":[4.493411,52.162976]},"properties":{"type":"charge","layer":"passenger","locationId":"dd024ffe-5fd2-11e9-b430-42010a840003","name":"NL, Volmolengracht 13, 2312 PG Leiden","address":"Volmolengracht 13","city":"Leiden","operatorName":"Allego","maxPowerKw":0,"isMegawatt":false,"status":"AVAILABLE","source":"ndw"}},{"type":"Feature","geometry":{"type":"Point","coordinates":[4.489709,52.153867]},"properties":{"type":"charge","layer":"passenger","locationId":"65eb1258a74d33001c1328d9","name":"Leiden/Doezastraat 34","address":"Doezastraat 34","city":"Leiden","operatorName":"E-Flux by Road","maxPowerKw":14,"isMegawatt":false,"status":"AVAILABLE","source":"ndw","priceKwh":0.5217}},{"type":"Feature","geometry":{"type":"Point","coordinates":[4.469885,52.159427]},"properties":{"type":"charge","layer":"passenger","locationId":"664dfa355890ea001da12b9d","name":"Leiden/Lage Morsweg 21 A","address":"Lage Morsweg  21A","city":"Leiden","operatorName":"E-Flux by Road","maxPowerKw":14,"isMegawatt":false,"status":"CHARGING","source":"ndw","priceKwh":0.5217}},{"type":"Feature","geometry":{"type":"Point","coordinates":[4.48318,52.159899]},"properties":{"type":"charge","layer":"passenger","locationId":"7bf0b8f6-4f3c-11e8-acc0-42010a840002","name":"NLD, Leiden, Oude Varkenmarkt 6","address":"Oude Varkenmarkt 6","city":"Leiden","operatorName":"Allego","maxPowerKw":0,"isMegawatt":false,"status":"AVAILABLE","source":"ndw"}},{"type":"Feature","geometry":{"type":"Point","coordinates":[4.48424,52.141008]},"properties":{"type":"charge","layer":"passenger","locationId":"84858b76-871d-11e9-b9b6-42010a840003","name":"NLD, Mary Beystraat 9 2324DK Leiden","address":"Mary Beystraat 9","city":"Leiden","operatorName":"Allego","maxPowerKw":0,"isMegawatt":false,"status":"AVAILABLE","source":"ndw"}},{"type":"Feature","geometry":{"type":"Point","coordinates":[4.476031,52.16031]},"properties":{"type":"charge","layer":"passenger","locationId":"bc5fc5ca-96af-11e8-90db-42010a840002","name":"NLD Gemeente Leiden Morsweg 86 2332 EP Leiden","address":"Morsweg 86","city":"Leiden","operatorName":"Allego","maxPowerKw":0,"isMegawatt":false,"status":"CHARGING","source":"ndw"}},{"type":"Feature","geometry":{"type":"Point","coordinates":[4.500885,52.177018]},"properties":{"type":"charge","layer":"passenger","locationId":"cc16e540-2c8c-11ec-a847-42010a840003","name":"NL, Lupinetuin 16, 2317MX, Leiden","address":"Lupinetuin 16","city":"Leiden","operatorName":"Allego","maxPowerKw":0,"isMegawatt":false,"status":"AVAILABLE","source":"ndw"}},{"type":"Feature","geometry":{"type":"Point","coordinates":[4.481942,52.172003]},"properties":{"type":"charge","layer":"passenger","locationId":"e786ceb6-4be9-11e9-9975-42010a840003","name":"NLD, Kagerstraat 3C 2334 CP Leiden","address":"Kagerstraat 3C","city":"Leiden","operatorName":"Allego","maxPowerKw":0,"isMegawatt":false,"status":"AVAILABLE","source":"ndw"}},{"type":"Feature","geometry":{"type":"Point","coordinates":[4.483112,52.153852]},"properties":{"type":"charge","layer":"passenger","locationId":"NLLOC004293","name":"NLD Witte Rozenstraat 13 2311 XR Leiden","address":"Witte Rozenstraat 13","city":"Leiden","operatorName":"Allego","maxPowerKw":0,"isMegawatt":false,"status":"CHARGING","source":"ndw","priceKwh":0.511}},{"type":"Feature","geometry":{"type":"Point","coordinates":[4.512694,52.148248]},"properties":{"type":"charge","layer":"passenger","locationId":"5a71a00a-4f3c-11e8-be3f-42010a840002","name":"NLD, Leiden, Junostraat 2","address":"Junostraat 2","city":"Leiden","operatorName":"Allego","maxPowerKw":0,"isMegawatt":false,"status":"AVAILABLE","source":"ndw"}},{"type":"Feature","geometry":{"type":"Point","coordinates":[4.468298,52.157942]},"properties":{"type":"charge","layer":"passenger","locationId":"5ac7323c-28de-11e9-bf2a-42010a840003","name":"NLD, Gemeente Leiden, Duikerstraat 5 2332XN Leiden","address":"Duikerstraat 5","city":"Leiden","operatorName":"Allego","maxPowerKw":0,"isMegawatt":false,"status":"AVAILABLE","source":"ndw"}},{"type":"Feature","geometry":{"type":"Point","coordinates":[4.510562,52.154939]},"properties":{"type":"charge","layer":"passenger","locationId":"NLLOC000884","name":"NLD, Leiden, Rijndijkstraat 2","address":"Rijndijkstraat 2","city":"Leiden","operatorName":"Allego","maxPowerKw":0,"isMegawatt":false,"status":"AVAILABLE","source":"ndw","priceKwh":0.511}},{"type":"Feature","geometry":{"type":"Point","coordinates":[4.45046,52.149351]},"properties":{"type":"charge","layer":"passenger","locationId":"1c245dc6-ce3a-11eb-bfea-42010a840003","name":"NL, Zuster Meijboomstraat, 30, 2331PD, Leiden","address":"Zuster Meijboomstraat 30","city":"Leiden","operatorName":"Allego","maxPowerKw":0,"isMegawatt":false,"status":"AVAILABLE","source":"ndw"}},{"type":"Feature","geometry":{"type":"Point","coordinates":[4.48666,52.153856]},"properties":{"type":"charge","layer":"passenger","locationId":"3af4e4a6-dbec-11ee-93c2-42010aa400b8","name":"NLD, Leiden, Bilderdijkstraat 1","address":"Bilderdijkstraat 1","city":"Leiden","operatorName":"Allego","maxPowerKw":0,"isMegawatt":false,"status":"AVAILABLE","source":"ndw"}},{"type":"Feature","geometry":{"type":"Point","coordinates":[4.513715,52.181805]},"properties":{"type":"charge","layer":"passenger","locationId":"586e87b4-4f3c-11e8-990a-42010a840002","name":"NLD, Leiden, Gloxiniadal 29-30","address":"Gloxiniadal 29-30","city":"Leiden","operatorName":"Allego","maxPowerKw":0,"isMegawatt":false,"status":"AVAILABLE","source":"ndw"}},{"type":"Feature","geometry":{"type":"Point","coordinates":[4.508972,52.166825]},"properties":{"type":"charge","layer":"passenger","locationId":"59a4f726-4f3c-11e8-a505-42010a840002","name":"NLD, Leiden, Surinamestraat 58","address":"Surinamestraat 58","city":"Leiden","operatorName":"Allego","maxPowerKw":0,"isMegawatt":false,"status":"AVAILABLE","source":"ndw"}},{"type":"Feature","geometry":{"type":"Point","coordinates":[4.516858,52.146759]},"properties":{"type":"charge","layer":"passenger","locationId":"5a943070-4f3c-11e8-9ac0-42010a840002","name":"NLD, Leiden, Vitruviusstraat 137","address":"Vitruviusstraat 137","city":"Leiden","operatorName":"Allego","maxPowerKw":0,"isMegawatt":false,"status":"AVAILABLE","source":"ndw"}},{"type":"Feature","geometry":{"type":"Point","coordinates":[4.486275,52.153112]},"properties":{"type":"charge","layer":"passenger","locationId":"64e18222-f9b8-11e8-986d-42010a840002","name":"NLD, Vreewijkstraat 10 2311XH leiden","address":"Vreewijkstraat 10","city":"Leiden","operatorName":"Allego","maxPowerKw":0,"isMegawatt":false,"status":"AVAILABLE","source":"ndw"}},{"type":"Feature","geometry":{"type":"Point","coordinates":[4.506529,52.157631]},"properties":{"type":"charge","layer":"passenger","locationId":"788b4708-4f3c-11e8-8412-42010a840002","name":"NLD, Leiden, Oosterstraat 24","address":"Oosterstraat 24","city":"Leiden","operatorName":"Allego","maxPowerKw":0,"isMegawatt":false,"status":"CHARGING","source":"ndw"}},{"type":"Feature","geometry":{"type":"Point","coordinates":[4.501534,52.152651]},"properties":{"type":"charge","layer":"passenger","locationId":"79111b76-4f3c-11e8-9196-42010a840002","name":"NLD, Leiden, Thorbeckestraat 4","address":"Thorbeckestraat 4","city":"Leiden","operatorName":"Allego","maxPowerKw":0,"isMegawatt":false,"status":"AVAILABLE","source":"ndw"}},{"type":"Feature","geometry":{"type":"Point","coordinates":[4.491497,52.150392]},"properties":{"type":"charge","layer":"passenger","locationId":"84041866-871d-11e9-b4a1-42010a840003","name":"NLD, Pieter de la Courtstraat 67 2313BR Leiden","address":"Pieter de la Courtstraat 67","city":"Leiden","operatorName":"Allego","maxPowerKw":0,"isMegawatt":false,"status":"AVAILABLE","source":"ndw"}},{"type":"Feature","geometry":{"type":"Point","coordinates":[4.470646,52.161229]},"properties":{"type":"charge","layer":"passenger","locationId":"91d1c8dc-86b5-11eb-b6b3-42010a840003","name":"NL, Jacob Catslaan 51, 2332 AT, Leiden","address":"Jacob Catslaan 51","city":"Leiden","operatorName":"Allego","maxPowerKw":0,"isMegawatt":false,"status":"AVAILABLE","source":"ndw"}},{"type":"Feature","geometry":{"type":"Point","coordinates":[4.483156,52.158782]},"properties":{"type":"charge","layer":"passenger","locationId":"927ee40a-5953-11ed-a0ef-42010aa40fc0","name":"NL, Arsenaalstraat 24, 2311 CT Leiden","address":"Arsenaalstraat 24","city":"Leiden","operatorName":"Allego","maxPowerKw":0,"isMegawatt":false,"status":"AVAILABLE","source":"ndw"}},{"type":"Feature","geometry":{"type":"Point","coordinates":[4.51626,52.177538]},"properties":{"type":"charge","layer":"passenger","locationId":"a00abec4-7436-11ee-922c-42010aa40fc0","name":"NL, Klaproos 30, 2317EL, Leiden","address":"Klaproos 30","city":"Leiden","operatorName":"Allego","maxPowerKw":0,"isMegawatt":false,"status":"AVAILABLE","source":"ndw"}},{"type":"Feature","geometry":{"type":"Point","coordinates":[4.447229,52.148983]},"properties":{"type":"charge","layer":"passenger","locationId":"bc735a40-96af-11e8-a62a-42010a840002","name":"NLD Mary Zeldenrustweg 58 2331 NE Leiden","address":"Mary Zeldenrustweg 58","city":"Leiden","operatorName":"Allego","maxPowerKw":0,"isMegawatt":false,"status":"CHARGING","source":"ndw"}},{"type":"Feature","geometry":{"type":"Point","coordinates":[4.476031,52.16031]},"properties":{"type":"charge","layer":"passenger","locationId":"NLLOC002656","name":"NLD Gemeente Leiden Morsweg 86 2332 EP Leiden","address":"Morsweg 86","city":"Leiden","operatorName":"Allego","maxPowerKw":0,"isMegawatt":false,"status":"AVAILABLE","source":"ndw","priceKwh":0.511}},{"type":"Feature","geometry":{"type":"Point","coordinates":[4.502047,52.150152]},"properties":{"type":"charge","layer":"passenger","locationId":"NLLOC003784","name":"NLD, Gemeente Leiden, De Meij van Streefkerkstraat 60 2313JP Leiden","address":"De Meij van Streefkerkstraat 60","city":"Leiden","operatorName":"Allego","maxPowerKw":0,"isMegawatt":false,"status":"AVAILABLE","source":"ndw","priceKwh":0.511}},{"type":"Feature","geometry":{"type":"Point","coordinates":[4.514398,52.153884]},"properties":{"type":"charge","layer":"passenger","locationId":"4174858","name":"Laadnet Het Kaasmerk","address":"Roomburgerweg 3A","city":"Leiden","operatorName":"Laadnet","maxPowerKw":11,"isMegawatt":false,"status":"AVAILABLE","source":"ndw"}},{"type":"Feature","geometry":{"type":"Point","coordinates":[4.474388,52.157431]},"properties":{"type":"charge","layer":"passenger","locationId":"57e53626-4f3c-11e8-b985-42010a840002","name":"NLD, Leiden, Haagweg 144, 2321AH","address":"Haagweg 144","city":"Leiden","operatorName":"Allego","maxPowerKw":0,"isMegawatt":false,"status":"AVAILABLE","source":"ndw"}},{"type":"Feature","geometry":{"type":"Point","coordinates":[4.486608,52.143045]},"properties":{"type":"charge","layer":"passenger","locationId":"5c2005d6-4f3c-11e8-b25d-42010a840002","name":"NLD, Leiden, Zoeterwoudseweg 166","address":"Zoeterwoudseweg 166","city":"Leiden","operatorName":"Allego","maxPowerKw":0,"isMegawatt":false,"status":"AVAILABLE","source":"ndw"}},{"type":"Feature","geometry":{"type":"Point","coordinates":[4.494854,52.168101]},"properties":{"type":"charge","layer":"passenger","locationId":"5c64e4e4-4f3c-11e8-9160-42010a840002","name":"NLD, Leiden, Willem de Zwijgerlaan 177","address":"Willem de Zwijgerlaan 177","city":"Leiden","operatorName":"Allego","maxPowerKw":0,"isMegawatt":false,"status":"AVAILABLE","source":"ndw"}},{"type":"Feature","geometry":{"type":"Point","coordinates":[4.471442,52.141542]},"properties":{"type":"charge","layer":"passenger","locationId":"811e1cd6-dd6e-11e8-98e6-42010a840002","name":"NLD, Leiden, Kennedylaan 9","address":"Kennedylaan 9","city":"Leiden","operatorName":"Allego","maxPowerKw":0,"isMegawatt":false,"status":"AVAILABLE","source":"ndw"}},{"type":"Feature","geometry":{"type":"Point","coordinates":[4.510562,52.154939]},"properties":{"type":"charge","layer":"passenger","locationId":"a0925b2e-4f3c-11e8-91af-42010a840002","name":"NLD, Leiden, Rijndijkstraat 2","address":"Rijndijkstraat 2","city":"Leiden","operatorName":"Allego","maxPowerKw":0,"isMegawatt":false,"status":"AVAILABLE","source":"ndw"}},{"type":"Feature","geometry":{"type":"Point","coordinates":[4.46452,52.157889]},"properties":{"type":"charge","layer":"passenger","locationId":"afa57db4-a94b-11eb-baae-42010a840003","name":"NL, Opaalstraat 229, 2332TA, Leiden","address":"Opaalstraat 229","city":"Leiden","operatorName":"Allego","maxPowerKw":0,"isMegawatt":false,"status":"AVAILABLE","source":"ndw"}},{"type":"Feature","geometry":{"type":"Point","coordinates":[4.442153,52.149284]},"properties":{"type":"charge","layer":"passenger","locationId":"cc69f688-5fd2-11e9-bcf5-42010a840003","name":"NLD, Gemeente Leiden, Lotte Beesestraat 3 2331KG Leiden","address":"Lotte Beesestraat 3","city":"Leiden","operatorName":"Allego","maxPowerKw":0,"isMegawatt":false,"status":"AVAILABLE","source":"ndw"}},{"type":"Feature","geometry":{"type":"Point","coordinates":[4.511069,52.160025]},"properties":{"type":"charge","layer":"passenger","locationId":"ef4a3f9a-951c-11e8-8136-42010a840002","name":"NLD, Willem Barentszstraat 11 2315 TZ Leiden","address":"Willem Barentszstraat 11","city":"Leiden","operatorName":"Allego","maxPowerKw":0,"isMegawatt":false,"status":"CHARGING","source":"ndw"}},{"type":"Feature","geometry":{"type":"Point","coordinates":[4.479827,52.16301]},"properties":{"type":"charge","layer":"passenger","locationId":"2972d63e-4e0d-11ed-93c2-42010aa4007c","name":"NL, Bloemfonteinstraat 1T, 2312ZD Leiden","address":"Bloemfonteinstraat 1T","city":"Leiden","operatorName":"Allego","maxPowerKw":0,"isMegawatt":false,"status":"CHARGING","source":"ndw"}},{"type":"Feature","geometry":{"type":"Point","coordinates":[4.512645,52.153654]},"properties":{"type":"charge","layer":"passenger","locationId":"64807e70-a882-11eb-9671-42010a840003","name":"NL, Kanaalweg 15, 2313DS, Leiden","address":"Kanaalweg 15","city":"Leiden","operatorName":"Allego","maxPowerKw":0,"isMegawatt":false,"status":"AVAILABLE","source":"ndw"}},{"type":"Feature","geometry":{"type":"Point","coordinates":[4.502124,52.181758]},"properties":{"type":"charge","layer":"passenger","locationId":"7bc02a10-4f3c-11e8-9a5c-42010a840002","name":"NLD, Leiden, Zandegge 19","address":"Zandegge 19","city":"Leiden","operatorName":"Allego","maxPowerKw":0,"isMegawatt":false,"status":"AVAILABLE","source":"ndw"}},{"type":"Feature","geometry":{"type":"Point","coordinates":[4.457286,52.149178]},"properties":{"type":"charge","layer":"passenger","locationId":"e59a3b7e-a4f9-11e9-9e22-42010a840003","name":"NLD, Louise Hardenbergsingel 15 2331BM Leiden","address":"Louise Hardenbergsingel 15","city":"Leiden","operatorName":"Allego","maxPowerKw":0,"isMegawatt":false,"status":"AVAILABLE","source":"ndw"}},{"type":"Feature","geometry":{"type":"Point","coordinates":[4.446733,52.146791]},"properties":{"type":"charge","layer":"passenger","locationId":"3a63e5a6-877f-11eb-9839-42010a840003","name":"NL, Anna Teding van Berkhoutstraat 2, 2331NR, Leiden","address":"Anna Teding van Berkhoutstraat 2","city":"Leiden","operatorName":"Allego","maxPowerKw":0,"isMegawatt":false,"status":"AVAILABLE","source":"ndw"}},{"type":"Feature","geometry":{"type":"Point","coordinates":[4.497248,52.149979]},"properties":{"type":"charge","layer":"passenger","locationId":"9c25e780-a15a-11ec-843f-42010a840003","name":"NL, Zeemanlaan 57, 2313SW Leiden","address":"Zeemanlaan 57","city":"Leiden","operatorName":"Allego","maxPowerKw":0,"isMegawatt":false,"status":"CHARGING","source":"ndw"}},{"type":"Feature","geometry":{"type":"Point","coordinates":[4.514955,52.145946]},"properties":{"type":"charge","layer":"passenger","locationId":"1cf83bf4-5376-11ea-bd0b-42010a840003","name":"NL, Vitruviusstraat 178, 2314 CW, Leiden","address":"Vitruviusstraat 178","city":"Leiden","operatorName":"Allego","maxPowerKw":0,"isMegawatt":false,"status":"AVAILABLE","source":"ndw"}},{"type":"Feature","geometry":{"type":"Point","coordinates":[4.501511,52.181897]},"properties":{"type":"charge","layer":"passenger","locationId":"581dc09a-4f3c-11e8-a5e0-42010a840002","name":"NLD, Leiden, Zandzegge 9","address":"Zandzegge 9","city":"Leiden","operatorName":"Allego","maxPowerKw":0,"isMegawatt":false,"status":"AVAILABLE","source":"ndw"}},{"type":"Feature","geometry":{"type":"Point","coordinates":[4.474467,52.163057]},"properties":{"type":"charge","layer":"passenger","locationId":"59382286-4f3c-11e8-a425-42010a840002","name":"NLD, Leiden, Vondellaan 80","address":"Vondellaan 80","city":"Leiden","operatorName":"Allego","maxPowerKw":0,"isMegawatt":false,"status":"UNAVAILABLE","source":"ndw"}},{"type":"Feature","geometry":{"type":"Point","coordinates":[4.4867,52.166105]},"properties":{"type":"charge","layer":"passenger","locationId":"a18cadc8-8266-11e9-9fda-42010a840003","name":"NLD, Marislaan 19 2316XV Leiden","address":"Marislaan 19","city":"Leiden","operatorName":"Allego","maxPowerKw":0,"isMegawatt":false,"status":"CHARGING","source":"ndw"}},{"type":"Feature","geometry":{"type":"Point","coordinates":[4.495167,52.169773]},"properties":{"type":"charge","layer":"passenger","locationId":"0f891140-93b0-11e9-9d1a-42010a840003","name":"NLD Evenementenlaan 1 2316LC Leiden","address":"Evenementenlaan 1","city":"Leiden","operatorName":"Allego","maxPowerKw":0,"isMegawatt":false,"status":"AVAILABLE","source":"ndw"}},{"type":"Feature","geometry":{"type":"Point","coordinates":[4.494817,52.15024]},"properties":{"type":"charge","layer":"passenger","locationId":"5a5cc572-4f3c-11e8-a1e3-42010a840002","name":"NL, Lammenschansweg 42, 2313 DM, Leiden","address":"Lammenschansweg 42","city":"Leiden","operatorName":"Allego","maxPowerKw":0,"isMegawatt":false,"status":"AVAILABLE","source":"ndw"}},{"type":"Feature","geometry":{"type":"Point","coordinates":[4.491024,52.171719]},"properties":{"type":"charge","layer":"passenger","locationId":"687e33e0-f77c-11e9-a5ec-42010a840003","name":"NLD, Gabriël Metzustraat 4 A 2316AJ Leiden","address":"Gabriël Metzustraat 4 A","city":"Leiden","operatorName":"Allego","maxPowerKw":0,"isMegawatt":false,"status":"AVAILABLE","source":"ndw"}},{"type":"Feature","geometry":{"type":"Point","coordinates":[4.500844,52.16612]},"properties":{"type":"charge","layer":"passenger","locationId":"a859df88-e632-11e9-a511-42010a840003","name":"NLD Julianastraat 101 2316NW Leiden","address":"Julianastraat 101","city":"Leiden","operatorName":"Allego","maxPowerKw":0,"isMegawatt":false,"status":"AVAILABLE","source":"ndw"}},{"type":"Feature","geometry":{"type":"Point","coordinates":[4.51795,52.147653]},"properties":{"type":"charge","layer":"passenger","locationId":"f041ffea-86b5-11eb-8364-42010a840003","name":"NL, Octavialaan 2 2314 CP Leiden","address":"Octavialaan 2","city":"Leiden","operatorName":"Allego","maxPowerKw":0,"isMegawatt":false,"status":"AVAILABLE","source":"ndw"}},{"type":"Feature","geometry":{"type":"Point","coordinates":[4.510464,52.151447]},"properties":{"type":"charge","layer":"passenger","locationId":"00d2775e-f36f-11e8-8100-42010a840002","name":"NLD, Duyvendakstraat 1, 2313 PZ Leiden","address":"Duyvendakstraat 1","city":"Leiden","operatorName":"Allego","maxPowerKw":0,"isMegawatt":false,"status":"AVAILABLE","source":"ndw"}},{"type":"Feature","geometry":{"type":"Point","coordinates":[4.469416,52.148747]},"properties":{"type":"charge","layer":"passenger","locationId":"32031222-5cae-11e9-b41f-42010a840003","name":"NLD, Gemeente Leiden, Peter van Anrooystraat 1 2324XA Leiden","address":"Peter van Anrooystraat 1","city":"Leiden","operatorName":"Allego","maxPowerKw":0,"isMegawatt":false,"status":"AVAILABLE","source":"ndw"}},{"type":"Feature","geometry":{"type":"Point","coordinates":[4.452576,52.151742]},"properties":{"type":"charge","layer":"passenger","locationId":"5928ed52-4f3c-11e8-ae32-42010a840002","name":"NLD, Leiden, Stevensbloem 189","address":"Stevensbloem 189","city":"Leiden","operatorName":"Allego","maxPowerKw":0,"isMegawatt":false,"status":"AVAILABLE","source":"ndw"}},{"type":"Feature","geometry":{"type":"Point","coordinates":[4.497438,52.165404]},"properties":{"type":"charge","layer":"passenger","locationId":"5a4069d6-4f3c-11e8-9380-42010a840002","name":"NLD, Leiden, Bronkhorststraat 15","address":"Bronkhorststraat 15","city":"Leiden","operatorName":"Allego","maxPowerKw":0,"isMegawatt":false,"status":"AVAILABLE","source":"ndw"}},{"type":"Feature","geometry":{"type":"Point","coordinates":[4.470371,52.156279]},"properties":{"type":"charge","layer":"passenger","locationId":"638d88d2-b1f1-11eb-9a68-42010a840003","name":"NL, Morskade 21, 2332 GB Leiden","address":"Morskade 21","city":"Leiden","operatorName":"Allego","maxPowerKw":0,"isMegawatt":false,"status":"AVAILABLE","source":"ndw"}},{"type":"Feature","geometry":{"type":"Point","coordinates":[4.462807,52.16414]},"properties":{"type":"charge","layer":"passenger","locationId":"788473ba-4f3c-11e8-b83c-42010a840002","name":"NLD, Leiden, Verbeekstraat 2","address":"Verbeekstraat 2","city":"Leiden","operatorName":"Allego","maxPowerKw":0,"isMegawatt":false,"status":"CHARGING","source":"ndw"}},{"type":"Feature","geometry":{"type":"Point","coordinates":[4.504635,52.164937]},"properties":{"type":"charge","layer":"passenger","locationId":"98332128-81fe-11eb-a3ac-42010a840003","name":"NL, Os en Paardenlaan 30, 2316JJ, Leiden","address":"Os en Paardenlaan 30","city":"Leiden","operatorName":"Allego","maxPowerKw":0,"isMegawatt":false,"status":"AVAILABLE","source":"ndw"}},{"type":"Feature","geometry":{"type":"Point","coordinates":[4.49142,52.168416]},"properties":{"type":"charge","layer":"passenger","locationId":"bc616092-dacc-11eb-9747-42010a840003","name":"NL, Musschenbroekstraat 15, 2316 AW Leiden","address":"Musschenbroekstraat 15","city":"Leiden","operatorName":"Allego","maxPowerKw":0,"isMegawatt":false,"status":"AVAILABLE","source":"ndw"}},{"type":"Feature","geometry":{"type":"Point","coordinates":[4.503738,52.178494]},"properties":{"type":"charge","layer":"passenger","locationId":"c528af26-3f07-11ea-956b-42010a840003","name":"NL, Oesterbank 36, 2317MP, Leiden","address":"Oesterbank 36","city":"Leiden","operatorName":"Allego","maxPowerKw":0,"isMegawatt":false,"status":"AVAILABLE","source":"ndw"}},{"type":"Feature","geometry":{"type":"Point","coordinates":[4.519377,52.150862]},"properties":{"type":"charge","layer":"passenger","locationId":"f7e41c02-f132-11e9-9632-42010a840003","name":"NLD Castellumweg 4 2314TZ Leiden","address":"Castellumweg 4","city":"Leiden","operatorName":"Allego","maxPowerKw":0,"isMegawatt":false,"status":"AVAILABLE","source":"ndw"}},{"type":"Feature","geometry":{"type":"Point","coordinates":[4.47625,52.172336]},"properties":{"type":"charge","layer":"passenger","locationId":"58cf099a-4f3c-11e8-a630-42010a840002","name":"NLD, Leiden, Rijnsburgerweg 117","address":"Rijnsburgerweg 117","city":"Leiden","operatorName":"Allego","maxPowerKw":0,"isMegawatt":false,"status":"AVAILABLE","source":"ndw"}},{"type":"Feature","geometry":{"type":"Point","coordinates":[4.479671,52.154998]},"properties":{"type":"charge","layer":"passenger","locationId":"75eacbb4-0a26-11ed-9738-42010aa40fc0","name":"NL, Blauwe Tramstraat 150, 2311 ZZ Leiden","address":"Blauwe Tramstraat 150","city":"Leiden","operatorName":"Allego","maxPowerKw":0,"isMegawatt":false,"status":"AVAILABLE","source":"ndw"}},{"type":"Feature","geometry":{"type":"Point","coordinates":[4.508338,52.181758]},"properties":{"type":"charge","layer":"passenger","locationId":"78b3c11a-4f3c-11e8-af7a-42010a840002","name":"NLD, Leiden, Cosmeaduin 17","address":"Cosmeaduin 17","city":"Leiden","operatorName":"Allego","maxPowerKw":0,"isMegawatt":false,"status":"AVAILABLE","source":"ndw"}},{"type":"Feature","geometry":{"type":"Point","coordinates":[4.506191,52.154856]},"properties":{"type":"charge","layer":"passenger","locationId":"90861da4-50b0-11ed-a5f9-42010aa4002a","name":"NL, Cobetstraat 1A, 2313KA, Leiden","address":"Cobetstraat 1a","city":"Leiden","operatorName":"Allego","maxPowerKw":0,"isMegawatt":false,"status":"AVAILABLE","source":"ndw"}},{"type":"Feature","geometry":{"type":"Point","coordinates":[4.506939,52.154294]},"properties":{"type":"charge","layer":"passenger","locationId":"bc5fc248-25b9-11e9-a5da-42010a840003","name":"NLD, Kernstraat 1, 2313 EV Leiden","address":"Kernstraat 1","city":"Leiden","operatorName":"Allego","maxPowerKw":0,"isMegawatt":false,"status":"AVAILABLE","source":"ndw"}},{"type":"Feature","geometry":{"type":"Point","coordinates":[4.472069,52.144998]},"properties":{"type":"charge","layer":"passenger","locationId":"bc9d971a-dacc-11eb-9100-42010a840003","name":"NL, Beethovenlaan 41 2324EE Leiden","address":"Beethovenlaan 41","city":"Leiden","operatorName":"Allego","maxPowerKw":0,"isMegawatt":false,"status":"AVAILABLE","source":"ndw"}},{"type":"Feature","geometry":{"type":"Point","coordinates":[4.505972,52.159885]},"properties":{"type":"charge","layer":"passenger","locationId":"54f17b68-804d-11e8-9f43-42010a840002","name":"NLD Gemeente Leiden Kwekerijplein 1 2315 SE Leiden","address":"Kwekerijplein 1","city":"Leiden","operatorName":"Allego","maxPowerKw":0,"isMegawatt":false,"status":"AVAILABLE","source":"ndw"}},{"type":"Feature","geometry":{"type":"Point","coordinates":[4.45475,52.148979]},"properties":{"type":"charge","layer":"passenger","locationId":"5884e702-4f3c-11e8-bfc4-42010a840002","name":"NL, Clara Visserplaats 1, 2331BN Leiden (Laadpaal 2)","address":"Clara Visserplaats 1","city":"Leiden","operatorName":"Allego","maxPowerKw":0,"isMegawatt":false,"status":"AVAILABLE","source":"ndw"}},{"type":"Feature","geometry":{"type":"Point","coordinates":[4.446872,52.155026]},"properties":{"type":"charge","layer":"passenger","locationId":"78770bf8-4f3c-11e8-ac6c-42010a840002","name":"NL, Beppy Nooijstraat 2, 2331 HV Leiden (laadpaal 2)","address":"Beppy Nooijstraat 2","city":"Leiden","operatorName":"Allego","maxPowerKw":0,"isMegawatt":false,"status":"AVAILABLE","source":"ndw"}},{"type":"Feature","geometry":{"type":"Point","coordinates":[4.500299,52.146461]},"properties":{"type":"charge","layer":"passenger","locationId":"8b1b81f8-a81e-11e9-82a8-42010a840003","name":"NLD, Temminckstraat 1 2313RR Leiden","address":"Temminckstraat 1","city":"Leiden","operatorName":"Allego","maxPowerKw":0,"isMegawatt":false,"status":"AVAILABLE","source":"ndw"}},{"type":"Feature","geometry":{"type":"Point","coordinates":[4.462354,52.161586]},"properties":{"type":"charge","layer":"passenger","locationId":"3bc0efbc-5fa0-11ec-bfe5-42010a840003","name":"NL, Pieter van der Aastraat 2, 2332PT, Leiden","address":"Pieter van der Aastraat 2","city":"Leiden","operatorName":"Allego","maxPowerKw":0,"isMegawatt":false,"status":"AVAILABLE","source":"ndw"}},{"type":"Feature","geometry":{"type":"Point","coordinates":[4.499509,52.179946]},"properties":{"type":"charge","layer":"passenger","locationId":"55af8420-08ed-11eb-851e-42010a840033","name":"NL, Lauwerbes 7, 2318 AT, Leiden","address":"Lauwerbes 7","city":"Leiden","operatorName":"Allego","maxPowerKw":0,"isMegawatt":false,"status":"AVAILABLE","source":"ndw"}},{"type":"Feature","geometry":{"type":"Point","coordinates":[4.497365,52.147533]},"properties":{"type":"charge","layer":"passenger","locationId":"9c737722-a662-11ec-8604-42010a840003","name":"NL, Van 't Hoffstraat 54, 2313ST, Leiden","address":"Van 't Hoffstraat 54","city":"Leiden","operatorName":"Allego","maxPowerKw":0,"isMegawatt":false,"status":"AVAILABLE","source":"ndw"}},{"type":"Feature","geometry":{"type":"Point","coordinates":[4.469537,52.14446]},"properties":{"type":"charge","layer":"passenger","locationId":"5983ffa8-4f3c-11e8-9fa5-42010a840002","name":"NLD, Leiden, Aidapad 2","address":"Aidapad 2","city":"Leiden","operatorName":"Allego","maxPowerKw":0,"isMegawatt":false,"status":"AVAILABLE","source":"ndw"}},{"type":"Feature","geometry":{"type":"Point","coordinates":[4.469757,52.162623]},"properties":{"type":"charge","layer":"passenger","locationId":"5b525460-4f3c-11e8-9e94-42010a840002","name":"NLD, Leiden, Jacob Catslaan 107","address":"Jacob Catslaan 107","city":"Leiden","operatorName":"Allego","maxPowerKw":0,"isMegawatt":false,"status":"AVAILABLE","source":"ndw"}},{"type":"Feature","geometry":{"type":"Point","coordinates":[4.514919,52.175482]},"properties":{"type":"charge","layer":"passenger","locationId":"6014c990-b733-11ea-b402-42010a840003","name":"NL, Boeierwerf 2, 2317 EA, Leiden","address":"Boeierwerf 2","city":"Leiden","operatorName":"Allego","maxPowerKw":0,"isMegawatt":false,"status":"AVAILABLE","source":"ndw"}},{"type":"Feature","geometry":{"type":"Point","coordinates":[4.506938,52.149549]},"properties":{"type":"charge","layer":"passenger","locationId":"795f2e6a-4f3c-11e8-9af8-42010a840002","name":"NLD, Leiden, Van Vollenhovenkade 13","address":"Van Vollenhovenkade 13","city":"Leiden","operatorName":"Allego","maxPowerKw":0,"isMegawatt":false,"status":"AVAILABLE","source":"ndw"}},{"type":"Feature","geometry":{"type":"Point","coordinates":[4.47926,52.156307]},"properties":{"type":"charge","layer":"passenger","locationId":"79cd9d82-4f3c-11e8-8e7d-42010a840002","name":"NLD, Leiden, Blauwe Tramstraat 118","address":"Blauwe Tramstraat 118","city":"Leiden","operatorName":"Allego","maxPowerKw":0,"isMegawatt":false,"status":"AVAILABLE","source":"ndw"}},{"type":"Feature","geometry":{"type":"Point","coordinates":[4.474464,52.172832]},"properties":{"type":"charge","layer":"passenger","locationId":"662a4ccd89e642001c38e8d5","name":"Leiden/Rijnsburgerweg 126","address":"Rijnsburgerweg 126","city":"Leiden","operatorName":"E-Flux by Road","maxPowerKw":14,"isMegawatt":false,"status":"AVAILABLE","source":"ndw","priceKwh":0.5217}},{"type":"Feature","geometry":{"type":"Point","coordinates":[4.507854,52.163062]},"properties":{"type":"charge","layer":"passenger","locationId":"0c7fbd84-9a9e-11e8-bfec-42010a840002","name":"NL, Medusastraat 27, 2315GR, Leiden","address":"Medusastraat 27","city":"Leiden","operatorName":"Allego","maxPowerKw":0,"isMegawatt":false,"status":"AVAILABLE","source":"ndw"}},{"type":"Feature","geometry":{"type":"Point","coordinates":[4.493918,52.154536]},"properties":{"type":"charge","layer":"passenger","locationId":"0198a0a0-5e1a-11ec-815e-42010a840003","name":"EQUANS Parkeergarages Leiden","address":"Korevaarstraat 26","city":"Leiden","operatorName":"EQUANS","maxPowerKw":0,"isMegawatt":false,"status":"AVAILABLE","source":"ndw","priceKwh":0.55}},{"type":"Feature","geometry":{"type":"Point","coordinates":[4.51795,52.147653]},"properties":{"type":"charge","layer":"passenger","locationId":"NLLOC009791","name":"NL, Octavialaan 2 2314 CP Leiden","address":"Octavialaan 2","city":"Leiden","operatorName":"Allego","maxPowerKw":0,"isMegawatt":false,"status":"CHARGING","source":"ndw","priceKwh":0.511}},{"type":"Feature","geometry":{"type":"Point","coordinates":[4.509167,52.172123]},"properties":{"type":"charge","layer":"passenger","locationId":"65b6178e54e5e9001c3a6fef","name":"Leiden/Kiekendiefhorst 6","address":"Kiekendiefhorst  6","city":"Leiden","operatorName":"E-Flux by Road","maxPowerKw":14,"isMegawatt":false,"status":"AVAILABLE","source":"ndw","priceKwh":0.5217}},{"type":"Feature","geometry":{"type":"Point","coordinates":[4.471466,52.146138]},"properties":{"type":"charge","layer":"passenger","locationId":"NLLOC011554","name":"NL, Mozartstraat, 163, 2324XT, Leiden","address":"Mozartstraat 163","city":"Leiden","operatorName":"Allego","maxPowerKw":0,"isMegawatt":false,"status":"AVAILABLE","source":"ndw","priceKwh":0.511}},{"type":"Feature","geometry":{"type":"Point","coordinates":[4.470646,52.161229]},"properties":{"type":"charge","layer":"passenger","locationId":"NLLOC013612","name":"NL, Jacob Catslaan 51, 2332 AT, Leiden","address":"Jacob Catslaan 51","city":"Leiden","operatorName":"Allego","maxPowerKw":0,"isMegawatt":false,"status":"AVAILABLE","source":"ndw","priceKwh":0.511}},{"type":"Feature","geometry":{"type":"Point","coordinates":[4.513715,52.181805]},"properties":{"type":"charge","layer":"passenger","locationId":"NLLOC000137","name":"NLD, Leiden, Gloxiniadal 29-30","address":"Gloxiniadal 29-30","city":"Leiden","operatorName":"Allego","maxPowerKw":0,"isMegawatt":false,"status":"AVAILABLE","source":"ndw","priceKwh":0.511}},{"type":"Feature","geometry":{"type":"Point","coordinates":[4.46901,52.143519]},"properties":{"type":"charge","layer":"passenger","locationId":"58c08a82-4f3c-11e8-9cf4-42010a840002","name":"NLD, Leiden, Händelstraat 26","address":"Händelstraat 26","city":"Leiden","operatorName":"Allego","maxPowerKw":0,"isMegawatt":false,"status":"AVAILABLE","source":"ndw"}},{"type":"Feature","geometry":{"type":"Point","coordinates":[4.445653,52.149385]},