{"type":"FeatureCollection","metadata":{"gemeente":"Leiderdorp","slug":"leiderdorp","code":"GM0547","generated_at":"2026-06-07T19:22:09.578Z","total_passenger":130,"total_freight":0,"bounds":[4.514830960708138,52.13193316530174,4.57148053751291,52.18211677753097],"operators":["Allego","ChargePoint","E-Flux by Road","EQUANS","Eneco","Fastned","Heijmans","Laadnet","Lidl","Q-Park Netherlands","Shell Recharge","Spirii","Tesla"]},"features":[{"type":"Feature","geometry":{"type":"Point","coordinates":[4.522221,52.155567]},"properties":{"type":"charge","layer":"passenger","locationId":"691ae7e22725f579585a48e6","name":"Homebase","address":"Ockenrode 40","city":"Leiderdorp","operatorName":"E-Flux by Road","maxPowerKw":4,"isMegawatt":false,"status":"AVAILABLE","source":"ndw","priceKwh":0.49}},{"type":"Feature","geometry":{"type":"Point","coordinates":[4.527743,52.146813]},"properties":{"type":"charge","layer":"passenger","locationId":"NLLOC005124","name":"NLD Frederik Hendriklaan 26, 2351 GC Leiderdorp","address":"Frederik Hendriklaan 26","city":"Leiderdorp","operatorName":"Allego","maxPowerKw":0,"isMegawatt":false,"status":"AVAILABLE","source":"ndw","priceKwh":0.511}},{"type":"Feature","geometry":{"type":"Point","coordinates":[4.520457,52.161316]},"properties":{"type":"charge","layer":"passenger","locationId":"NLLOC008644","name":"NL, Van der Marckstraat, 19, 2352 RA, Leiderdorp","address":"Van der Marckstraat 19","city":"Leiderdorp","operatorName":"Allego","maxPowerKw":0,"isMegawatt":false,"status":"AVAILABLE","source":"ndw","priceKwh":0.511}},{"type":"Feature","geometry":{"type":"Point","coordinates":[4.53986,52.163707]},"properties":{"type":"charge","layer":"passenger","locationId":"NLLOC003583","name":"NLD, Oltmansdreef 1, 2353 CK Leiderdorp","address":"Oltmansdreef 1","city":"Leiderdorp","operatorName":"Allego","maxPowerKw":0,"isMegawatt":false,"status":"AVAILABLE","source":"ndw","priceKwh":0.511}},{"type":"Feature","geometry":{"type":"Point","coordinates":[4.538795,52.154283]},"properties":{"type":"charge","layer":"passenger","locationId":"74ce4e82-d489-11f0-85c4-42010aa400b8","name":"Q-Park Leiderdorp Rijnland Vierzicht P","address":"Simon Smitweg 1","city":"Leiderdorp","operatorName":"Q-Park Netherlands","maxPowerKw":11,"isMegawatt":false,"status":"AVAILABLE","source":"ndw","priceKwh":0.55}},{"type":"Feature","geometry":{"type":"Point","coordinates":[4.539896,52.159244]},"properties":{"type":"charge","layer":"passenger","locationId":"NLLOC002944","name":"NLD Dragontuin 43 2353 PP Leiderdorp","address":"Dragontuin 43","city":"Leiderdorp","operatorName":"Allego","maxPowerKw":0,"isMegawatt":false,"status":"AVAILABLE","source":"ndw","priceKwh":0.511}},{"type":"Feature","geometry":{"type":"Point","coordinates":[4.526239,52.164814]},"properties":{"type":"charge","layer":"passenger","locationId":"NLLOC006162","name":"NL, Wilddreef 104, 2352 CE, Leiderdorp","address":"Wilddreef 104","city":"Leiderdorp","operatorName":"Allego","maxPowerKw":0,"isMegawatt":false,"status":"AVAILABLE","source":"ndw","priceKwh":0.511}},{"type":"Feature","geometry":{"type":"Point","coordinates":[4.523077,52.153172]},"properties":{"type":"charge","layer":"passenger","locationId":"577d0236-4f3c-11e8-ba9e-42010a840002","name":"NLD, Leiderdorp, Bijdorp 13","address":"Bijdorp 13","city":"Leiderdorp","operatorName":"Allego","maxPowerKw":0,"isMegawatt":false,"status":"AVAILABLE","source":"ndw"}},{"type":"Feature","geometry":{"type":"Point","coordinates":[4.529868,52.164617]},"properties":{"type":"charge","layer":"passenger","locationId":"ae41801e-9154-11e9-9825-42010a840003","name":"NLD, Jaap ter Haarsingel 2, 2353 LV Leiderdorp","address":"Jaap ter Haarsingel 2","city":"Leiderdorp","operatorName":"Allego","maxPowerKw":0,"isMegawatt":false,"status":"AVAILABLE","source":"ndw"}},{"type":"Feature","geometry":{"type":"Point","coordinates":[4.532627,52.164069]},"properties":{"type":"charge","layer":"passenger","locationId":"355fbe1a-82af-11f0-865e-42010aa400b8","name":"NLD, Leiderdorp, Dubloen 33","address":"Dubloen 33","city":"Leiderdorp","operatorName":"Allego","maxPowerKw":0,"isMegawatt":false,"status":"AVAILABLE","source":"ndw"}},{"type":"Feature","geometry":{"type":"Point","coordinates":[4.521657,52.163772]},"properties":{"type":"charge","layer":"passenger","locationId":"NLCPIL6814765","name":"FOURCE BV WEVERSB.BUS","address":"6 Weversbaan","city":"Leiderdorp","operatorName":"ChargePoint","maxPowerKw":22,"isMegawatt":false,"status":"AVAILABLE","source":"ndw","priceKwh":0.5}},{"type":"Feature","geometry":{"type":"Point","coordinates":[4.548872,52.160633]},"properties":{"type":"charge","layer":"passenger","locationId":"25cfe776-d454-4678-b092-f1521fe77943","name":"Leiderdorp, Netherlands","address":"2, Persant Snoepweg","city":"Leiderdorp","operatorName":"Tesla","maxPowerKw":150,"isMegawatt":false,"status":"AVAILABLE","source":"ndw","priceKwh":0.53}},{"type":"Feature","geometry":{"type":"Point","coordinates":[4.549439,52.160863]},"properties":{"type":"charge","layer":"passenger","locationId":"435f7a7c-049f-11ee-baf3-42010aa40fc0","name":"Allego - La Place Restaurant Leiderdorp A4","address":"Persant Snoepweg 2","city":"Leiderdorp","operatorName":"Allego","maxPowerKw":0,"isMegawatt":false,"status":"AVAILABLE","source":"ndw"}},{"type":"Feature","geometry":{"type":"Point","coordinates":[4.535704,52.146173]},"properties":{"type":"charge","layer":"passenger","locationId":"88d5e61e-e0b2-11e9-ab34-42010a840003","name":"NLD, Warmoesland 18, 2351 EX Leiderdorp","address":"Warmoesland 18","city":"Leiderdorp","operatorName":"Allego","maxPowerKw":0,"isMegawatt":false,"status":"AVAILABLE","source":"ndw"}},{"type":"Feature","geometry":{"type":"Point","coordinates":[4.522092,52.163722]},"properties":{"type":"charge","layer":"passenger","locationId":"a3b798a4-946f-11ee-832e-42010aa40fc0","name":"FOURCE BV WEVERSBAAN OPEN","address":"6 Weversbaan","city":"Leiderdorp","operatorName":"ChargePoint","maxPowerKw":22,"isMegawatt":false,"status":"UNAVAILABLE","source":"ndw"}},{"type":"Feature","geometry":{"type":"Point","coordinates":[4.55405,52.16278]},"properties":{"type":"charge","layer":"passenger","locationId":"31129","name":"Fastned Bospoort","address":"Bospoort A4","city":"Leiderdorp","operatorName":"Fastned","maxPowerKw":150,"isMegawatt":false,"status":"AVAILABLE","source":"ndw","priceKwh":0.6364}},{"type":"Feature","geometry":{"type":"Point","coordinates":[4.538795,52.154283]},"properties":{"type":"charge","layer":"passenger","locationId":"73075ca2-5535-11f0-8a3b-42010aa400b8","name":"Q-Park Leiderdorp Rijnland Vierzicht P","address":"Simon Smitweg 1","city":"Leiderdorp","operatorName":"Q-Park Netherlands","maxPowerKw":11,"isMegawatt":false,"status":"AVAILABLE","source":"ndw","priceKwh":0.55}},{"type":"Feature","geometry":{"type":"Point","coordinates":[4.521657,52.163772]},"properties":{"type":"charge","layer":"passenger","locationId":"a29a68a2-946f-11ee-9152-42010aa40fc0","name":"FOURCE BV WEVERSB.BUS","address":"6 Weversbaan","city":"Leiderdorp","operatorName":"ChargePoint","maxPowerKw":22,"isMegawatt":false,"status":"UNAVAILABLE","source":"ndw"}},{"type":"Feature","geometry":{"type":"Point","coordinates":[4.55405,52.16278]},"properties":{"type":"charge","layer":"passenger","locationId":"a89595ca-4d93-11e8-8622-42010a840002","name":"Fastned Bospoort","address":"Bospoort A4","city":"Leiderdorp","operatorName":"Fastned","maxPowerKw":150,"isMegawatt":false,"status":"AVAILABLE","source":"ndw"}},{"type":"Feature","geometry":{"type":"Point","coordinates":[4.538795,52.154283]},"properties":{"type":"charge","layer":"passenger","locationId":"84783D43-0B46-4EFA-85A4-2B913161CC7B","name":"Q-Park Leiderdorp Rijnland Vierzicht P","address":"Simon Smitweg 1","city":"Leiderdorp","operatorName":"Q-Park Netherlands","maxPowerKw":11,"isMegawatt":false,"status":"AVAILABLE","source":"ndw"}},{"type":"Feature","geometry":{"type":"Point","coordinates":[4.529854,52.150522]},"properties":{"type":"charge","layer":"passenger","locationId":"39b64fcc-0edc-11ee-94a1-42010aa40fc0","name":"Lidl Leiderdorp","address":"Amaliaplein","city":"Leiderdorp","operatorName":"Lidl","maxPowerKw":11,"isMegawatt":false,"status":"AVAILABLE","source":"ndw","priceKwh":0.45}},{"type":"Feature","geometry":{"type":"Point","coordinates":[4.522092,52.163722]},"properties":{"type":"charge","layer":"passenger","locationId":"NLCPIL6844825","name":"FOURCE BV WEVERSBAAN OPEN","address":"6 Weversbaan","city":"Leiderdorp","operatorName":"ChargePoint","maxPowerKw":22,"isMegawatt":false,"status":"AVAILABLE","source":"ndw","priceKwh":0.5}},{"type":"Feature","geometry":{"type":"Point","coordinates":[4.530456,52.167905]},"properties":{"type":"charge","layer":"passenger","locationId":"a68f6968-68ad-11ea-9e66-42010a840003","name":"NL, Ossenweide 1, 2353 MH, Leiderdorp","address":"Ossenweide 1","city":"Leiderdorp","operatorName":"Allego","maxPowerKw":0,"isMegawatt":false,"status":"AVAILABLE","source":"ndw"}},{"type":"Feature","geometry":{"type":"Point","coordinates":[4.553635,52.159937]},"properties":{"type":"charge","layer":"passenger","locationId":"cb8f4bdc-8058-11e8-a3b0-42010a840002","name":"Fastned Aurora","address":"Aurora A4","city":"Leiderdorp","operatorName":"Fastned","maxPowerKw":150,"isMegawatt":false,"status":"CHARGING","source":"ndw"}},{"type":"Feature","geometry":{"type":"Point","coordinates":[4.54686,52.15794]},"properties":{"type":"charge","layer":"passenger","locationId":"418b5864-fc36-11ec-8aa1-42010aa40fc3","name":"Eneco eMobility Elisabethhof 32 Leiderdorp","address":"Elisabethhof 32","city":"Leiderdorp","operatorName":"Eneco","maxPowerKw":0,"isMegawatt":false,"status":"UNAVAILABLE","source":"ndw","priceKwh":0.32}},{"type":"Feature","geometry":{"type":"Point","coordinates":[4.529854,52.150522]},"properties":{"type":"charge","layer":"passenger","locationId":"fefdfbb0-ef8a-4aab-8475-a02a53c8cf7e","name":"Lidl Leiderdorp","address":"Amaliaplein","city":"Leiderdorp","operatorName":"Lidl","maxPowerKw":11,"isMegawatt":false,"status":"UNAVAILABLE","source":"ndw"}},{"type":"Feature","geometry":{"type":"Point","coordinates":[4.518191,52.167301]},"properties":{"type":"charge","layer":"passenger","locationId":"55312da8-81ee-11f0-8c2c-42010aa400b8","name":"Eneco eMobility Hedin Automotive 4V B.V. - Rietschans 70- Leiderdorp","address":"Rietschans 70","city":"Leiderdorp","operatorName":"Eneco","maxPowerKw":11,"isMegawatt":false,"status":"AVAILABLE","source":"ndw","priceKwh":0.58}},{"type":"Feature","geometry":{"type":"Point","coordinates":[4.542524,52.159338]},"properties":{"type":"charge","layer":"passenger","locationId":"NLLOC002132","name":"NLD, Leiderdorp, Kamperfoeliezoom 14","address":"Kamperfoeliezoom 14","city":"Leiderdorp","operatorName":"Allego","maxPowerKw":0,"isMegawatt":false,"status":"AVAILABLE","source":"ndw","priceKwh":0.511}},{"type":"Feature","geometry":{"type":"Point","coordinates":[4.518191,52.167301]},"properties":{"type":"charge","layer":"passenger","locationId":"B1206308-A3CE-4793-9173-8079DE364A7D","name":"Eneco eMobility Hedin Automotive 4V B.V. - Rietschans 70- Leiderdorp","address":"Rietschans 70","city":"Leiderdorp","operatorName":"Eneco","maxPowerKw":11,"isMegawatt":false,"status":"AVAILABLE","source":"ndw","priceKwh":0.58}},{"type":"Feature","geometry":{"type":"Point","coordinates":[4.520528,52.170521]},"properties":{"type":"charge","layer":"passenger","locationId":"NLLOC012094","name":"NL, Zijlstroom 73, 2353 NN Leiderdorp","address":"Zijlstroom 73","city":"Leiderdorp","operatorName":"Allego","maxPowerKw":0,"isMegawatt":false,"status":"AVAILABLE","source":"ndw","priceKwh":0.511}},{"type":"Feature","geometry":{"type":"Point","coordinates":[4.537263,52.166058]},"properties":{"type":"charge","layer":"passenger","locationId":"NLLOC005044","name":"NLD Van Effendreef 27 M, 2353 BM Leiderdorp","address":"Van Effendreef 27 M","city":"Leiderdorp","operatorName":"Allego","maxPowerKw":0,"isMegawatt":false,"status":"AVAILABLE","source":"ndw","priceKwh":0.511}},{"type":"Feature","geometry":{"type":"Point","coordinates":[4.529354,52.169788]},"properties":{"type":"charge","layer":"passenger","locationId":"NLLOC003358","name":"NLD Dwarstocht 7, 2353 VM Leiderdorp","address":"Dwarstocht 7","city":"Leiderdorp","operatorName":"Allego","maxPowerKw":0,"isMegawatt":false,"status":"AVAILABLE","source":"ndw","priceKwh":0.511}},{"type":"Feature","geometry":{"type":"Point","coordinates":[4.542524,52.159338]},"properties":{"type":"charge","layer":"passenger","locationId":"358c7644-82af-11f0-b4a9-42010aa400b8","name":"NLD, Leiderdorp, Kamperfoeliezoom 14","address":"Kamperfoeliezoom 14","city":"Leiderdorp","operatorName":"Allego","maxPowerKw":0,"isMegawatt":false,"status":"AVAILABLE","source":"ndw"}},{"type":"Feature","geometry":{"type":"Point","coordinates":[4.527842,52.158337]},"properties":{"type":"charge","layer":"passenger","locationId":"4dbc13b8-ebdb-11e8-830f-42010a840002","name":"NLD Santhorst 119, 2352KC Leiderdorp","address":"Santhorst 119","city":"Leiderdorp","operatorName":"Allego","maxPowerKw":0,"isMegawatt":false,"status":"CHARGING","source":"ndw"}},{"type":"Feature","geometry":{"type":"Point","coordinates":[4.537211,52.171262]},"properties":{"type":"charge","layer":"passenger","locationId":"b286dbfc-4f3c-11e8-981d-42010a840002","name":"Poortwacht 95, 2353 EB, Leiderdorp","address":"Poortwacht 95","city":"Leiderdorp","operatorName":"Allego","maxPowerKw":0,"isMegawatt":false,"status":"CHARGING","source":"ndw"}},{"type":"Feature","geometry":{"type":"Point","coordinates":[4.53986,52.163707]},"properties":{"type":"charge","layer":"passenger","locationId":"e7702f4e-4be9-11e9-b36d-42010a840003","name":"NLD, Oltmansdreef 1, 2353 CK Leiderdorp","address":"Oltmansdreef 1","city":"Leiderdorp","operatorName":"Allego","maxPowerKw":0,"isMegawatt":false,"status":"AVAILABLE","source":"ndw"}},{"type":"Feature","geometry":{"type":"Point","coordinates":[4.526249,52.163091]},"properties":{"type":"charge","layer":"passenger","locationId":"NLLOC008010","name":"NL, Lijnbaan 28, 2352CK Leiderdorp","address":"Lijnbaan 28","city":"Leiderdorp","operatorName":"Allego","maxPowerKw":0,"isMegawatt":false,"status":"AVAILABLE","source":"ndw","priceKwh":0.511}},{"type":"Feature","geometry":{"type":"Point","coordinates":[4.52516,52.161407]},"properties":{"type":"charge","layer":"passenger","locationId":"02b56fd6-da69-11e9-9ea2-42010a840003","name":"NLD Scholeksterstraat 2, 2352 EE Leiderdorp","address":"Scholeksterstraat 2","city":"Leiderdorp","operatorName":"Allego","maxPowerKw":0,"isMegawatt":false,"status":"AVAILABLE","source":"ndw"}},{"type":"Feature","geometry":{"type":"Point","coordinates":[4.538719,52.155254]},"properties":{"type":"charge","layer":"passenger","locationId":"27d8458e-e26c-11ea-a66e-42010a840033","name":"NLD, Hofje van Holtlant 15 2352 GE Leiderdorp","address":"Hofje van Holtlant 27","city":"Leiderdorp","operatorName":"Allego","maxPowerKw":0,"isMegawatt":false,"status":"AVAILABLE","source":"ndw"}},{"type":"Feature","geometry":{"type":"Point","coordinates":[4.526239,52.164814]},"properties":{"type":"charge","layer":"passenger","locationId":"655c9066-5dad-11ea-90d1-42010a840003","name":"NL, Wilddreef 104, 2352 CE, Leiderdorp","address":"Wilddreef 104","city":"Leiderdorp","operatorName":"Allego","maxPowerKw":0,"isMegawatt":false,"status":"AVAILABLE","source":"ndw"}},{"type":"Feature","geometry":{"type":"Point","coordinates":[4.527661,52.160293]},"properties":{"type":"charge","layer":"passenger","locationId":"c3bcfb22-4f1f-11ec-89d2-42010a840003","name":"NL, Koolmeesstraat 1, 2352 HD Leiderdorp","address":"Koolmeesstraat 1","city":"Leiderdorp","operatorName":"Allego","maxPowerKw":0,"isMegawatt":false,"status":"AVAILABLE","source":"ndw"}},{"type":"Feature","geometry":{"type":"Point","coordinates":[4.526483,52.157454]},"properties":{"type":"charge","layer":"passenger","locationId":"d04221b8-ca4c-11eb-b22a-42010a840003","name":"NL, Van Poelgeestlaan 37, 2352TA, Leiderdorp","address":"Van Poelgeestlaan 37","city":"Leiderdorp","operatorName":"Allego","maxPowerKw":0,"isMegawatt":false,"status":"AVAILABLE","source":"ndw"}},{"type":"Feature","geometry":{"type":"Point","coordinates":[4.533451,52.145899]},"properties":{"type":"charge","layer":"passenger","locationId":"f7f122ce-5973-11e8-b576-42010a840002","name":"NLD, Vegmolaan 14, 2351 RP, Leiderdorp","address":"Vegmolaan 14","city":"Leiderdorp","operatorName":"Allego","maxPowerKw":0,"isMegawatt":false,"status":"AVAILABLE","source":"ndw"}},{"type":"Feature","geometry":{"type":"Point","coordinates":[4.555325,52.162491]},"properties":{"type":"charge","layer":"passenger","locationId":"9dc90b46-a1fa-11ea-a00b-42010a840003","name":"Shell Recharge Rijksweg A4 nr. 2","address":"Rijksweg A4 nr. 2","city":"Leiderdorp","operatorName":"Shell Recharge","maxPowerKw":300,"isMegawatt":false,"status":"AVAILABLE","source":"ndw"}},{"type":"Feature","geometry":{"type":"Point","coordinates":[4.554232,52.160037]},"properties":{"type":"charge","layer":"passenger","locationId":"6f936e5e-a1f2-11ef-8a01-42010aa400b8","name":"Circle K Leiderdorp inz Aurora","address":"Rijksweg A4 Oostzijde nr 1","city":"Leiderdorp","operatorName":"Spirii","maxPowerKw":0,"isMegawatt":false,"status":"AVAILABLE","source":"ndw"}},{"type":"Feature","geometry":{"type":"Point","coordinates":[4.523507,52.152302]},"properties":{"type":"charge","layer":"passenger","locationId":"28b2533c-f6da-11ea-81c1-42010a840033","name":"NL, Berkenkade 4, 2351 NA, Leiderdorp","address":"Berkenkade 4","city":"Leiderdorp","operatorName":"Allego","maxPowerKw":0,"isMegawatt":false,"status":"AVAILABLE","source":"ndw"}},{"type":"Feature","geometry":{"type":"Point","coordinates":[4.521715,52.164817]},"properties":{"type":"charge","layer":"passenger","locationId":"3289504","name":"Laadnet Leiderdorp","address":"Touwbaan 1","city":"Leiderdorp","operatorName":"Laadnet","maxPowerKw":22,"isMegawatt":false,"status":"AVAILABLE","source":"ndw"}},{"type":"Feature","geometry":{"type":"Point","coordinates":[4.543366,52.160905]},"properties":{"type":"charge","layer":"passenger","locationId":"57d61a74-4f3c-11e8-bc42-42010a840002","name":"NLD, Klimopzoom 50, 2353 RK, Leiderdorp","address":"Klimopzoom 50","city":"Leiderdorp","operatorName":"Allego","maxPowerKw":0,"isMegawatt":false,"status":"AVAILABLE","source":"ndw"}},{"type":"Feature","geometry":{"type":"Point","coordinates":[4.521582,52.157978]},"properties":{"type":"charge","layer":"passenger","locationId":"b3b78aae-7999-11ec-853a-42010a840003","name":"NL, Dijkgravenlaan 10, 2352 RL Leiderdorp","address":"Dijkgravenlaan 10","city":"Leiderdorp","operatorName":"Allego","maxPowerKw":0,"isMegawatt":false,"status":"AVAILABLE","source":"ndw"}},{"type":"Feature","geometry":{"type":"Point","coordinates":[4.536377,52.163853]},"properties":{"type":"charge","layer":"passenger","locationId":"0181eaf0-6dd1-11e8-9fb2-42010a840002","name":"NLD, Leiderdorp, 2353 BX, Van Alphenplein 57","address":"Van Alphenplein 57","city":"Leiderdorp","operatorName":"Allego","maxPowerKw":0,"isMegawatt":false,"status":"AVAILABLE","source":"ndw"}},{"type":"Feature","geometry":{"type":"Point","coordinates":[4.519506,52.168834]},"properties":{"type":"charge","layer":"passenger","locationId":"7b853c8c-39b5-11eb-a857-42010a840003","name":"NL, Saranafort 43, 2352 DB Leiderdorp","address":"Saranafort 43","city":"Leiderdorp","operatorName":"Allego","maxPowerKw":0,"isMegawatt":false,"status":"AVAILABLE","source":"ndw"}},{"type":"Feature","geometry":{"type":"Point","coordinates":[4.530733,52.146226]},"properties":{"type":"charge","layer":"passenger","locationId":"7fd13852-bbea-11ea-a9ba-42010a840003","name":"NL, Emmastraat 6, 2351HB, Leiderdorp","address":"Emmastraat 6","city":"Leiderdorp","operatorName":"Allego","maxPowerKw":0,"isMegawatt":false,"status":"AVAILABLE","source":"ndw"}},{"type":"Feature","geometry":{"type":"Point","coordinates":[4.516279,52.160425]},"properties":{"type":"charge","layer":"passenger","locationId":"20c4fe5c-bd31-11e8-a834-42010a840002","name":"NLD, Van der Valk Boumanweg 230, 2352 JG Leiderdorp","address":"Van der Valk Boumanweg 230","city":"Leiderdorp","operatorName":"Allego","maxPowerKw":0,"isMegawatt":false,"status":"AVAILABLE","source":"ndw"}},{"type":"Feature","geometry":{"type":"Point","coordinates":[4.527743,52.146813]},"properties":{"type":"charge","layer":"passenger","locationId":"bfe97052-ebb2-11e9-af28-42010a840003","name":"NLD Frederik Hendriklaan 26, 2351 GC Leiderdorp","address":"Frederik Hendriklaan 26","city":"Leiderdorp","operatorName":"Allego","maxPowerKw":0,"isMegawatt":false,"status":"AVAILABLE","source":"ndw"}},{"type":"Feature","geometry":{"type":"Point","coordinates":[4.518713,52.165508]},"properties":{"type":"charge","layer":"passenger","locationId":"691ee4fb25e656db0a4e9788","name":"AREA071 (achter)","address":"Zijlbaan 44","city":"Leiderdorp","operatorName":"E-Flux by Road","maxPowerKw":6,"isMegawatt":false,"status":"AVAILABLE","source":"ndw","priceKwh":0.4}},{"type":"Feature","geometry":{"type":"Point","coordinates":[4.529761,52.147439]},"properties":{"type":"charge","layer":"passenger","locationId":"368ad24a-7089-11ea-9b2b-42010a840003","name":"NL, Beatrixstraat 10, 2351 GR, Leiderdorp","address":"Beatrixstraat 10","city":"Leiderdorp","operatorName":"Allego","maxPowerKw":0,"isMegawatt":false,"status":"AVAILABLE","source":"ndw"}},{"type":"Feature","geometry":{"type":"Point","coordinates":[4.520457,52.161316]},"properties":{"type":"charge","layer":"passenger","locationId":"84cb0b78-9a1e-11ea-8405-42010a840003","name":"NL, Van der Marckstraat, 19, 2352 RA, Leiderdorp","address":"Van der Marckstraat 19","city":"Leiderdorp","operatorName":"Allego","maxPowerKw":0,"isMegawatt":false,"status":"AVAILABLE","source":"ndw"}},{"type":"Feature","geometry":{"type":"Point","coordinates":[4.530456,52.167905]},"properties":{"type":"charge","layer":"passenger","locationId":"NLLOC006213","name":"NL, Ossenweide 1, 2353 MH, Leiderdorp","address":"Ossenweide 1","city":"Leiderdorp","operatorName":"Allego","maxPowerKw":0,"isMegawatt":false,"status":"AVAILABLE","source":"ndw","priceKwh":0.511}},{"type":"Feature","geometry":{"type":"Point","coordinates":[4.526249,52.163091]},"properties":{"type":"charge","layer":"passenger","locationId":"27ec6c12-e26c-11ea-86d8-42010a840033","name":"NL, Lijnbaan 28, 2352CK Leiderdorp","address":"Lijnbaan 28","city":"Leiderdorp","operatorName":"Allego","maxPowerKw":0,"isMegawatt":false,"status":"AVAILABLE","source":"ndw"}},{"type":"Feature","geometry":{"type":"Point","coordinates":[4.535014,52.161258]},"properties":{"type":"charge","layer":"passenger","locationId":"5bc4dc0e-f501-11e8-8f2c-42010a840002","name":"NLD, Karolusgulden 2 2353TA, Leiderdorp","address":"Karolusgulden 2","city":"Leiderdorp","operatorName":"Allego","maxPowerKw":0,"isMegawatt":false,"status":"AVAILABLE","source":"ndw"}},{"type":"Feature","geometry":{"type":"Point","coordinates":[4.53503,52.173534]},"properties":{"type":"charge","layer":"passenger","locationId":"ab1e0062-e0d9-11ea-ad5b-42010a840003","name":"NL,Jacoba van Beierenlaan 138, 2353 DW, Leiderdorp","address":"Jacoba van Beierenlaan 138","city":"Leiderdorp","operatorName":"Allego","maxPowerKw":0,"isMegawatt":false,"status":"AVAILABLE","source":"ndw"}},{"type":"Feature","geometry":{"type":"Point","coordinates":[4.527661,52.160293]},"properties":{"type":"charge","layer":"passenger","locationId":"NLLOC018924","name":"NL, Koolmeesstraat 1, 2352 HD Leiderdorp","address":"Koolmeesstraat 1","city":"Leiderdorp","operatorName":"Allego","maxPowerKw":0,"isMegawatt":false,"status":"AVAILABLE","source":"ndw","priceKwh":0.511}},{"type":"Feature","geometry":{"type":"Point","coordinates":[4.555325,52.162491]},"properties":{"type":"charge","layer":"passenger","locationId":"467","name":"Shell Recharge NL7081 - Shell Bospoort","address":"Rijksweg A4 nr. 2","city":"Leiderdorp","operatorName":"Shell Recharge","maxPowerKw":300,"isMegawatt":false,"status":"AVAILABLE","source":"ndw","priceKwh":0.7025}},{"type":"Feature","geometry":{"type":"Point","coordinates":[4.5362,52.15972]},"properties":{"type":"charge","layer":"passenger","locationId":"6aaa0f8e-4f3c-11e8-aadb-42010a840002","name":"NLD, Bolderikkamp 12, 2353 HM, Leiderdorp","address":"Bolderikkamp 12","city":"Leiderdorp","operatorName":"Allego","maxPowerKw":0,"isMegawatt":false,"status":"AVAILABLE","source":"ndw"}},{"type":"Feature","geometry":{"type":"Point","coordinates":[4.52738,52.150945]},"properties":{"type":"charge","layer":"passenger","locationId":"f1c59dbc-4f3c-11e8-b63b-42010a840002","name":"NLD, Hoogmadeseweg 39, 2351 CN, Leiderdorp","address":"Hoogmadeseweg 39","city":"Leiderdorp","operatorName":"Allego","maxPowerKw":0,"isMegawatt":false,"status":"CHARGING","source":"ndw"}},{"type":"Feature","geometry":{"type":"Point","coordinates":[4.526684,52.170298]},"properties":{"type":"charge","layer":"passenger","locationId":"2e137bb2-54d3-11e9-ba92-42010a840003","name":"NLD, Meerburglaan 31, 2353 VS, Leiderdorp","address":"Meerburglaan 31","city":"Leiderdorp","operatorName":"Allego","maxPowerKw":0,"isMegawatt":false,"status":"AVAILABLE","source":"ndw"}},{"type":"Feature","geometry":{"type":"Point","coordinates":[4.529653,52.161411]},"properties":{"type":"charge","layer":"passenger","locationId":"68860a02-dbed-11ee-9f57-42010aa400b8","name":"NLD Merelstraat 12m, 2352 VD Leiderdorp","address":"Merelstraat 12m","city":"Leiderdorp","operatorName":"Allego","maxPowerKw":0,"isMegawatt":false,"status":"AVAILABLE","source":"ndw"}},{"type":"Feature","geometry":{"type":"Point","coordinates":[4.536044,52.164711]},"properties":{"type":"charge","layer":"passenger","locationId":"90b1d40a-b27c-11ea-a74e-42010a840003","name":"NL, Van Alphenplein 16, 2353 BX Leiderdorp","address":"Van Alphenplein 16","city":"Leiderdorp","operatorName":"Allego","maxPowerKw":0,"isMegawatt":false,"status":"AVAILABLE","source":"ndw"}},{"type":"Feature","geometry":{"type":"Point","coordinates":[4.531355,52.144515]},"properties":{"type":"charge","layer":"passenger","locationId":"d5580104-921d-11e9-a2cb-42010a840003","name":"NLD, Bloemhofstraat 22, 2351 SK Leiderdorp","address":"Bloemhofstraat 22","city":"Leiderdorp","operatorName":"Allego","maxPowerKw":0,"isMegawatt":false,"status":"AVAILABLE","source":"ndw"}},{"type":"Feature","geometry":{"type":"Point","coordinates":[4.54039,52.17202]},"properties":{"type":"charge","layer":"passenger","locationId":"d57fc834-8953-11e8-9a81-42010a840002","name":"NLD, Leiderdorp, Jacoba van Beierenlaan 1, 2353 DS","address":"Jacoba van Beierenlaan 1","city":"Leiderdorp","operatorName":"Allego","maxPowerKw":0,"isMegawatt":false,"status":"AVAILABLE","source":"ndw"}},{"type":"Feature","geometry":{"type":"Point","coordinates":[4.520528,52.170521]},"properties":{"type":"charge","layer":"passenger","locationId":"f7951f98-82c8-11eb-baca-42010a840003","name":"NL, Zijlstroom 73, 2353 NN Leiderdorp","address":"Zijlstroom 73","city":"Leiderdorp","operatorName":"Allego","maxPowerKw":0,"isMegawatt":false,"status":"AVAILABLE","source":"ndw"}},{"type":"Feature","geometry":{"type":"Point","coordinates":[4.529354,52.169788]},"properties":{"type":"charge","layer":"passenger","locationId":"4a4df46a-2427-11e9-af1d-42010a840003","name":"NLD Dwarstocht 7, 2353 VM Leiderdorp","address":"Dwarstocht 7","city":"Leiderdorp","operatorName":"Allego","maxPowerKw":0,"isMegawatt":false,"status":"AVAILABLE","source":"ndw"}},{"type":"Feature","geometry":{"type":"Point","coordinates":[4.534633,52.172267]},"properties":{"type":"charge","layer":"passenger","locationId":"d58a35e4-8953-11e8-b690-42010a840002","name":"NLD, Poortwacht 1, 2353 EA, Leiderdorp","address":"Poortwacht 1","city":"Leiderdorp","operatorName":"Allego","maxPowerKw":0,"isMegawatt":false,"status":"AVAILABLE","source":"ndw"}},{"type":"Feature","geometry":{"type":"Point","coordinates":[4.539302,52.162097]},"properties":{"type":"charge","layer":"passenger","locationId":"569c8904-4f3c-11e8-bef7-42010a840002","name":"NLD, Leiderdorp, Lisdoddekreek 12","address":"Lisdoddekreek 12","city":"Leiderdorp","operatorName":"Allego","maxPowerKw":0,"isMegawatt":false,"status":"AVAILABLE","source":"ndw"}},{"type":"Feature","geometry":{"type":"Point","coordinates":[4.537263,52.166058]},"properties":{"type":"charge","layer":"passenger","locationId":"d1996ff2-e6fb-11e9-abd2-42010a840003","name":"NLD Van Effendreef 27 M, 2353 BM Leiderdorp","address":"Van Effendreef 27 M","city":"Leiderdorp","operatorName":"Allego","maxPowerKw":0,"isMegawatt":false,"status":"AVAILABLE","source":"ndw"}},{"type":"Feature","geometry":{"type":"Point","coordinates":[4.528203,52.149585]},"properties":{"type":"charge","layer":"passenger","locationId":"49ecc176-101e-11e9-b2b9-42010a840003","name":"NLD Van Geerstraat 1 2351 PL Leiderdorp","address":"Van Geerstraat 1","city":"Leiderdorp","operatorName":"Allego","maxPowerKw":0,"isMegawatt":false,"status":"AVAILABLE","source":"ndw"}},{"type":"Feature","geometry":{"type":"Point","coordinates":[4.524339,52.158543]},"properties":{"type":"charge","layer":"passenger","locationId":"8229d08a-e6dc-11e8-b1ec-42010a840002","name":"NLD Van Poelgeestlaan 59, 2352 TB Leiderdorp","address":"Van Poelgeestlaan 59","city":"Leiderdorp","operatorName":"Allego","maxPowerKw":0,"isMegawatt":false,"status":"AVAILABLE","source":"ndw"}},{"type":"Feature","geometry":{"type":"Point","coordinates":[4.527887,52.153094]},"properties":{"type":"charge","layer":"passenger","locationId":"c53d4b16-3f07-11ea-ba12-42010a840003","name":"NL, Kom van Aaiweg 2, 2351 NN, Leiderdorp","address":"Kom van Aaiweg 2","city":"Leiderdorp","operatorName":"Allego","maxPowerKw":0,"isMegawatt":false,"status":"AVAILABLE","source":"ndw"}},{"type":"Feature","geometry":{"type":"Point","coordinates":[4.52816,52.154874]},"properties":{"type":"charge","layer":"passenger","locationId":"40e42498-c1e5-11e8-933f-42010a840002","name":"NLD, Drakestein 2, 2352 JV Leiderdorp","address":"Drakestein 2","city":"Leiderdorp","operatorName":"Allego","maxPowerKw":0,"isMegawatt":false,"status":"AVAILABLE","source":"ndw"}},{"type":"Feature","geometry":{"type":"Point","coordinates":[4.539896,52.159244]},"properties":{"type":"charge","layer":"passenger","locationId":"deda3194-e3b7-11e8-8233-42010a840002","name":"NLD Dragontuin 43 2353 PP Leiderdorp","address":"Dragontuin 43","city":"Leiderdorp","operatorName":"Allego","maxPowerKw":0,"isMegawatt":false,"status":"AVAILABLE","source":"ndw"}},{"type":"Feature","geometry":{"type":"Point","coordinates":[4.554232,52.160037]},"properties":{"type":"charge","layer":"passenger","locationId":"32435","name":"Circle K Leiderdorp inz Aurora","address":"Rijksweg A4 Oostzijde nr 1","city":"Leiderdorp","operatorName":"Spirii","maxPowerKw":0,"isMegawatt":false,"status":"AVAILABLE","source":"ndw","priceKwh":0.65}},{"type":"Feature","geometry":{"type":"Point","coordinates":[4.532498,52.166084]},"properties":{"type":"charge","layer":"passenger","locationId":"e7989768-4be9-11e9-a2b5-42010a840003","name":"NL, Muzenlaan 80, 2353KG, Leiderdorp","address":"Muzenlaan 80","city":"Leiderdorp","operatorName":"Allego","maxPowerKw":0,"isMegawatt":false,"status":"AVAILABLE","source":"ndw"}},{"type":"Feature","geometry":{"type":"Point","coordinates":[4.539302,52.162097]},"properties":{"type":"charge","layer":"passenger","locationId":"NLLOC002165","name":"NLD, Leiderdorp, Lisdoddekreek 12","address":"Lisdoddekreek 12","city":"Leiderdorp","operatorName":"Allego","maxPowerKw":0,"isMegawatt":false,"status":"AVAILABLE","source":"ndw","priceKwh":0.511}},{"type":"Feature","geometry":{"type":"Point","coordinates":[4.5371,52.172801]},"properties":{"type":"charge","layer":"passenger","locationId":"3a7efede-c87d-11ea-8c6a-42010a840003","name":"NL, Jacoba van Beierenlaan 61, 2353 DS, Leiderdorp","address":"Jacoba van Beierenlaan 61","city":"Leiderdorp","operatorName":"Allego","maxPowerKw":0,"isMegawatt":false,"status":"AVAILABLE","source":"ndw"}},{"type":"Feature","geometry":{"type":"Point","coordinates":[4.524181,52.169798]},"properties":{"type":"charge","layer":"passenger","locationId":"e300485c-e7a5-11e8-8034-42010a840002","name":"NLD Klompenmaker 33, 2353 WE Leiderdorp","address":"Klompenmaker 33","city":"Leiderdorp","operatorName":"Allego","maxPowerKw":0,"isMegawatt":false,"status":"AVAILABLE","source":"ndw"}},{"type":"Feature","geometry":{"type":"Point","coordinates":[4.526252,52.156121]},"properties":{"type":"charge","layer":"passenger","locationId":"5b8cf766-101e-11e9-a50e-42010a840003","name":"NLD, Adegeest 2, 2352 XH Leiderdorp","address":"Adegeest 2","city":"Leiderdorp","operatorName":"Allego","maxPowerKw":0,"isMegawatt":false,"status":"AVAILABLE","source":"ndw"}},{"type":"Feature","geometry":{"type":"Point","coordinates":[4.54686,52.15794]},"properties":{"type":"charge","layer":"passenger","locationId":"8792CDB0-732B-4735-A3EE-F5B5C2CBD0F5","name":"Eneco eMobility Elisabethhof 32 Leiderdorp","address":"Elisabethhof 32","city":"Leiderdorp","operatorName":"Eneco","maxPowerKw":0,"isMegawatt":false,"status":"AVAILABLE","source":"ndw","priceKwh":0.32}},{"type":"Feature","geometry":{"type":"Point","coordinates":[4.523507,52.152302]},"properties":{"type":"charge","layer":"passenger","locationId":"NLLOC007555","name":"NL, Berkenkade 4, 2351 NA, Leiderdorp","address":"Berkenkade 4","city":"Leiderdorp","operatorName":"Allego","maxPowerKw":0,"isMegawatt":false,"status":"AVAILABLE","source":"ndw","priceKwh":0.511}},{"type":"Feature","geometry":{"type":"Point","coordinates":[4.536044,52.164711]},"properties":{"type":"charge","layer":"passenger","locationId":"NLLOC007543","name":"NL, Van Alphenplein 16, 2353 BX Leiderdorp","address":"Van Alphenplein 16","city":"Leiderdorp","operatorName":"Allego","maxPowerKw":0,"isMegawatt":false,"status":"AVAILABLE","source":"ndw","priceKwh":0.511}},{"type":"Feature","geometry":{"type":"Point","coordinates":[4.527887,52.153094]},"properties":{"type":"charge","layer":"passenger","locationId":"NLLOC007587","name":"NL, Kom van Aaiweg 2, 2351 NN, Leiderdorp","address":"Kom van Aaiweg 2","city":"Leiderdorp","operatorName":"Allego","maxPowerKw":0,"isMegawatt":false,"status":"AVAILABLE","source":"ndw","priceKwh":0.511}},{"type":"Feature","geometry":{"type":"Point","coordinates":[4.537211,52.171262]},"properties":{"type":"charge","layer":"passenger","locationId":"NLLOC002246","name":"Poortwacht 95, 2353 EB, Leiderdorp","address":"Poortwacht 95","city":"Leiderdorp","operatorName":"Allego","maxPowerKw":0,"isMegawatt":false,"status":"AVAILABLE","source":"ndw","priceKwh":0.511}},{"type":"Feature","geometry":{"type":"Point","coordinates":[4.531355,52.144515]},"properties":{"type":"charge","layer":"passenger","locationId":"NLLOC004272","name":"NLD, Bloemhofstraat 22, 2351 SK Leiderdorp","address":"Bloemhofstraat 22","city":"Leiderdorp","operatorName":"Allego","maxPowerKw":0,"isMegawatt":false,"status":"AVAILABLE","source":"ndw","priceKwh":0.511}},{"type":"Feature","geometry":{"type":"Point","coordinates":[4.527298,52.158292]},"properties":{"type":"charge","layer":"passenger","locationId":"67a4c92fdba4bec52c46d154","name":"LLM Leiderdorp van Diepingenlaan","address":"van Diepingenlaan 48","city":"Leiderdorp","operatorName":"Heijmans","maxPowerKw":11,"isMegawatt":false,"status":"AVAILABLE","source":"ndw","priceKwh":0.5424}},{"type":"Feature","geometry":{"type":"Point","coordinates":[4.546476,52.159237]},"properties":{"type":"charge","layer":"passenger","locationId":"9024d9de-fb0e-11f0-8ef9-42010aa400b8","name":"EQUANS IBS Vastgoed","address":"Elisabethhof 19","city":"Leiderdorp","operatorName":"EQUANS","maxPowerKw":0,"isMegawatt":false,"status":"AVAILABLE","source":"ndw","priceKwh":0.6}},{"type":"Feature","geometry":{"type":"Point","coordinates":[4.532498,52.166084]},"properties":{"type":"charge","layer":"passenger","locationId":"NLLOC003582","name":"NL, Muzenlaan 80, 2353KG, Leiderdorp","address":"Muzenlaan 80","city":"Leiderdorp","operatorName":"Allego","maxPowerKw":0,"isMegawatt":false,"status":"AVAILABLE","source":"ndw","priceKwh":0.511}},{"type":"Feature","geometry":{"type":"Point","coordinates":[4.516279,52.160425]},"properties":{"type":"charge","layer":"passenger","locationId":"NLLOC002744","name":"NLD, Van der Valk Boumanweg 230, 2352 JG Leiderdorp","address":"Van der Valk Boumanweg 230","city":"Leiderdorp","operatorName":"Allego","maxPowerKw":0,"isMegawatt":false,"status":"AVAILABLE","source":"ndw","priceKwh":0.511}},{"type":"Feature","geometry":{"type":"Point","coordinates":[4.526252,52.156121]},"properties":{"type":"charge","layer":"passenger","locationId":"NLLOC003155","name":"NLD, Adegeest 2, 2352 XH Leiderdorp","address":"Adegeest 2","city":"Leiderdorp","operatorName":"Allego","maxPowerKw":0,"isMegawatt":false,"status":"AVAILABLE","source":"ndw","priceKwh":0.511}},{"type":"Feature","geometry":{"type":"Point","coordinates":[4.521582,52.157978]},"properties":{"type":"charge","layer":"passenger","locationId":"NLLOC019795","name":"NL, Dijkgravenlaan 10, 2352 RL Leiderdorp","address":"Dijkgravenlaan 10","city":"Leiderdorp","operatorName":"Allego","maxPowerKw":0,"isMegawatt":false,"status":"AVAILABLE","source":"ndw","priceKwh":0.511}},{"type":"Feature","geometry":{"type":"Point","coordinates":[4.528203,52.149585]},"properties":{"type":"charge","layer":"passenger","locationId":"NLLOC003156","name":"NLD Van Geerstraat 1 2351 PL Leiderdorp","address":"Van Geerstraat 1","city":"Leiderdorp","operatorName":"Allego","maxPowerKw":0,"isMegawatt":false,"status":"AVAILABLE","source":"ndw","priceKwh":0.511}},{"type":"Feature","geometry":{"type":"Point","coordinates":[4.553635,52.159937]},"properties":{"type":"charge","layer":"passenger","locationId":"50471","name":"Fastned Aurora","address":"Aurora A4","city":"Leiderdorp","operatorName":"Fastned","maxPowerKw":150,"isMegawatt":false,"status":"UNAVAILABLE","source":"ndw","priceKwh":0.6364}},{"type":"Feature","geometry":{"type":"Point","coordinates":[4.549439,52.160863]},"properties":{"type":"charge","layer":"passenger","locationId":"NLLOC002753","name":"Allego - La Place Restaurant Leiderdorp A4","address":"Persant Snoepweg 2","city":"Leiderdorp","operatorName":"Allego","maxPowerKw":0,"isMegawatt":false,"status":"AVAILABLE","source":"ndw","priceKwh":0.655}},{"type":"Feature","geometry":{"type":"Point","coordinates":[4.536377,52.163853]},"properties":{"type":"charge","layer":"passenger","locationId":"NLLOC002493","name":"NLD, Leiderdorp, 2353 BX, Van Alphenplein 57","address":"Van Alphenplein 57","city":"Leiderdorp","operatorName":"Allego","maxPowerKw":0,"isMegawatt":false,"status":"AVAILABLE","source":"ndw","priceKwh":0.511}},{"type":"Feature","geometry":{"type":"Point","coordinates":[4.54039,52.17202]},"properties":{"type":"charge","layer":"passenger","locationId":"NLLOC002535","name":"NLD, Leiderdorp, Jacoba van Beierenlaan 1, 2353 DS","address":"Jacoba van Beierenlaan 1","city":"Leiderdorp","operatorName":"Allego","maxPowerKw":0,"isMegawatt":false,"status":"CHARGING","source":"ndw","priceKwh":0.511}},{"type":"Feature","geometry":{"type":"Point","coordinates":[4.529761,52.147439]},"properties":{"type":"charge","layer":"passenger","locationId":"NLLOC006178","name":"NL, Beatrixstraat 10, 2351 GR, Leiderdorp","address":"Beatrixstraat 10","city":"Leiderdorp","operatorName":"Allego","maxPowerKw":0,"isMegawatt":false,"status":"AVAILABLE","source":"ndw","priceKwh":0.511}},{"type":"Feature","geometry":{"type":"Point","coordinates":[4.546476,52.159237]},"properties":{"type":"charge","layer":"passenger","locationId":"91288009","name":"EQUANS IBS Vastgoed","address":"Elisabethhof 19","city":"Leiderdorp","operatorName":"EQUANS","maxPowerKw":0,"isMegawatt":false,"status":"AVAILABLE","source":"ndw"}},{"type":"Feature","geometry":{"type":"Point","coordinates":[4.535014,52.161258]},"properties":{"type":"charge","layer":"passenger","locationId":"NLLOC008708","name":"NLD, Karolusgulden 2 2353TA, Leiderdorp","address":"Karolusgulden 2","city":"Leiderdorp","operatorName":"Allego","maxPowerKw":0,"isMegawatt":false,"status":"AVAILABLE","source":"ndw","priceKwh":0.511}},{"type":"Feature","geometry":{"type":"Point","coordinates":[4.526483,52.157454]},"properties":{"type":"charge","layer":"passenger","locationId":"NLLOC008197","name":"NL, Van Poelgeestlaan 37, 2352TA, Leiderdorp","address":"Van Poelgeestlaan 37","city":"Leiderdorp","operatorName":"Allego","maxPowerKw":0,"isMegawatt":false,"status":"AVAILABLE","source":"ndw","priceKwh":0.511}},{"type":"Feature","geometry":{"type":"Point","coordinates":[4.533451,52.145899]},"properties":{"type":"charge","layer":"passenger","locationId":"NLLOC002457","name":"NLD, Vegmolaan 14, 2351 RP, Leiderdorp","address":"Vegmolaan 14","city":"Leiderdorp","operatorName":"Allego","maxPowerKw":0,"isMegawatt":false,"status":"AVAILABLE","source":"ndw","priceKwh":0.511}},{"type":"Feature","geometry":{"type":"Point","coordinates":[4.527842,52.158337]},"properties":{"type":"charge","layer":"passenger","locationId":"NLLOC002980","name":"NLD Santhorst 119, 2352KC Leiderdorp","address":"Santhorst 119","city":"Leiderdorp","operatorName":"Allego","maxPowerKw":0,"isMegawatt":false,"status":"AVAILABLE","source":"ndw","priceKwh":0.511}},{"type":"Feature","geometry":{"type":"Point","coordinates":[4.53503,52.173534]},"properties":{"type":"charge","layer":"passenger","locationId":"NLLOC007969","name":"NL,Jacoba van Beierenlaan 138, 2353 DW, Leiderdorp","address":"Jacoba van Beierenlaan 138","city":"Leiderdorp","operatorName":"Allego","maxPowerKw":0,"isMegawatt":false,"status":"AVAILABLE","source":"ndw","priceKwh":0.511}},{"type":"Feature","geometry":{"type":"Point","coordinates":[4.520229,52.162776]},"properties":{"type":"charge","layer":"passenger","locationId":"68d14fb639af20e0c9d42c44","name":"HL Weversbaan 16a","address":"Weversbaan 16","city":"LEIDERDORP","operatorName":"E-Flux by Road","maxPowerKw":22,"isMegawatt":false,"status":"AVAILABLE","source":"ndw","priceKwh":0.73}},{"type":"Feature","geometry":{"type":"Point","coordinates":[4.528814,52.158698]},"properties":{"type":"charge","layer":"passenger","locationId":"64a6cf75ae2599001cd84aaa","name":"VvE Van Rijn A2","address":"Van Diepeningenlaan","city":"Leiderdorp","operatorName":"E-Flux by Road","maxPowerKw":22,"isMegawatt":false,"status":"AVAILABLE","source":"ndw","priceKwh":0.45}},{"type":"Feature","geometry":{"type":"Point","coordinates":[4.530733,52.146226]},"properties":{"type":"charge","layer":"passenger","locationId":"NLLOC007438","name":"NL, Emmastraat 6, 2351HB, Leiderdorp","address":"Emmastraat 6","city":"Leiderdorp","operatorName":"Allego","maxPowerKw":0,"isMegawatt":false,"status":"AVAILABLE","source":"ndw","priceKwh":0.511}},{"type":"Feature","geometry":{"type":"Point","coordinates":[4.534633,52.172267]},"properties":{"type":"charge","layer":"passenger","locationId":"NLLOC002461","name":"NLD, Poortwacht 1, 2353 EA, Leiderdorp","address":"Poortwacht 1","city":"Leiderdorp","operatorName":"Allego","maxPowerKw":0,"isMegawatt":false,"status":"CHARGING","source":"ndw","priceKwh":0.511}},{"type":"Feature","geometry":{"type":"Point","coordinates":[4.52816,52.154874]},"properties":{"type":"charge","layer":"passenger","locationId":"NLLOC002745","name":"NLD, Drakestein 2, 2352 JV Leiderdorp","address":"Drakestein 2","city":"Leiderdorp","operatorName":"Allego","maxPowerKw":0,"isMegawatt":false,"status":"AVAILABLE","source":"ndw","priceKwh":0.511}},{"type":"Feature","geometry":{"type":"Point","coordinates":[4.52738,52.150945]},"properties":{"type":"charge","layer":"passenger","locationId":"NLLOC002405","name":"NLD, Hoogmadeseweg 39, 2351 CN, Leiderdorp","address":"Hoogmadeseweg 39","city":"Leiderdorp","operatorName":"Allego","maxPowerKw":0,"isMegawatt":false,"status":"CHARGING","source":"ndw","priceKwh":0.511}},{"type":"Feature","geometry":{"type":"Point","coordinates":[4.532627,52.164069]},"properties":{"type":"charge","layer":"passenger","locationId":"NLLOC002131","name":"NLD, Leiderdorp, Dubloen 33","address":"Dubloen 33","city":"Leiderdorp","operatorName":"Allego","maxPowerKw":0,"isMegawatt":false,"status":"AVAILABLE","source":"ndw","priceKwh":0.511}},{"type":"Feature","geometry":{"type":"Point","coordinates":[4.523077,52.153172]},"properties":{"type":"charge","layer":"passenger","locationId":"NLLOC002164","name":"NLD, Leiderdorp, Bijdorp 13","address":"Bijdorp 13","city":"Leiderdorp","operatorName":"Allego","maxPowerKw":0,"isMegawatt":false,"status":"AVAILABLE","source":"ndw","priceKwh":0.511}},{"type":"Feature","geometry":{"type":"Point","coordinates":[4.5371,52.172801]},"properties":{"type":"charge","layer":"passenger","locationId":"NLLOC007373","name":"NL, Jacoba van Beierenlaan 61, 2353 DS, Leiderdorp","address":"Jacoba van Beierenlaan 61","city":"Leiderdorp","operatorName":"Allego","maxPowerKw":0,"isMegawatt":false,"status":"AVAILABLE","source":"ndw","priceKwh":0.511}},{"type":"Feature","geometry":{"type":"Point","coordinates":[4.543366,52.160905]},"properties":{"type":"charge","layer":"passenger","locationId":"NLLOC002180","name":"NLD, Klimopzoom 50, 2353 RK, Leiderdorp","address":"Klimopzoom 50","city":"Leiderdorp","operatorName":"Allego","maxPowerKw":0,"isMegawatt":false,"status":"AVAILABLE","source":"ndw","priceKwh":0.511}},{"type":"Feature","geometry":{"type":"Point","coordinates":[4.5362,52.15972]},"properties":{"type":"charge","layer":"passenger","locationId":"NLLOC002229","name":"NLD, Bolderikkamp 12, 2353 HM, Leiderdorp","address":"Bolderikkamp 12","city":"Leiderdorp","operatorName":"Allego","maxPowerKw":0,"isMegawatt":false,"status":"CHARGING","source":"ndw","priceKwh":0.511}},{"type":"Feature","geometry":{"type":"Point","coordinates":[4.526684,52.170298]},"properties":{"type":"charge","layer":"passenger","locationId":"NLLOC002247","name":"NLD, Meerburglaan 31, 2353 VS, Leiderdorp","address":"Meerburglaan 31","city":"Leiderdorp","operatorName":"Allego","maxPowerKw":0,"isMegawatt":false,"status":"AVAILABLE","source":"ndw","priceKwh":0.511}},{"type":"Feature","geometry":{"type":"Point","coordinates":[4.524339,52.158543]},"properties":{"type":"charge","layer":"passenger","locationId":"NLLOC002945","name":"NLD Van Poelgeestlaan 59, 2352 TB Leiderdorp","address":"Van Poelgeestlaan 59","city":"Leiderdorp","operatorName":"Allego","maxPowerKw":0,"isMegawatt":false,"status":"AVAILABLE","source":"ndw","priceKwh":0.511}},{"type":"Feature","geometry":{"type":"Point","coordinates":[4.524181,52.169798]},"properties":{"type":"charge","layer":"passenger","locationId":"NLLOC002959","name":"NLD Klompenmaker 33, 2353 WE Leiderdorp","address":"Klompenmaker 33","city":"Leiderdorp","operatorName":"Allego","maxPowerKw":0,"isMegawatt":false,"status":"AVAILABLE","source":"ndw","priceKwh":0.511}},{"type":"Feature","geometry":{"type":"Point","coordinates":[4.529868,52.164617]},"properties":{"type":"charge","layer":"passenger","locationId":"NLLOC004270","name":"NLD, Jaap ter Haarsingel 2, 2353 LV Leiderdorp","address":"Jaap ter Haarsingel 2","city":"Leiderdorp","operatorName":"Allego","maxPowerKw":0,"isMegawatt":false,"status":"AVAILABLE","source":"ndw","priceKwh":0.511}},{"type":"Feature","geometry":{"type":"Point","coordinates":[4.535704,52.146173]},"properties":{"type":"charge","layer":"passenger","locationId":"NLLOC004950","name":"NLD, Warmoesland 18, 2351 EX Leiderdorp","address":"Warmoesland 18","city":"Leiderdorp","operatorName":"Allego","maxPowerKw":0,"isMegawatt":false,"status":"AVAILABLE","source":"ndw","priceKwh":0.511}},{"type":"Feature","geometry":{"type":"Point","coordinates":[4.529653,52.161411]},"properties":{"type":"charge","layer":"passenger","locationId":"NLLOC004012","name":"NLD Merelstraat 12m, 2352 VD Leiderdorp","address":"Merelstraat 12m","city":"Leiderdorp","operatorName":"Allego","maxPowerKw":0,"isMegawatt":false,"status":"AVAILABLE","source":"ndw","priceKwh":0.511}},{"type":"Feature","geometry":{"type":"Point","coordinates":[4.519506,52.168834]},"properties":{"type":"charge","layer":"passenger","locationId":"NLLOC011674","name":"NL, Saranafort 43, 2352 DB Leiderdorp","address":"Saranafort 43","city":"Leiderdorp","operatorName":"Allego","maxPowerKw":0,"isMegawatt":false,"status":"AVAILABLE","source":"ndw","priceKwh":0.511}},{"type":"Feature","geometry":{"type":"Point","coordinates":[4.52516,52.161407]},"properties":{"type":"charge","layer":"passenger","locationId":"NLLOC004891","name":"NLD Scholeksterstraat 2, 2352 EE Leiderdorp","address":"Scholeksterstraat 2","city":"Leiderdorp","operatorName":"Allego","maxPowerKw":0,"isMegawatt":false,"status":"AVAILABLE","source":"ndw","priceKwh":0.511}},{"type":"Feature","geometry":{"type":"Point","coordinates":[4.538719,52.155254]},"properties":{"type":"charge","layer":"passenger","locationId":"NLLOC007197","name":"NLD, Hofje van Holtlant 15 2352 GE Leiderdorp","address":"Hofje van Holtlant 27","city":"Leiderdorp","operatorName":"Allego","maxPowerKw":0,"isMegawatt":false,"status":"AVAILABLE","source":"ndw","priceKwh":0.511}},{"type":"Feature","geometry":{"type":"MultiPolygon","coordinates":[[[[4.518368243562107,52.18211677753097],[4.5281773539456704,52.17985128488418],[4.5381532047628514,52.18008518715891],[4.538778678384519,52.18013056327586],[4.5390652929595605,52.17710119076483],[4.5400110679010295,52.17556914076025],[4.542329436208463,52.171954077071035],[4.550349501746459,52.163013506459464],[4.552757831101997,52.16310433689861],[4.555700532305413,52.16442592902886],[4.560591871064622,52.1667834319931],[4.562399383116201,52.16611929995553],[4.560489743694871,52.16413052570907],[4.562647697238182,52.16132919497292],[4.561633481584151,52.16081947549498],[4.57148053751291,52.1531093894134],[4.570489358971247,52.14342077003065],[4.566104716729313,52.13526431640452],[4.561380993222722,52.132230689458915],[4.560219798475944,52.13193316530174],[4.55073284471817,52.13838062058858],[4.544547870643157,52.140731533994824],[4.537268436782574,52.140957879609644],[4.5307959472092065,52.1418632896304],[4.52778355410767,52.143237483748855],[4.524666895510583,52.146337650823504],[4.524037525517154,52.14739829666847],[4.5239111236916045,52.14765527665453],[4.52223933807378,52.152155689125344],[4.522235338290834,52.152170031369565],[4.521691615344703,52.15386213062603],[4.520820480976158,52.156551480499715],[4.518856939295626,52.1582232299617],[4.514830960708138,52.16080270626406],[4.515039600821195,52.16340141234105],[4.516194193908552,52.16581775934735],[4.515517997206584,52.169512317921914],[4.515120827324001,52.17108690297298],[4.517168364133513,52.172674185017044],[4.5184930650615325,52.17425022038398],[4.517984141609794,52.1785349615271],[4.518368243562107,52.18211677753097]]]]},"properties":{"type":"boundary","gemeente":"Leiderdorp","code":"GM0547"}}]}