{"type":"FeatureCollection","metadata":{"gemeente":"Lochem","slug":"lochem","code":"GM0262","generated_at":"2026-06-07T19:22:09.578Z","total_passenger":116,"total_freight":0,"bounds":[6.156350549063079,52.09690787598545,6.494371727625032,52.24611248848339],"operators":["Allego","DAEN Mobility","E-Flux by Road","EQUANS","Eneco","Fleet Charge Services","Laadnet","Lanova Laadpalen","Lidl","Opcharge","Pluq","PowerGo","Vattenfall InCharge"]},"features":[{"type":"Feature","geometry":{"type":"Point","coordinates":[6.392512,52.149759]},"properties":{"type":"charge","layer":"passenger","locationId":"2786eeb88306246546de126334df3891","name":"Zutphenseweg 110a","address":"Zutphenseweg 110a","city":"Lochem","operatorName":"Vattenfall InCharge","maxPowerKw":11,"isMegawatt":false,"status":"AVAILABLE","source":"ndw"}},{"type":"Feature","geometry":{"type":"Point","coordinates":[6.233741,52.164047]},"properties":{"type":"charge","layer":"passenger","locationId":"0bd0e07f-aa60-4541-b971-3b03f58bbe02","name":"Kapperallee","address":"Kapperallee 2A","city":"Eefde","operatorName":"Vattenfall InCharge","maxPowerKw":11,"isMegawatt":false,"status":"AVAILABLE","source":"ndw"}},{"type":"Feature","geometry":{"type":"Point","coordinates":[6.416538,52.158701]},"properties":{"type":"charge","layer":"passenger","locationId":"42f10a6a-4d93-11e8-b1ac-42010a840002","name":"NLD Emmastraat 6, 7241 EJ, Lochem","address":"Emmastraat 6","city":"Lochem","operatorName":"Allego","maxPowerKw":0,"isMegawatt":false,"status":"AVAILABLE","source":"ndw"}},{"type":"Feature","geometry":{"type":"Point","coordinates":[6.201087,52.200558]},"properties":{"type":"charge","layer":"passenger","locationId":"d46a2fb4-d96b-4069-9fa1-ede9293243fe","name":"Nijverheidsstraat 1","address":"Nijverheidsstraat 1","city":"Gorssel","operatorName":"Vattenfall InCharge","maxPowerKw":11,"isMegawatt":false,"status":"AVAILABLE","source":"ndw"}},{"type":"Feature","geometry":{"type":"Point","coordinates":[6.1936,52.22588]},"properties":{"type":"charge","layer":"passenger","locationId":"63c23494-f8ff-11ee-9449-42010aa400b8","name":"Eneco eMobility Dusseldorp BMW - Epse","address":"Lochemseweg 2C","city":"Epse","operatorName":"Eneco","maxPowerKw":200,"isMegawatt":false,"status":"AVAILABLE","source":"ndw","priceKwh":0.32}},{"type":"Feature","geometry":{"type":"Point","coordinates":[6.395018,52.156593]},"properties":{"type":"charge","layer":"passenger","locationId":"dba610f3-ea20-467e-9ea2-9162fda05514","name":"Heggerank","address":"Heggerank 149","city":"Lochem","operatorName":"Vattenfall InCharge","maxPowerKw":11,"isMegawatt":false,"status":"AVAILABLE","source":"ndw"}},{"type":"Feature","geometry":{"type":"Point","coordinates":[6.414208,52.163202]},"properties":{"type":"charge","layer":"passenger","locationId":"4de1061e-6d21-431a-bf9c-ba87c89e8cae","name":"Lidl LOCHEM","address":"Julianaweg","city":"Lochem","operatorName":"Lidl","maxPowerKw":50,"isMegawatt":false,"status":"UNAVAILABLE","source":"ndw"}},{"type":"Feature","geometry":{"type":"Point","coordinates":[6.441592,52.165401]},"properties":{"type":"charge","layer":"passenger","locationId":"9b8b9b8c-0f9d-11ee-b975-42010aa40fc0","name":"Intratuin Lochem (PowerGo)","address":"Goorseweg 27","city":"Lochem","operatorName":"PowerGo","maxPowerKw":0,"isMegawatt":false,"status":"AVAILABLE","source":"ndw"}},{"type":"Feature","geometry":{"type":"Point","coordinates":[6.409179,52.15427]},"properties":{"type":"charge","layer":"passenger","locationId":"084fbe68-5c53-400d-8bf4-240459a2941c","name":"Tusseler","address":"Tusseler 48B","city":"Lochem","operatorName":"Vattenfall InCharge","maxPowerKw":11,"isMegawatt":false,"status":"AVAILABLE","source":"ndw"}},{"type":"Feature","geometry":{"type":"Point","coordinates":[6.400746,52.157244]},"properties":{"type":"charge","layer":"passenger","locationId":"NLLOC002143","name":"NLD, Lochem, Henri Dunantweg 73","address":"Henri Dunantweg 73","city":"Lochem","operatorName":"Allego","maxPowerKw":0,"isMegawatt":false,"status":"AVAILABLE","source":"ndw","priceKwh":0.511}},{"type":"Feature","geometry":{"type":"Point","coordinates":[6.301976,52.155004]},"properties":{"type":"charge","layer":"passenger","locationId":"55b24586-7c7c-4259-b647-48b27379b6fa","name":"Berkelweg","address":"Berkelweg 5","city":"Almen","operatorName":"Vattenfall InCharge","maxPowerKw":11,"isMegawatt":false,"status":"AVAILABLE","source":"ndw"}},{"type":"Feature","geometry":{"type":"Point","coordinates":[6.200005,52.226628]},"properties":{"type":"charge","layer":"passenger","locationId":"6f4568a0-bbb6-11ec-827b-42010a840003","name":"NL, Klumperkamp 35, 7214BA, Epse","address":"Klumperkamp 35","city":"Epse","operatorName":"Allego","maxPowerKw":0,"isMegawatt":false,"status":"AVAILABLE","source":"ndw"}},{"type":"Feature","geometry":{"type":"Point","coordinates":[6.404208,52.154201]},"properties":{"type":"charge","layer":"passenger","locationId":"c82d19ca-f2ec-11ea-b9f5-42010a840033","name":"NL, Prins Clauslaan, 87a , 7242GN, Lochem","address":"Prins Clauslaan 87 a","city":"Lochem","operatorName":"Allego","maxPowerKw":0,"isMegawatt":false,"status":"AVAILABLE","source":"ndw"}},{"type":"Feature","geometry":{"type":"Point","coordinates":[6.4415917,52.1654015]},"properties":{"type":"charge","layer":"passenger","locationId":"15098","name":"Intratuin Lochem (PowerGo)","address":"Goorseweg 27","city":"Lochem","operatorName":"PowerGo","maxPowerKw":0,"isMegawatt":false,"status":"AVAILABLE","source":"ndw"}},{"type":"Feature","geometry":{"type":"Point","coordinates":[6.36371,52.193868]},"properties":{"type":"charge","layer":"passenger","locationId":"67c71d38874256ba72d3594d","name":"De Korte's Woonsfeer","address":"Deventerweg 3","city":"Laren","operatorName":"E-Flux by Road","maxPowerKw":11,"isMegawatt":false,"status":"AVAILABLE","source":"ndw","priceKwh":0.53}},{"type":"Feature","geometry":{"type":"Point","coordinates":[6.1936,52.22588]},"properties":{"type":"charge","layer":"passenger","locationId":"31720445-93D8-4932-BE77-E17636E140A0","name":"Eneco eMobility Dusseldorp BMW - Epse","address":"Lochemseweg 2C","city":"Epse","operatorName":"Eneco","maxPowerKw":200,"isMegawatt":false,"status":"AVAILABLE","source":"ndw","priceKwh":0.6}},{"type":"Feature","geometry":{"type":"Point","coordinates":[6.36776,52.19434]},"properties":{"type":"charge","layer":"passenger","locationId":"e197d932-9567-11ea-a693-42010a840003","name":"De Bakkerij 12 7245AN Laren","address":"De Bakkerij 12","city":"Laren","operatorName":"Allego","maxPowerKw":0,"isMegawatt":false,"status":"AVAILABLE","source":"ndw"}},{"type":"Feature","geometry":{"type":"Point","coordinates":[6.414208,52.163202]},"properties":{"type":"charge","layer":"passenger","locationId":"853cab30-ffe6-11ed-9872-42010aa40fc0","name":"Lidl LOCHEM","address":"Julianaweg","city":"Lochem","operatorName":"Lidl","maxPowerKw":50,"isMegawatt":false,"status":"AVAILABLE","source":"ndw","priceKwh":0.45}},{"type":"Feature","geometry":{"type":"Point","coordinates":[6.207265,52.197242]},"properties":{"type":"charge","layer":"passenger","locationId":"1a5b835ed7fac6a2c3f7785bc0e98933","name":"Reuvekamp 25","address":"Reuvekamp 25","city":"Gorssel","operatorName":"Vattenfall InCharge","maxPowerKw":11,"isMegawatt":false,"status":"AVAILABLE","source":"ndw"}},{"type":"Feature","geometry":{"type":"Point","coordinates":[6.360927,52.195973]},"properties":{"type":"charge","layer":"passenger","locationId":"1eecc14f-5efd-46d0-9938-955aa8b453cc","name":"Het Schoneveld","address":"Het Schoneveld 103","city":"Laren","operatorName":"Vattenfall InCharge","maxPowerKw":11,"isMegawatt":false,"status":"AVAILABLE","source":"ndw"}},{"type":"Feature","geometry":{"type":"Point","coordinates":[6.347231,52.190714]},"properties":{"type":"charge","layer":"passenger","locationId":"6a1f0184ff50886443908e15","name":"Bjorn Klein Brinke 's station","address":"Lindenbergsdijk 5","city":"Laren","operatorName":"Lanova Laadpalen","maxPowerKw":11,"isMegawatt":false,"status":"AVAILABLE","source":"ndw","priceKwh":0.38}},{"type":"Feature","geometry":{"type":"Point","coordinates":[6.342707,52.171036]},"properties":{"type":"charge","layer":"passenger","locationId":"6614f02e2b3278001cf6d26d","name":"BuitenGewoon Laren - Laren","address":"Broersdijk 4","city":"Laren","operatorName":"Fleet Charge Services","maxPowerKw":11,"isMegawatt":false,"status":"AVAILABLE","source":"ndw","priceKwh":0.55}},{"type":"Feature","geometry":{"type":"Point","coordinates":[6.293327,52.20303]},"properties":{"type":"charge","layer":"passenger","locationId":"677295fd8f1567e2ef4be025","name":"Tim Polman 's station","address":"Reeverweg  30 c","city":"Harfsen","operatorName":"E-Flux by Road","maxPowerKw":22,"isMegawatt":false,"status":"AVAILABLE","source":"ndw","priceKwh":1.28}},{"type":"Feature","geometry":{"type":"Point","coordinates":[6.44894,52.14847]},"properties":{"type":"charge","layer":"passenger","locationId":"63c013aa0db94800129fe48a","name":"De Zwiepse Molen","address":"Zwiepseweg 165","city":"Lochem","operatorName":"E-Flux by Road","maxPowerKw":22,"isMegawatt":false,"status":"AVAILABLE","source":"ndw","priceKwh":0.78}},{"type":"Feature","geometry":{"type":"Point","coordinates":[6.441592,52.165401]},"properties":{"type":"charge","layer":"passenger","locationId":"9b8b9b8c-0f9d-11ee-b975-42010aa40fc0","name":"Intratuin Lochem (PowerGo)","address":"Goorseweg 27","city":"Lochem","operatorName":"PowerGo","maxPowerKw":0,"isMegawatt":false,"status":"AVAILABLE","source":"ndw"}},{"type":"Feature","geometry":{"type":"Point","coordinates":[6.41304,52.185597]},"properties":{"type":"charge","layer":"passenger","locationId":"31d09af29ef91a1cc3485a8647981923","name":"Het Veld 8","address":"Het Veld 8","city":"Laren","operatorName":"Vattenfall InCharge","maxPowerKw":11,"isMegawatt":false,"status":"UNAVAILABLE","source":"ndw"}},{"type":"Feature","geometry":{"type":"Point","coordinates":[6.4138,52.159094]},"properties":{"type":"charge","layer":"passenger","locationId":"75de75a4e6c54eb19462395b37e9edae","name":"De Gloep 2","address":"De Gloep 2","city":"Lochem","operatorName":"Vattenfall InCharge","maxPowerKw":11,"isMegawatt":false,"status":"AVAILABLE","source":"ndw"}},{"type":"Feature","geometry":{"type":"Point","coordinates":[6.43995,52.121983]},"properties":{"type":"charge","layer":"passenger","locationId":"e671c31d737689f7e8bf116f16bcfa96","name":"Eekvenne 34","address":"Eekvenne 34","city":"Barchem","operatorName":"Vattenfall InCharge","maxPowerKw":11,"isMegawatt":false,"status":"AVAILABLE","source":"ndw"}},{"type":"Feature","geometry":{"type":"Point","coordinates":[6.393689,52.154958]},"properties":{"type":"charge","layer":"passenger","locationId":"63bd859700f1f500120e212e","name":"Andergie Kantoor","address":"Witbol 9","city":"Lochem","operatorName":"E-Flux by Road","maxPowerKw":11,"isMegawatt":false,"status":"CHARGING","source":"ndw","priceKwh":0.48}},{"type":"Feature","geometry":{"type":"Point","coordinates":[6.202355,52.22628]},"properties":{"type":"charge","layer":"passenger","locationId":"f353a3ff-0dc3-4963-a1f1-ae4abe339455","name":"Smeenkskamp 3","address":"Smeenkskamp 3","city":"Epse","operatorName":"Vattenfall InCharge","maxPowerKw":11,"isMegawatt":false,"status":"AVAILABLE","source":"ndw"}},{"type":"Feature","geometry":{"type":"Point","coordinates":[6.366676,52.192715]},"properties":{"type":"charge","layer":"passenger","locationId":"6784ee6cb6ff1149c57e7bf4","name":"Bennie Peppelman 's station","address":"Verwoldseweg 1","city":"Laren (gld)","operatorName":"E-Flux by Road","maxPowerKw":10,"isMegawatt":false,"status":"AVAILABLE","source":"ndw","priceKwh":0.38}},{"type":"Feature","geometry":{"type":"Point","coordinates":[6.41149,52.150307]},"properties":{"type":"charge","layer":"passenger","locationId":"80242451","name":"EQUANS Fletcher Fletcher Hotel-Restaurant De Scheperskamp","address":"Paasberg 3","city":"Lochem","operatorName":"EQUANS","maxPowerKw":0,"isMegawatt":false,"status":"AVAILABLE","source":"ndw"}},{"type":"Feature","geometry":{"type":"Point","coordinates":[6.410513,52.162662]},"properties":{"type":"charge","layer":"passenger","locationId":"570b04e2-4f3c-11e8-9c3d-42010a840002","name":"NLD, Lochem, Tramstraat 21","address":"Tramstraat 21-A","city":"Lochem","operatorName":"Allego","maxPowerKw":0,"isMegawatt":false,"status":"AVAILABLE","source":"ndw"}},{"type":"Feature","geometry":{"type":"Point","coordinates":[6.203085,52.227567]},"properties":{"type":"charge","layer":"passenger","locationId":"a455366c-fb72-11e9-a65f-42010a840003","name":"NLD Het Diekman 31, 7214 CB, Epse","address":"Het Diekman 31","city":"Epse","operatorName":"Allego","maxPowerKw":0,"isMegawatt":false,"status":"AVAILABLE","source":"ndw"}},{"type":"Feature","geometry":{"type":"Point","coordinates":[6.20555,52.195853]},"properties":{"type":"charge","layer":"passenger","locationId":"de07cbcc-9a1e-11ea-9b7c-42010a840003","name":"NL, Grooterkamp 31, 7213HA, Lochem","address":"Grooterkamp 31","city":"Lochem","operatorName":"Allego","maxPowerKw":0,"isMegawatt":false,"status":"AVAILABLE","source":"ndw"}},{"type":"Feature","geometry":{"type":"Point","coordinates":[6.364539,52.194985]},"properties":{"type":"charge","layer":"passenger","locationId":"4326128","name":"Laadnet Thuis Notten","address":"Heuvelstraat 1","city":"Laren","operatorName":"Laadnet","maxPowerKw":4,"isMegawatt":false,"status":"CHARGING","source":"ndw"}},{"type":"Feature","geometry":{"type":"Point","coordinates":[6.204447,52.206765]},"properties":{"type":"charge","layer":"passenger","locationId":"ed3e2f26-d8a2-4717-a4ae-4812750020fe","name":"Ewoltstede 2","address":"Ewoltstede 2","city":"Gorssel","operatorName":"Vattenfall InCharge","maxPowerKw":11,"isMegawatt":false,"status":"UNAVAILABLE","source":"ndw"}},{"type":"Feature","geometry":{"type":"Point","coordinates":[6.400746,52.157244]},"properties":{"type":"charge","layer":"passenger","locationId":"b1610e82-4f3c-11e8-a4cd-42010a840002","name":"NLD, Lochem, Henri Dunantweg 73","address":"Henri Dunantweg 73","city":"Lochem","operatorName":"Allego","maxPowerKw":0,"isMegawatt":false,"status":"AVAILABLE","source":"ndw"}},{"type":"Feature","geometry":{"type":"Point","coordinates":[6.325205,52.16239]},"properties":{"type":"charge","layer":"passenger","locationId":"618a341b5aae67788afddd37","name":"Villapark Ehzerburg","address":"Ehzerallee  11","city":"Almen","operatorName":"E-Flux by Road","maxPowerKw":22,"isMegawatt":false,"status":"AVAILABLE","source":"ndw","priceKwh":0.63}},{"type":"Feature","geometry":{"type":"Point","coordinates":[6.199517,52.199856]},"properties":{"type":"charge","layer":"passenger","locationId":"85f934f4-4f3c-11e8-8043-42010a840002","name":"NLD, Gorssel, Hoofdstraat 45","address":"Hoofdstraat 45-B-211","city":"Gorssel","operatorName":"Allego","maxPowerKw":0,"isMegawatt":false,"status":"AVAILABLE","source":"ndw"}},{"type":"Feature","geometry":{"type":"Point","coordinates":[6.414413,52.150473]},"properties":{"type":"charge","layer":"passenger","locationId":"654c40b2-0820-11eb-9c36-42010a840033","name":"EQUANS Fletcher Fletcher Hotel-Restaurant Paasberg","address":"Paasberg 2","city":"Lochem","operatorName":"EQUANS","maxPowerKw":0,"isMegawatt":false,"status":"AVAILABLE","source":"ndw","priceKwh":0.4}},{"type":"Feature","geometry":{"type":"Point","coordinates":[6.445385,52.118239]},"properties":{"type":"charge","layer":"passenger","locationId":"bf7a2915449e4cc4983b6ee23f31b61a","name":"Barchem Gelders Groenland (achter de meterkast)","address":"Haytinksdijk 1 B","city":"Barchem","operatorName":"Opcharge","maxPowerKw":22,"isMegawatt":false,"status":"AVAILABLE","source":"ndw","priceKwh":0.43}},{"type":"Feature","geometry":{"type":"Point","coordinates":[6.227767,52.207191]},"properties":{"type":"charge","layer":"passenger","locationId":"624ed65b6d368c2a8cfd3bcf","name":"Het Bosrestaurant Joppe","address":"Joppelaan 100","city":"Joppe","operatorName":"E-Flux by Road","maxPowerKw":22,"isMegawatt":false,"status":"AVAILABLE","source":"ndw","priceKwh":0.78}},{"type":"Feature","geometry":{"type":"Point","coordinates":[6.409342,52.15109]},"properties":{"type":"charge","layer":"passenger","locationId":"2700103","name":"Laadnet Stichting Pro Senectute - M. Dikkeboer","address":"Tusseler 115","city":"Lochem","operatorName":"Laadnet","maxPowerKw":22,"isMegawatt":false,"status":"AVAILABLE","source":"ndw"}},{"type":"Feature","geometry":{"type":"Point","coordinates":[6.41149,52.150307]},"properties":{"type":"charge","layer":"passenger","locationId":"655831ba-0820-11eb-8289-42010a840033","name":"EQUANS Fletcher Fletcher Hotel-Restaurant De Scheperskamp","address":"Paasberg 3","city":"Lochem","operatorName":"EQUANS","maxPowerKw":0,"isMegawatt":false,"status":"AVAILABLE","source":"ndw","priceKwh":0.4}},{"type":"Feature","geometry":{"type":"Point","coordinates":[6.388377,52.145385]},"properties":{"type":"charge","layer":"passenger","locationId":"1806687","name":"Laadnet Vakantiehuis vlinder","address":"Vordenseweg 6104","city":"Lochem","operatorName":"Laadnet","maxPowerKw":22,"isMegawatt":false,"status":"AVAILABLE","source":"ndw"}},{"type":"Feature","geometry":{"type":"Point","coordinates":[6.423188,52.138814]},"properties":{"type":"charge","layer":"passenger","locationId":"ee96aa3a-7b3c-11eb-993d-42010a840057","name":"EQUANS Fletcher Fletcher Barchem","address":"Lochemseweg 37","city":"Barchem","operatorName":"EQUANS","maxPowerKw":0,"isMegawatt":false,"status":"AVAILABLE","source":"ndw","priceKwh":0.4}},{"type":"Feature","geometry":{"type":"Point","coordinates":[6.205314,52.172292]},"properties":{"type":"charge","layer":"passenger","locationId":"68beaee38bb795fd61c1fca7","name":"Pluryn Eefde Kruisgebouw","address":"Mettrayweg 25","city":"Eefde","operatorName":"Pluq","maxPowerKw":19,"isMegawatt":false,"status":"AVAILABLE","source":"ndw","priceKwh":0.4}},{"type":"Feature","geometry":{"type":"Point","coordinates":[6.236232,52.164202]},"properties":{"type":"charge","layer":"passenger","locationId":"cdfe9ce9-d458-434e-909a-2140ce01d39e","name":"Intendanceweg","address":"Intendanceweg 1","city":"Eefde","operatorName":"Vattenfall InCharge","maxPowerKw":11,"isMegawatt":false,"status":"AVAILABLE","source":"ndw"}},{"type":"Feature","geometry":{"type":"Point","coordinates":[6.205314,52.172292]},"properties":{"type":"charge","layer":"passenger","locationId":"68beaf1df05a7ec4cbf4bda8","name":"Pluryn Eefde Hoofdgebouw","address":"Mettrayweg 25","city":"Eefde","operatorName":"Pluq","maxPowerKw":11,"isMegawatt":false,"status":"AVAILABLE","source":"ndw","priceKwh":0.4}},{"type":"Feature","geometry":{"type":"Point","coordinates":[6.295162,52.207085]},"properties":{"type":"charge","layer":"passenger","locationId":"ff310e22b1f4b55293e641c54c1dccc1","name":"Hulstweg 6","address":"Hulstweg 6","city":"Harfsen","operatorName":"Vattenfall InCharge","maxPowerKw":11,"isMegawatt":false,"status":"AVAILABLE","source":"ndw"}},{"type":"Feature","geometry":{"type":"Point","coordinates":[6.36685,52.20488]},"properties":{"type":"charge","layer":"passenger","locationId":"2952f85c706141cb4aff8c2109aa07ba","name":"Holterweg 45","address":"Holterweg 45","city":"Laren","operatorName":"Vattenfall InCharge","maxPowerKw":11,"isMegawatt":false,"status":"AVAILABLE","source":"ndw"}},{"type":"Feature","geometry":{"type":"Point","coordinates":[6.381989,52.146889]},"properties":{"type":"charge","layer":"passenger","locationId":"66d00e9b994c96001c3c80c8","name":"VV Klein Dochteren","address":"Zutphenseweg 101","city":"Lochem","operatorName":"Pluq","maxPowerKw":22,"isMegawatt":false,"status":"AVAILABLE","source":"ndw","priceKwh":0.4}},{"type":"Feature","geometry":{"type":"Point","coordinates":[6.327401,52.162151]},"properties":{"type":"charge","layer":"passenger","locationId":"61c9c2899c73011f886a5e18","name":"Landgoed Ehzerwold","address":"Ehzerallee 14","city":"Almen","operatorName":"E-Flux by Road","maxPowerKw":22,"isMegawatt":false,"status":"UNAVAILABLE","source":"ndw","priceKwh":0.63}},{"type":"Feature","geometry":{"type":"Point","coordinates":[6.398278,52.228941]},"properties":{"type":"charge","layer":"passenger","locationId":"67a377144a4c608f1491265a","name":"Beleefboerderij De kleine Carrousel","address":"Koebushorst 7","city":"Laren","operatorName":"Pluq","maxPowerKw":17,"isMegawatt":false,"status":"AVAILABLE","source":"ndw","priceKwh":0.38}},{"type":"Feature","geometry":{"type":"Point","coordinates":[6.442518,52.126627]},"properties":{"type":"charge","layer":"passenger","locationId":"ac4131a1-876b-4525-b2f1-fb463c9ab7bc","name":"Heidehof","address":"Heidehof 2","city":"Barchem","operatorName":"Vattenfall InCharge","maxPowerKw":11,"isMegawatt":false,"status":"AVAILABLE","source":"ndw"}},{"type":"Feature","geometry":{"type":"Point","coordinates":[6.489304,52.166147]},"properties":{"type":"charge","layer":"passenger","locationId":"66debf2a294dae001c4a0af9","name":"De Waltakke","address":"Bolksbeekweg 7","city":"Lochem","operatorName":"Pluq","maxPowerKw":11,"isMegawatt":false,"status":"AVAILABLE","source":"ndw","priceKwh":0.4}},{"type":"Feature","geometry":{"type":"Point","coordinates":[6.404208,52.154201]},"properties":{"type":"charge","layer":"passenger","locationId":"NLLOC008261","name":"NL, Prins Clauslaan, 87a , 7242GN, Lochem","address":"Prins Clauslaan 87 a","city":"Lochem","operatorName":"Allego","maxPowerKw":0,"isMegawatt":false,"status":"AVAILABLE","source":"ndw","priceKwh":0.511}},{"type":"Feature","geometry":{"type":"Point","coordinates":[6.413837,52.160548]},"properties":{"type":"charge","layer":"passenger","locationId":"62a0a7327bcbc3261b3d0f7d","name":"LochemEnergie Laadpaal Zuiderwal t.h.v. nummer 13 (LZW)","address":"Zuiderwal 13","city":"Lochem","operatorName":"E-Flux by Road","maxPowerKw":11,"isMegawatt":false,"status":"AVAILABLE","source":"ndw","priceKwh":0.55}},{"type":"Feature","geometry":{"type":"Point","coordinates":[6.234125,52.165079]},"properties":{"type":"charge","layer":"passenger","locationId":"9c3484f8-ae35-4db4-995b-30fe924cb5e5","name":"Stormbaan","address":"Stormbaan 11","city":"Eefde","operatorName":"Vattenfall InCharge","maxPowerKw":11,"isMegawatt":false,"status":"AVAILABLE","source":"ndw"}},{"type":"Feature","geometry":{"type":"Point","coordinates":[6.403277,52.155678]},"properties":{"type":"charge","layer":"passenger","locationId":"2fb7abfee45eb32bfc036c1b65b26bb4","name":"Prins Constantijnlaan 11","address":"Prins Constantijnlaan 11","city":"Lochem","operatorName":"Vattenfall InCharge","maxPowerKw":11,"isMegawatt":false,"status":"AVAILABLE","source":"ndw"}},{"type":"Feature","geometry":{"type":"Point","coordinates":[6.416538,52.158701]},"properties":{"type":"charge","layer":"passenger","locationId":"NLLOC005906","name":"NLD Emmastraat 6, 7241 EJ, Lochem","address":"Emmastraat 6","city":"Lochem","operatorName":"Allego","maxPowerKw":0,"isMegawatt":false,"status":"AVAILABLE","source":"ndw","priceKwh":0.511}},{"type":"Feature","geometry":{"type":"Point","coordinates":[6.204351,52.208151]},"properties":{"type":"charge","layer":"passenger","locationId":"6ef94da064ac709a8700c482123d692e","name":"Dikkerskamp 12","address":"Dikkerskamp 12","city":"Gorssel","operatorName":"Vattenfall InCharge","maxPowerKw":11,"isMegawatt":false,"status":"AVAILABLE","source":"ndw"}},{"type":"Feature","geometry":{"type":"Point","coordinates":[6.442217,52.124266]},"properties":{"type":"charge","layer":"passenger","locationId":"36bdb192b413e748c7702a7ad8c02c14","name":"Kerklaan 3t","address":"Kerklaan 3t","city":"Barchem","operatorName":"Vattenfall InCharge","maxPowerKw":11,"isMegawatt":false,"status":"AVAILABLE","source":"ndw"}},{"type":"Feature","geometry":{"type":"Point","coordinates":[6.207624,52.188503]},"properties":{"type":"charge","layer":"passenger","locationId":"923370","name":"PBLR-0012177","address":"Zutphenseweg 16","city":"Gorssel","operatorName":"DAEN Mobility","maxPowerKw":11,"isMegawatt":false,"status":"AVAILABLE","source":"ndw","priceKwh":0.3025}},{"type":"Feature","geometry":{"type":"Point","coordinates":[6.23464,52.170111]},"properties":{"type":"charge","layer":"passenger","locationId":"fb123406-481a-4294-97be-5298d0fa9c4d","name":"Bargeweg 5","address":"Bargeweg 5","city":"Eefde","operatorName":"Vattenfall InCharge","maxPowerKw":11,"isMegawatt":false,"status":"AVAILABLE","source":"ndw"}},{"type":"Feature","geometry":{"type":"Point","coordinates":[6.29793,52.20618]},"properties":{"type":"charge","layer":"passenger","locationId":"2286b6f5cd61a338177641906e4a487b","name":"Sporkehout 8","address":"Sporkehout 8","city":"Harfsen","operatorName":"Vattenfall InCharge","maxPowerKw":11,"isMegawatt":false,"status":"AVAILABLE","source":"ndw"}},{"type":"Feature","geometry":{"type":"Point","coordinates":[6.36776,52.19434]},"properties":{"type":"charge","layer":"passenger","locationId":"NLLOC009315","name":"De Bakkerij 12 7245AN Laren","address":"De Bakkerij 12","city":"Laren","operatorName":"Allego","maxPowerKw":0,"isMegawatt":false,"status":"AVAILABLE","source":"ndw","priceKwh":0.511}},{"type":"Feature","geometry":{"type":"Point","coordinates":[6.29018,52.151822]},"properties":{"type":"charge","layer":"passenger","locationId":"62601ae469fca51c4de7947e","name":"Domein Groot Besselink","address":"Lage Lochemseweg 31C","city":"Almen","operatorName":"E-Flux by Road","maxPowerKw":11,"isMegawatt":false,"status":"AVAILABLE","source":"ndw","priceKwh":0.41}},{"type":"Feature","geometry":{"type":"Point","coordinates":[6.406096,52.155701]},"properties":{"type":"charge","layer":"passenger","locationId":"bec635e6ca5a1305a85a434dc8c35952","name":"Prins Willem Alexanderlaan 44","address":"Prins Willem Alexanderlaan 44","city":"Lochem","operatorName":"Vattenfall InCharge","maxPowerKw":11,"isMegawatt":false,"status":"AVAILABLE","source":"ndw"}},{"type":"Feature","geometry":{"type":"Point","coordinates":[6.2046,52.204395]},"properties":{"type":"charge","layer":"passenger","locationId":"45c509b78aca9744d36118a763b3e465","name":"Vinkenstraat 1","address":"Vinkenstraat 1","city":"Gorssel","operatorName":"Vattenfall InCharge","maxPowerKw":11,"isMegawatt":false,"status":"AVAILABLE","source":"ndw"}},{"type":"Feature","geometry":{"type":"Point","coordinates":[6.416305,52.165202]},"properties":{"type":"charge","layer":"passenger","locationId":"dcf5d4ec508a6f95bb678ceb368fcd6e","name":"Hanzeweg 8","address":"Hanzeweg 8","city":"Lochem","operatorName":"Vattenfall InCharge","maxPowerKw":11,"isMegawatt":false,"status":"AVAILABLE","source":"ndw"}},{"type":"Feature","geometry":{"type":"Point","coordinates":[6.418777,52.160269]},"properties":{"type":"charge","layer":"passenger","locationId":"b157b8a70d8a7391b60820c0accc2bed","name":"Pillinkstraat 62","address":"Pillinkstraat 62","city":"Lochem","operatorName":"Vattenfall InCharge","maxPowerKw":11,"isMegawatt":false,"status":"AVAILABLE","source":"ndw"}},{"type":"Feature","geometry":{"type":"Point","coordinates":[6.423188,52.138814]},"properties":{"type":"charge","layer":"passenger","locationId":"91331405","name":"EQUANS Fletcher Fletcher Barchem","address":"Lochemseweg 37","city":"Barchem","operatorName":"EQUANS","maxPowerKw":0,"isMegawatt":false,"status":"AVAILABLE","source":"ndw"}},{"type":"Feature","geometry":{"type":"Point","coordinates":[6.207446,52.2002]},"properties":{"type":"charge","layer":"passenger","locationId":"ad150a0cf31d403b3650c6d5cbf308eb","name":"Veldhofstraat 34E","address":"Veldhofstraat 34E","city":"Gorssel","operatorName":"Vattenfall InCharge","maxPowerKw":11,"isMegawatt":false,"status":"AVAILABLE","source":"ndw"}},{"type":"Feature","geometry":{"type":"Point","coordinates":[6.36328,52.19626]},"properties":{"type":"charge","layer":"passenger","locationId":"7643d8233d680ef2305f5986eed616d0","name":"Het Schoneveld 7","address":"Het Schoneveld 7","city":"Laren","operatorName":"Vattenfall InCharge","maxPowerKw":11,"isMegawatt":false,"status":"AVAILABLE","source":"ndw"}},{"type":"Feature","geometry":{"type":"Point","coordinates":[6.406065,52.16384]},"properties":{"type":"charge","layer":"passenger","locationId":"4c5399930b958a122e7628bf8aff2ae8","name":"Larenseweg 28","address":"Larenseweg 28","city":"Lochem","operatorName":"Vattenfall InCharge","maxPowerKw":11,"isMegawatt":false,"status":"AVAILABLE","source":"ndw"}},{"type":"Feature","geometry":{"type":"Point","coordinates":[6.414413,52.150473]},"properties":{"type":"charge","layer":"passenger","locationId":"80242450","name":"EQUANS Fletcher Fletcher Hotel-Restaurant Paasberg","address":"Paasberg 2","city":"Lochem","operatorName":"EQUANS","maxPowerKw":0,"isMegawatt":false,"status":"AVAILABLE","source":"ndw"}},{"type":"Feature","geometry":{"type":"Point","coordinates":[6.226736,52.172523]},"properties":{"type":"charge","layer":"passenger","locationId":"a7b845c6d6c9fd73023d57a9d74f99b8","name":"Jolinkweg 9","address":"Jolinkweg 9","city":"Eefde","operatorName":"Vattenfall InCharge","maxPowerKw":11,"isMegawatt":false,"status":"AVAILABLE","source":"ndw"}},{"type":"Feature","geometry":{"type":"Point","coordinates":[6.393126,52.149683]},"properties":{"type":"charge","layer":"passenger","locationId":"1a34185e-76d0-4ae1-a303-66175685a0d7","name":"Zutphenseweg 106","address":"Zutphenseweg 106","city":"Lochem","operatorName":"Vattenfall InCharge","maxPowerKw":11,"isMegawatt":false,"status":"AVAILABLE","source":"ndw"}},{"type":"Feature","geometry":{"type":"Point","coordinates":[6.22259,52.17192]},"properties":{"type":"charge","layer":"passenger","locationId":"eb0297119063fff1371c9782350bd9fb","name":"Julianalaan 27","address":"Julianalaan 27","city":"Eefde","operatorName":"Vattenfall InCharge","maxPowerKw":11,"isMegawatt":false,"status":"AVAILABLE","source":"ndw"}},{"type":"Feature","geometry":{"type":"Point","coordinates":[6.442575,52.121772]},"properties":{"type":"charge","layer":"passenger","locationId":"91180fbf-1188-48bf-b063-9c4484e704d0","name":"Barchvenne","address":"Barchvenne 6","city":"Barchem","operatorName":"Vattenfall InCharge","maxPowerKw":11,"isMegawatt":false,"status":"AVAILABLE","source":"ndw"}},{"type":"Feature","geometry":{"type":"Point","coordinates":[6.363208,52.19235]},"properties":{"type":"charge","layer":"passenger","locationId":"4bb5ecd6-d051-4532-aec6-fcbd690255fd","name":"Westermark","address":"Westermark 7","city":"Laren","operatorName":"Vattenfall InCharge","maxPowerKw":11,"isMegawatt":false,"status":"CHARGING","source":"ndw"}},{"type":"Feature","geometry":{"type":"Point","coordinates":[6.20176,52.2205]},"properties":{"type":"charge","layer":"passenger","locationId":"32306a72-64d6-4cfd-b136-2520f2c1d0a3","name":"Hassinklaan","address":"Hassinklaan 3","city":"Epse","operatorName":"Vattenfall InCharge","maxPowerKw":11,"isMegawatt":false,"status":"AVAILABLE","source":"ndw"}},{"type":"Feature","geometry":{"type":"Point","coordinates":[6.400441,52.160065]},"properties":{"type":"charge","layer":"passenger","locationId":"980f7c3c-5b32-4553-bea1-f3d96dc6f003","name":"Standaardmolenerf","address":"Standaardmolenerf 1","city":"Lochem","operatorName":"Vattenfall InCharge","maxPowerKw":11,"isMegawatt":false,"status":"AVAILABLE","source":"ndw"}},{"type":"Feature","geometry":{"type":"Point","coordinates":[6.404794,52.160846]},"properties":{"type":"charge","layer":"passenger","locationId":"1a7f9e273d49cde6b86519d0a4a3cdbe","name":"Dillenburg 138","address":"Dillenburg 138","city":"Lochem","operatorName":"Vattenfall InCharge","maxPowerKw":11,"isMegawatt":false,"status":"AVAILABLE","source":"ndw"}},{"type":"Feature","geometry":{"type":"Point","coordinates":[6.207395,52.196061]},"properties":{"type":"charge","layer":"passenger","locationId":"d3994410-f151-4790-a639-c13c8bfa7ea0","name":"Grooterkamp 24","address":"Grooterkamp 24","city":"Gorssel","operatorName":"Vattenfall InCharge","maxPowerKw":11,"isMegawatt":false,"status":"AVAILABLE","source":"ndw"}},{"type":"Feature","geometry":{"type":"Point","coordinates":[6.200005,52.226628]},"properties":{"type":"charge","layer":"passenger","locationId":"NLLOC016424","name":"NL, Klumperkamp 35, 7214BA, Epse","address":"Klumperkamp 35","city":"Epse","operatorName":"Allego","maxPowerKw":0,"isMegawatt":false,"status":"AVAILABLE","source":"ndw","priceKwh":0.511}},{"type":"Feature","geometry":{"type":"Point","coordinates":[6.411156,52.161813]},"properties":{"type":"charge","layer":"passenger","locationId":"cd2704776053e83cecf0d80d69943331","name":"Mauritsweg 10","address":"Mauritsweg 10","city":"Lochem","operatorName":"Vattenfall InCharge","maxPowerKw":11,"isMegawatt":false,"status":"AVAILABLE","source":"ndw"}},{"type":"Feature","geometry":{"type":"Point","coordinates":[6.226528,52.174056]},"properties":{"type":"charge","layer":"passenger","locationId":"2e2d4074-3ac3-420c-98c6-b4cffc26c2fe","name":"Korenbloemweg","address":"Korenbloemweg 1","city":"Eefde","operatorName":"Vattenfall InCharge","maxPowerKw":11,"isMegawatt":false,"status":"AVAILABLE","source":"ndw"}},{"type":"Feature","geometry":{"type":"Point","coordinates":[6.327557,52.162228]},"properties":{"type":"charge","layer":"passenger","locationId":"61c9bec67cf85c1c1b3e0139","name":"Landgoed Ehzerwold","address":"Ehzerallee 14","city":"Almen","operatorName":"E-Flux by Road","maxPowerKw":22,"isMegawatt":false,"status":"UNAVAILABLE","source":"ndw","priceKwh":0.63}},{"type":"Feature","geometry":{"type":"Point","coordinates":[6.410513,52.162662]},"properties":{"type":"charge","layer":"passenger","locationId":"NLLOC002144","name":"NLD, Lochem, Tramstraat 21","address":"Tramstraat 21-A","city":"Lochem","operatorName":"Allego","maxPowerKw":0,"isMegawatt":false,"status":"AVAILABLE","source":"ndw","priceKwh":0.511}},{"type":"Feature","geometry":{"type":"Point","coordinates":[6.454003,52.12127]},"properties":{"type":"charge","layer":"passenger","locationId":"edafac80bbb395452c5c218b9c3576c7","name":"Maandagsdijk 1B","address":"Maandagsdijk 1B","city":"Barchem","operatorName":"Vattenfall InCharge","maxPowerKw":11,"isMegawatt":false,"status":"AVAILABLE","source":"ndw"}},{"type":"Feature","geometry":{"type":"Point","coordinates":[6.407032,52.156246]},"properties":{"type":"charge","layer":"passenger","locationId":"f23de1b7b538d7cd733cf42d178d9874","name":"Oranjelaan 17","address":"Oranjelaan 17","city":"Lochem","operatorName":"Vattenfall InCharge","maxPowerKw":11,"isMegawatt":false,"status":"AVAILABLE","source":"ndw"}},{"type":"Feature","geometry":{"type":"Point","coordinates":[6.198765,52.227882]},"properties":{"type":"charge","layer":"passenger","locationId":"91a12242-56b0-4b3b-8253-180c6bf5eab5","name":"Houtsingel","address":"Houtsingel 26","city":"Epse","operatorName":"Vattenfall InCharge","maxPowerKw":11,"isMegawatt":false,"status":"AVAILABLE","source":"ndw"}},{"type":"Feature","geometry":{"type":"Point","coordinates":[6.415386,52.156793]},"properties":{"type":"charge","layer":"passenger","locationId":"de78a9246a913c414fbea4b7c758d252","name":"Barchemseweg 22","address":"Barchemseweg 22","city":"Lochem","operatorName":"Vattenfall InCharge","maxPowerKw":11,"isMegawatt":false,"status":"AVAILABLE","source":"ndw"}},{"type":"Feature","geometry":{"type":"Point","coordinates":[6.39191,52.15882]},"properties":{"type":"charge","layer":"passenger","locationId":"96901732403d81f257030e211c8b13fd","name":"De Elzelaan 1","address":"De Elzelaan 1","city":"Lochem","operatorName":"Vattenfall InCharge","maxPowerKw":11,"isMegawatt":false,"status":"AVAILABLE","source":"ndw"}},{"type":"Feature","geometry":{"type":"Point","coordinates":[6.198905,52.224592]},"properties":{"type":"charge","layer":"passenger","locationId":"af3c2f4b-08c3-4e9f-81e8-fad93822eec6","name":"Epserenk","address":"Epserenk 36","city":"Epse","operatorName":"Vattenfall InCharge","maxPowerKw":11,"isMegawatt":false,"status":"AVAILABLE","source":"ndw"}},{"type":"Feature","geometry":{"type":"Point","coordinates":[6.399108,52.162774]},"properties":{"type":"charge","layer":"passenger","locationId":"11bfa2ac2f7fa50caaa0e826ee64d56b","name":"Rosmolenstraat 50","address":"Rosmolenstraat 50","city":"Lochem","operatorName":"Vattenfall InCharge","maxPowerKw":11,"isMegawatt":false,"status":"AVAILABLE","source":"ndw"}},{"type":"Feature","geometry":{"type":"Point","coordinates":[6.20555,52.195853]},"properties":{"type":"charge","layer":"passenger","locationId":"NLLOC008681","name":"NL, Grooterkamp 31, 7213HA, Lochem","address":"Grooterkamp 31","city":"Lochem","operatorName":"Allego","maxPowerKw":0,"isMegawatt":false,"status":"AVAILABLE","source":"ndw","priceKwh":0.511}},{"type":"Feature","geometry":{"type":"Point","coordinates":[6.424409,52.137715]},"properties":{"type":"charge","layer":"passenger","locationId":"66d01cd3d8c26b001ca909b3","name":"Aziatisch Restaurant Chun Lin","address":"Lochemseweg 35","city":"Barchem","operatorName":"Pluq","maxPowerKw":22,"isMegawatt":false,"status":"AVAILABLE","source":"ndw","priceKwh":0.34}},{"type":"Feature","geometry":{"type":"Point","coordinates":[6.203085,52.227567]},"properties":{"type":"charge","layer":"passenger","locationId":"NLLOC005393","name":"NLD Het Diekman 31, 7214 CB, Epse","address":"Het Diekman 31","city":"Epse","operatorName":"Allego","maxPowerKw":0,"isMegawatt":false,"status":"AVAILABLE","source":"ndw","priceKwh":0.511}},{"type":"Feature","geometry":{"type":"Point","coordinates":[6.204847,52.197257]},"properties":{"type":"charge","layer":"passenger","locationId":"1a3d609b752ccabca34a57cb0c3b8a5e","name":"Haerkamp 1","address":"Haerkamp 1","city":"Gorssel","operatorName":"Vattenfall InCharge","maxPowerKw":11,"isMegawatt":false,"status":"AVAILABLE","source":"ndw"}},{"type":"Feature","geometry":{"type":"Point","coordinates":[6.3956,52.15583]},"properties":{"type":"charge","layer":"passenger","locationId":"eca22486a0997f7fe76d3859cb14fe88","name":"Heggerank 104","address":"Heggerank 104","city":"Lochem","operatorName":"Vattenfall InCharge","maxPowerKw":11,"isMegawatt":false,"status":"AVAILABLE","source":"ndw"}},{"type":"Feature","geometry":{"type":"Point","coordinates":[6.408148,52.163483]},"properties":{"type":"charge","layer":"passenger","locationId":"19aeb8df-6faf-41a3-b58d-c23708be7008","name":"Larenseweg","address":"Larenseweg 4","city":"Lochem","operatorName":"Vattenfall InCharge","maxPowerKw":11,"isMegawatt":false,"status":"CHARGING","source":"ndw"}},{"type":"Feature","geometry":{"type":"Point","coordinates":[6.412874,52.184647]},"properties":{"type":"charge","layer":"passenger","locationId":"ce4595e4-fa53-43d6-9ecb-393520cdc0f9","name":"Het Veld 34","address":"Het Veld 34","city":"Laren","operatorName":"Vattenfall InCharge","maxPowerKw":11,"isMegawatt":false,"status":"UNAVAILABLE","source":"ndw"}},{"type":"Feature","geometry":{"type":"Point","coordinates":[6.199517,52.199856]},"properties":{"type":"charge","layer":"passenger","locationId":"NLLOC001642","name":"NLD, Gorssel, Hoofdstraat 45","address":"Hoofdstraat 45-B-211","city":"Gorssel","operatorName":"Allego","maxPowerKw":0,"isMegawatt":false,"status":"AVAILABLE","source":"ndw","priceKwh":0.511}},{"type":"Feature","geometry":{"type":"Point","coordinates":[6.294964,52.207091]},"properties":{"type":"charge","layer":"passenger","locationId":"51e44e52-26f0-42e3-8c0c-c6292a3bb9d3","name":"Hulstweg","address":"Hulstweg 2","city":"Harfsen","operatorName":"Vattenfall InCharge","maxPowerKw":11,"isMegawatt":false,"status":"AVAILABLE","source":"ndw"}},{"type":"Feature","geometry":{"type":"Point","coordinates":[6.413774,52.159102]},"properties":{"type":"charge","layer":"passenger","locationId":"d8e6a2573117ec0649dfbea8388bd224","name":"Albert Hahnweg 2","address":"Albert Hahnweg 2","city":"Lochem","operatorName":"Vattenfall InCharge","maxPowerKw":11,"isMegawatt":false,"status":"AVAILABLE","source":"ndw"}},{"type":"Feature","geometry":{"type":"Point","coordinates":[6.29338,52.2033]},"properties":{"type":"charge","layer":"passenger","locationId":"cb4643f4679452d4c100838c1b89dcbe","name":"Reeverweg 30 b","address":"Reeverweg 30 b","city":"Harfsen","operatorName":"Vattenfall InCharge","maxPowerKw":11,"isMegawatt":false,"status":"AVAILABLE","source":"ndw"}},{"type":"Feature","geometry":{"type":"Point","coordinates":[6.40989,52.15956]},"properties":{"type":"charge","layer":"passenger","locationId":"0a975964-6475-4b0f-8442-ecfefefaed9c","name":"Francois Ballochilaan 73","address":"Francois Ballochilaan 73","city":"Lochem","operatorName":"Vattenfall InCharge","maxPowerKw":11,"isMegawatt":false,"status":"AVAILABLE","source":"ndw"}},{"type":"Feature","geometry":{"type":"Point","coordinates":[6.401832,52.158743]},"properties":{"type":"charge","layer":"passenger","locationId":"803a1dfe-9537-44fa-955c-967663a24345","name":"Graaf Adolflaan 17","address":"Graaf Adolflaan 17","city":"Lochem","operatorName":"Vattenfall InCharge","maxPowerKw":11,"isMegawatt":false,"status":"AVAILABLE","source":"ndw"}},{"type":"Feature","geometry":{"type":"Point","coordinates":[6.217377,52.189311]},"properties":{"type":"charge","layer":"passenger","locationId":"a8feb40ba2b63ef75328acee96303057","name":"Markeweg 27","address":"Markeweg 27","city":"Gorssel","operatorName":"Vattenfall InCharge","maxPowerKw":11,"isMegawatt":false,"status":"AVAILABLE","source":"ndw"}},{"type":"Feature","geometry":{"type":"Point","coordinates":[6.29938,52.156819]},"properties":{"type":"charge","layer":"passenger","locationId":"81f82a09-dac8-4985-b46e-8d40c9e4847a","name":"Whemerweg ","address":"Whemerweg  11","city":"Almen","operatorName":"Vattenfall InCharge","maxPowerKw":11,"isMegawatt":false,"status":"AVAILABLE","source":"ndw"}},{"type":"Feature","geometry":{"type":"Point","coordinates":[6.223241,52.169032]},"properties":{"type":"charge","layer":"passenger","locationId":"7294f25b0a67279b2b7abe09d5011b42","name":"Beeklaan  32 G06","address":"Beeklaan  32 G06","city":"Eefde","operatorName":"Vattenfall InCharge","maxPowerKw":11,"isMegawatt":false,"status":"AVAILABLE","source":"ndw"}},{"type":"Feature","geometry":{"type":"Point","coordinates":[6.420282,52.155941]},"properties":{"type":"charge","layer":"passenger","locationId":"04b02579ab1204a0b69fbf693077fe08","name":"Zwiepseweg 60A","address":"Zwiepseweg 60A","city":"Lochem","operatorName":"Vattenfall InCharge","maxPowerKw":11,"isMegawatt":false,"status":"AVAILABLE","source":"ndw"}},{"type":"Feature","geometry":{"type":"MultiPolygon","coordinates":[[[[6.385962907147327,52.24310895982578],[6.389863498803163,52.242558883739406],[6.402619063359816,52.243271426444736],[6.41642241894076,52.242166091689896],[6.416395433966234,52.239524894436045],[6.416807548062538,52.237126086738975],[6.421975102675346,52.23292551458764],[6.429342423877501,52.22313559775248],[6.431573788626129,52.22124403805962],[6.439967882020591,52.217066976636104],[6.446311049758862,52.2128007586507],[6.452745813295472,52.20647705337876],[6.4534912696317805,52.204172329348026],[6.456133289800835,52.20170910678166],[6.457287067582051,52.200964538353766],[6.467118299902103,52.20039523383724],[6.470269521129006,52.19937968646575],[6.4694644320021535,52.19828193152042],[6.46999894356026,52.19269037789887],[6.472699946000671,52.189040389714414],[6.478356909755199,52.18382716973933],[6.479031619478192,52.18259953031461],[6.490646872993166,52.1798629245973],[6.492401065463654,52.177371816681955],[6.492221805182481,52.17611556678874],[6.494371727625032,52.173196374882735],[6.492845791877854,52.16943002579274],[6.487846287607455,52.161193792006124],[6.483787914308353,52.157199369997535],[6.461404297081821,52.15214300445077],[6.462662347109332,52.1506011090007],[6.466519373610586,52.149639593183444],[6.466581689040922,52.14733640403202],[6.46943456600462,52.14747537744228],[6.470711058163172,52.146406500852635],[6.470959033661782,52.14401037416143],[6.481224301804401,52.142478822061854],[6.481646646999749,52.14091454177825],[6.484866909161569,52.13727496162616],[6.488518298200888,52.13424254478201],[6.487889534457072,52.132439055219585],[6.48652212869796,52.13187500911195],[6.4882588495993945,52.1299807508773],[6.488304679213862,52.12690259738967],[6.491409534915004,52.12614247670803],[6.492109448205379,52.12400458690341],[6.489717087599478,52.12064189921013],[6.491187753464284,52.120034977445464],[6.489031580581245,52.119298769807095],[6.487472887758336,52.11632833786478],[6.484593034064482,52.11449526750803],[6.481173916163235,52.11029012109887],[6.482468969019661,52.109060857162056],[6.482002597131728,52.10592262290235],[6.480116472279237,52.10465826550488],[6.4785437942445805,52.100689574183974],[6.476892447788736,52.10042135246697],[6.472538097295131,52.10210476943151],[6.472423047154338,52.104063393263175],[6.470194493789964,52.104290816137606],[6.470498012741537,52.10585260255448],[6.466704422330911,52.10660635036133],[6.461463701332016,52.104026204404555],[6.460133278720427,52.10673825376489],[6.455205099800648,52.10798004623804],[6.452466555832442,52.10690542700431],[6.451822647103695,52.107303872187146],[6.444885297123361,52.106195998339615],[6.443461440708446,52.104771243884976],[6.439742539016042,52.103132070632746],[6.43755893093475,52.10374265163663],[6.423998923427732,52.09690787598545],[6.418422630569247,52.1004386285189],[6.391529933118904,52.11305089039106],[6.396489709946381,52.117148295966885],[6.398389622562995,52.11764769407515],[6.391822546154317,52.123727742016506],[6.395843446524471,52.13083225548208],[6.3926808073148225,52.13149364356557],[6.382678130754062,52.128548615490224],[6.383440573369566,52.1272612139102],[6.379201084260651,52.125894962422265],[6.377940283944515,52.12715324737923],[6.369139506841568,52.12396923550607],[6.361983715057901,52.12666910145888],[6.357721793222983,52.130299351273436],[6.357721251193986,52.13552674752853],[6.328314580736632,52.13771239433171],[6.326559092780436,52.14738654608729],[6.324001038808544,52.15275248813596],[6.315288362630093,52.151291494317434],[6.305120014522909,52.15067347752052],[6.300918240908039,52.149111220499414],[6.298111299568261,52.149819762075374],[6.295697359976254,52.14883082243347],[6.29028024203045,52.14940155892496],[6.286444573822224,52.148939138045776],[6.2834165411171075,52.14829822011544],[6.2801511577287235,52.14947291731326],[6.276896535826106,52.149472819955],[6.2745378819695805,52.1488439420373],[6.269791571504713,52.149958781546204],[6.266032257199797,52.14786525552711],[6.264391384181103,52.14707543676099],[6.251103538724031,52.14676125394095],[6.249285279245366,52.147450766261805],[6.244346209336024,52.146693678586004],[6.240151146234806,52.14605045322002],[6.237974017455697,52.146125908704725],[6.235261099950291,52.155428712772576],[6.2316403019224,52.155940399144626],[6.228878248513948,52.15534556778094],[6.228448823630109,52.154772884020936],[6.223478263493537,52.15384434363196],[6.223071760830841,52.15583121547978],[6.219153403323853,52.156076945355885],[6.218674504104868,52.15836236711965],[6.216118568274543,52.15858773348367],[6.217195379962657,52.159598590541044],[6.2168607448022595,52.16177684703331],[6.21582671500764,52.1620366051121],[6.2118140876824315,52.163073923431284],[6.207221874583429,52.16664377570455],[6.2005288643384935,52.16491682397236],[6.198708179270757,52.16291038055801],[6.195263719838082,52.1656235020037],[6.19279966096702,52.16980138146715],[6.194363164486051,52.17432000248184],[6.1936212585413255,52.176448699752996],[6.191545163170897,52.17843986218749],[6.188913015990533,52.179697977476],[6.1811415006998045,52.181365632619425],[6.169533406781523,52.18908967482126],[6.165399408886784,52.18982739166228],[6.161438046665633,52.18935917477968],[6.159033463005105,52.190092474822016],[6.156350549063079,52.19360107975816],[6.156355099604,52.19734335415344],[6.158203488099436,52.19974328796669],[6.161430860461499,52.201093709716424],[6.172119473734818,52.20121010786003],[6.178365707030861,52.20330103376015],[6.184037383337727,52.204298306117984],[6.189597456436417,52.20773162665425],[6.1910511458156865,52.210584945152846],[6.190717367702595,52.21436293834107],[6.189254703473081,52.21726754739539],[6.180817586854034,52.223155785634965],[6.173975952570656,52.22595950317485],[6.16968233772951,52.22948623155875],[6.166269116059254,52.23101384869398],[6.167341992146134,52.23125256330045],[6.174214466272928,52.23278136520533],[6.178384608276874,52.23369851171695],[6.182531136788545,52.23382502349094],[6.184974343643478,52.231991159295234],[6.18483682222253,52.23181991170421],[6.1859903059855865,52.23139745737489],[6.186044464097765,52.231451945512134],[6.186856716425806,52.230974978137475],[6.189135787049575,52.2291664868505],[6.189447198246206,52.22934334241461],[6.190140399331253,52.22921290951948],[6.203110209456706,52.22926913612475],[6.216948558878062,52.22647351074565],[6.214515342781638,52.231325098546705],[6.216480304704185,52.23147456841286],[6.222479225687125,52.22887306453508],[6.227766140939448,52.2297549076876],[6.233920004170667,52.22903521920248],[6.238451827812213,52.22758537441151],[6.257294698075946,52.22727596507877],[6.260835305612447,52.2290707052456],[6.264718391896038,52.22724754443924],[6.269400398121176,52.22645712216066],[6.271290872647091,52.22641336245188],[6.2710070501943,52.22790969026637],[6.27723497842661,52.2279358865825],[6.286333149114827,52.23036172530032],[6.29170565035191,52.23087490137088],[6.292829176497448,52.230826922663475],[6.293035028927574,52.229512158022764],[6.29695178172786,52.22900091837714],[6.297942274152353,52.22552954137187],[6.320429230855053,52.22566879285916],[6.325434085274046,52.22699633876679],[6.338708399241935,52.22715256820432],[6.338056953558669,52.23622262055928],[6.34922311593196,52.240104485105036],[6.349651644564615,52.24124089256428],[6.351761471999491,52.241697904143145],[6.3668514578247475,52.24153181617171],[6.3773486297014985,52.24474962702122],[6.381851643300258,52.24611248848339],[6.383411008634175,52.2440154955699],[6.385962907147327,52.24310895982578]]]]},"properties":{"type":"boundary","gemeente":"Lochem","code":"GM0262"}}]}