{"type":"FeatureCollection","metadata":{"gemeente":"Lopik","slug":"lopik","code":"GM0331","generated_at":"2026-06-02T13:19:22.438Z","total_passenger":33,"total_freight":0,"bounds":[4.834114747259953,51.93803034590838,5.06263785006036,52.02556571408812],"operators":["DAEN Mobility","E-Flux by Road","Laadnet","TotalEnergies","Ubitricity","Vattenfall InCharge"]},"features":[{"type":"Feature","geometry":{"type":"Point","coordinates":[4.84825,51.97628]},"properties":{"type":"charge","layer":"passenger","locationId":"3eb23ad0-fa6e-11e9-afdb-42010a840012","name":"Shell Recharge NL Dorp 39 Polsbroek","address":"Dorp 39","city":"Polsbroek","operatorName":"Ubitricity","maxPowerKw":11,"isMegawatt":false,"status":"AVAILABLE","source":"ndw"}},{"type":"Feature","geometry":{"type":"Point","coordinates":[4.953259,51.974968]},"properties":{"type":"charge","layer":"passenger","locationId":"b5b9e5b0-f883-11ef-828f-42010aa400b8","name":"Shell Recharge NL Churchill-laan 21, Lopik, [AN null]","address":"Churchill-laan 21","city":"Lopik","operatorName":"Ubitricity","maxPowerKw":22,"isMegawatt":false,"status":"AVAILABLE","source":"ndw"}},{"type":"Feature","geometry":{"type":"Point","coordinates":[4.9004554,51.9647055]},"properties":{"type":"charge","layer":"passenger","locationId":"2298","name":"Shell Recharge NL Kerklaan 1","address":"Kerklaan 1","city":"Lopik","operatorName":"Ubitricity","maxPowerKw":22,"isMegawatt":false,"status":"AVAILABLE","source":"ndw"}},{"type":"Feature","geometry":{"type":"Point","coordinates":[4.85298,51.976965]},"properties":{"type":"charge","layer":"passenger","locationId":"9652797bc098c5101f7eabb55f98563a","name":"Vrijheer de Graeffweg 17","address":"Vrijheer de Graeffweg 17","city":"Polsbroek","operatorName":"Vattenfall InCharge","maxPowerKw":11,"isMegawatt":false,"status":"AVAILABLE","source":"ndw"}},{"type":"Feature","geometry":{"type":"Point","coordinates":[5,52]},"properties":{"type":"charge","layer":"passenger","locationId":"4259994","name":"Pieter Tropenzorg BV","address":"Huchtstraat 14","city":"Almere","operatorName":"Laadnet","maxPowerKw":22,"isMegawatt":false,"status":"AVAILABLE","source":"ndw"}},{"type":"Feature","geometry":{"type":"Point","coordinates":[4.954049,51.972988]},"properties":{"type":"charge","layer":"passenger","locationId":"e5980b68-7548-11ef-9cdb-42010aa400b8","name":"Shell Recharge NL Europasingel 20, Lopik, [AN null]","address":"Europasingel 20","city":"Lopik","operatorName":"Ubitricity","maxPowerKw":22,"isMegawatt":false,"status":"CHARGING","source":"ndw"}},{"type":"Feature","geometry":{"type":"Point","coordinates":[4.898538,51.963439]},"properties":{"type":"charge","layer":"passenger","locationId":"37f2e25a-8526-11f0-9ae1-42010aa400b8","name":"TNLP006892","address":"de Nobelaerweg 53","city":"Lopik","operatorName":"TotalEnergies","maxPowerKw":17,"isMegawatt":false,"status":"AVAILABLE","source":"ndw"}},{"type":"Feature","geometry":{"type":"Point","coordinates":[4.962058,52.005215]},"properties":{"type":"charge","layer":"passenger","locationId":"64df8b111cc0dc001b19c2e6","name":"VOLLEZON BV","address":"Benedeneind Zuidzijde 243","city":"Benschop","operatorName":"E-Flux by Road","maxPowerKw":11,"isMegawatt":false,"status":"AVAILABLE","source":"ndw"}},{"type":"Feature","geometry":{"type":"Point","coordinates":[4.954049,51.9729885]},"properties":{"type":"charge","layer":"passenger","locationId":"786","name":"Shell Recharge NL Europasingel 20","address":"Europasingel 20","city":"Lopik","operatorName":"Ubitricity","maxPowerKw":22,"isMegawatt":false,"status":"AVAILABLE","source":"ndw"}},{"type":"Feature","geometry":{"type":"Point","coordinates":[4.975437,51.969284]},"properties":{"type":"charge","layer":"passenger","locationId":"b85bedb8-b4de-11ec-acbf-42010a840023","name":"TNLP007173","address":"Adriaan Veerhof 22","city":"Jaarsveld","operatorName":"TotalEnergies","maxPowerKw":17,"isMegawatt":false,"status":"AVAILABLE","source":"ndw"}},{"type":"Feature","geometry":{"type":"Point","coordinates":[4.84825,51.97628]},"properties":{"type":"charge","layer":"passenger","locationId":"551","name":"Shell Recharge NL Dorp 39","address":"Dorp 39","city":"Polsbroek","operatorName":"Ubitricity","maxPowerKw":11,"isMegawatt":false,"status":"AVAILABLE","source":"ndw"}},{"type":"Feature","geometry":{"type":"Point","coordinates":[4.938363,51.971176]},"properties":{"type":"charge","layer":"passenger","locationId":"ea6b7662-f13f-11ee-9374-42010aa400b8","name":"TNLP008612","address":"Teenschiller 6","city":"Lopik","operatorName":"TotalEnergies","maxPowerKw":14,"isMegawatt":false,"status":"AVAILABLE","source":"ndw"}},{"type":"Feature","geometry":{"type":"Point","coordinates":[4.97983,52.006986]},"properties":{"type":"charge","layer":"passenger","locationId":"cedfcec6-a62d-11f0-9f0d-42010aa400b8","name":"TNLP006925","address":"Theo Kleverstraat 19","city":"Benschop","operatorName":"TotalEnergies","maxPowerKw":17,"isMegawatt":false,"status":"AVAILABLE","source":"ndw"}},{"type":"Feature","geometry":{"type":"Point","coordinates":[4.949961,51.974658]},"properties":{"type":"charge","layer":"passenger","locationId":"f62754e6-d160-11f0-979e-42010aa400b8","name":"TNLP007609","address":"Kon Willem-Alexanderpln 20","city":"Lopik","operatorName":"TotalEnergies","maxPowerKw":17,"isMegawatt":false,"status":"AVAILABLE","source":"ndw"}},{"type":"Feature","geometry":{"type":"Point","coordinates":[5.04392,52.002847]},"properties":{"type":"charge","layer":"passenger","locationId":"6475bbfdd87a64001c5204cd","name":"Amobi Holding BV","address":"Biezendijk 3","city":"Lopikerkapel","operatorName":"E-Flux by Road","maxPowerKw":22,"isMegawatt":false,"status":"AVAILABLE","source":"ndw"}},{"type":"Feature","geometry":{"type":"Point","coordinates":[4.946772,51.972266]},"properties":{"type":"charge","layer":"passenger","locationId":"0495c950-813d-11f0-b4ca-42010aa400b8","name":"TNLP007720","address":"Juliana van Stolberglaan 10","city":"Lopik","operatorName":"TotalEnergies","maxPowerKw":17,"isMegawatt":false,"status":"AVAILABLE","source":"ndw"}},{"type":"Feature","geometry":{"type":"Point","coordinates":[4.985568,52.008605]},"properties":{"type":"charge","layer":"passenger","locationId":"23cd990a-c59a-11f0-9cf4-42010aa400b8","name":"TNLP005756","address":"De Lansing 19","city":"Benschop","operatorName":"TotalEnergies","maxPowerKw":0,"isMegawatt":false,"status":"AVAILABLE","source":"ndw"}},{"type":"Feature","geometry":{"type":"Point","coordinates":[4.958676,51.973839]},"properties":{"type":"charge","layer":"passenger","locationId":"f8a9ceb2-f94e-11ec-8843-42010aa40055","name":"TNLP009966","address":"het Veld 4","city":"Lopik","operatorName":"TotalEnergies","maxPowerKw":17,"isMegawatt":false,"status":"AVAILABLE","source":"ndw"}},{"type":"Feature","geometry":{"type":"Point","coordinates":[4.977129,52.005403]},"properties":{"type":"charge","layer":"passenger","locationId":"e5fab3b6-df59-11ed-b677-42010aa40007","name":"TNLP008230","address":"Eksterstraat 13","city":"Benschop","operatorName":"TotalEnergies","maxPowerKw":17,"isMegawatt":false,"status":"AVAILABLE","source":"ndw"}},{"type":"Feature","geometry":{"type":"Point","coordinates":[4.9532587,51.974968]},"properties":{"type":"charge","layer":"passenger","locationId":"1015","name":"Shell Recharge NL Churchill-laan 21","address":"Churchill-laan 21","city":"Lopik","operatorName":"Ubitricity","maxPowerKw":22,"isMegawatt":false,"status":"AVAILABLE","source":"ndw"}},{"type":"Feature","geometry":{"type":"Point","coordinates":[4.924515,51.975518]},"properties":{"type":"charge","layer":"passenger","locationId":"4175079","name":"Laadnet HOB Aggregaten","address":"Lopikerweg West 34A","city":"Lopik","operatorName":"Laadnet","maxPowerKw":22,"isMegawatt":false,"status":"AVAILABLE","source":"ndw"}},{"type":"Feature","geometry":{"type":"Point","coordinates":[4.950593,51.97192]},"properties":{"type":"charge","layer":"passenger","locationId":"e371c43c-8f30-11e8-81bb-42010a840002","name":"TNLP008515","address":"Raadhuisplein 1a","city":"Lopik","operatorName":"TotalEnergies","maxPowerKw":14,"isMegawatt":false,"status":"CHARGING","source":"ndw"}},{"type":"Feature","geometry":{"type":"Point","coordinates":[4.938093,51.97328]},"properties":{"type":"charge","layer":"passenger","locationId":"a3fe4ede-82cf-11f0-9dba-42010aa400b8","name":"PP005365","address":"Jeroen Boschlaan 50","city":"Lopik","operatorName":"TotalEnergies","maxPowerKw":0,"isMegawatt":false,"status":"AVAILABLE","source":"ndw"}},{"type":"Feature","geometry":{"type":"Point","coordinates":[5.048123,51.991773]},"properties":{"type":"charge","layer":"passenger","locationId":"a3866652-0a9b-11ee-ac9f-42010aa4003a","name":"TNLP009089","address":"Sevenhovenstraat 17","city":"Lopikerkapel","operatorName":"TotalEnergies","maxPowerKw":17,"isMegawatt":false,"status":"AVAILABLE","source":"ndw"}},{"type":"Feature","geometry":{"type":"Point","coordinates":[5.01563,51.984186]},"properties":{"type":"charge","layer":"passenger","locationId":"25f374ee-c8be-11f0-921d-42010aa400b8","name":"TNLP007464","address":"Hof van Batuwe 18","city":"Lopikerkapel","operatorName":"TotalEnergies","maxPowerKw":17,"isMegawatt":false,"status":"AVAILABLE","source":"ndw"}},{"type":"Feature","geometry":{"type":"Point","coordinates":[4.852876,51.978987]},"properties":{"type":"charge","layer":"passenger","locationId":"a3732894-0a9b-11ee-ad20-42010aa40ff5","name":"TNLP009096","address":"Baronieweg 27","city":"Polsbroek","operatorName":"TotalEnergies","maxPowerKw":17,"isMegawatt":false,"status":"AVAILABLE","source":"ndw"}},{"type":"Feature","geometry":{"type":"Point","coordinates":[4.97966,52.004463]},"properties":{"type":"charge","layer":"passenger","locationId":"cf50e088-f760-11ea-8596-42010a84003d","name":"PP005531","address":"Koningin Wilhelminastraat 26","city":"Benschop","operatorName":"TotalEnergies","maxPowerKw":0,"isMegawatt":false,"status":"AVAILABLE","source":"ndw"}},{"type":"Feature","geometry":{"type":"Point","coordinates":[4.944258,51.973191]},"properties":{"type":"charge","layer":"passenger","locationId":"f4420fb8-0df2-11eb-bf29-42010a840029","name":"PP005568","address":"M.A.A. Schakelplein 4","city":"Lopik","operatorName":"TotalEnergies","maxPowerKw":0,"isMegawatt":false,"status":"AVAILABLE","source":"ndw"}},{"type":"Feature","geometry":{"type":"Point","coordinates":[4.982478,52.008072]},"properties":{"type":"charge","layer":"passenger","locationId":"1625d3d1b671ad7b2bf833799e5c9bd4","name":"Herderstasje 5","address":"Herderstasje 5","city":"Benschop","operatorName":"Vattenfall InCharge","maxPowerKw":11,"isMegawatt":false,"status":"AVAILABLE","source":"ndw"}},{"type":"Feature","geometry":{"type":"Point","coordinates":[4.9863341,52.0063858]},"properties":{"type":"charge","layer":"passenger","locationId":"2222","name":"Shell Recharge NL Zeevliet 42","address":"Zeevliet 42","city":"Benschop","operatorName":"Ubitricity","maxPowerKw":22,"isMegawatt":false,"status":"AVAILABLE","source":"ndw"}},{"type":"Feature","geometry":{"type":"Point","coordinates":[4.984508,52.0068]},"properties":{"type":"charge","layer":"passenger","locationId":"bf083c33a1a6abe209f6193bbfbfa15b","name":"Oeverzegge 22","address":"Oeverzegge 22","city":"Benschop","operatorName":"Vattenfall InCharge","maxPowerKw":11,"isMegawatt":false,"status":"AVAILABLE","source":"ndw"}},{"type":"Feature","geometry":{"type":"Point","coordinates":[4.970695,51.9873]},"properties":{"type":"charge","layer":"passenger","locationId":"923418","name":"DAE_NL_2001250","address":"Bedrijfsweg 12","city":"Lopik","operatorName":"DAEN Mobility","maxPowerKw":11,"isMegawatt":false,"status":"UNAVAILABLE","source":"ndw"}},{"type":"Feature","geometry":{"type":"Point","coordinates":[4.936056,51.973363]},"properties":{"type":"charge","layer":"passenger","locationId":"50b6d33807e3d182b7ec0083b4f20a31","name":"Moerasbos 20","address":"Moerasbos 20","city":"Lopik","operatorName":"Vattenfall InCharge","maxPowerKw":11,"isMegawatt":false,"status":"CHARGING","source":"ndw"}},{"type":"Feature","geometry":{"type":"MultiPolygon","coordinates":[[[[5.023913048994802,52.019932168852534],[5.027082431575816,52.014776994894945],[5.027316222786485,52.014779718524395],[5.029351557296188,52.011472023631256],[5.030141967654709,52.01016433558413],[5.031771977129605,52.007518950584924],[5.034001936290021,52.00393699368139],[5.036045368444086,52.004259003660536],[5.042469870462761,52.00566838525822],[5.052611583215514,51.99765435090302],[5.0538856736851825,51.99663113680382],[5.053082016016007,51.995384778083434],[5.055865870255645,51.99408070444221],[5.06263785006036,51.99123318293138],[5.044995062022009,51.9819590335835],[5.040401944915751,51.977443696923785],[5.038830022102007,51.97413625793152],[5.036127221686919,51.97132859990581],[5.032848629174753,51.969746270387674],[5.029672613581454,51.9692034040166],[5.022375409346532,51.969726697506],[5.01610302551571,51.972140225468095],[5.010077269134162,51.975544198308064],[5.002182176552923,51.978215579083916],[4.998073320003628,51.97787154215339],[4.991862056788845,51.97585294799997],[4.987002764204958,51.97330748512726],[4.983907872294797,51.97059370352561],[4.9788878182754415,51.96595785534848],[4.976143003229255,51.96344512646897],[4.96810153745156,51.95933641659082],[4.963851119257131,51.95943413721792],[4.957333334580425,51.96098395161772],[4.948691019270868,51.96347166167764],[4.943305189601699,51.96394270346267],[4.939820332745047,51.96343985645145],[4.93358335015426,51.95970714208776],[4.926301063977516,51.950927766941966],[4.9191873461111655,51.94472873932599],[4.914011076980242,51.942435708685025],[4.877792638293838,51.93803034590838],[4.875811797427211,51.943533253979275],[4.872755499788208,51.950940406195876],[4.871597820946089,51.953710432320115],[4.868956554110501,51.956706491320276],[4.865673936502275,51.960433120909165],[4.8643044946294225,51.96339715523331],[4.8603822887569965,51.9680133374836],[4.849766050608207,51.97385395843764],[4.847553358943579,51.97513679663627],[4.845546569363863,51.97520040101486],[4.8442971944960505,51.97635171839349],[4.834114747259953,51.98558026113813],[4.835218241018892,51.986143039045665],[4.853260740232245,51.991726845572614],[4.8778321769591795,52.000568950948285],[4.891584683483122,52.00485284807013],[4.896412261795234,52.00651656235311],[4.909734933078405,52.01104156122195],[4.9138884782826135,52.01107772695179],[4.916855706623324,52.01014489046521],[4.920045008175167,52.01001413350274],[4.9521032981624415,52.01676499121014],[4.977256377675919,52.02052678985798],[4.992162013840565,52.02103265992839],[4.995194549862604,52.02172055202113],[5.019721449093311,52.025533075099155],[5.020353528098904,52.02556571408812],[5.023913048994802,52.019932168852534]]]]},"properties":{"type":"boundary","gemeente":"Lopik","code":"GM0331"}}]}