{"type":"FeatureCollection","metadata":{"gemeente":"Maashorst","slug":"maashorst","code":"GM1991","generated_at":"2026-06-07T19:22:09.578Z","total_passenger":263,"total_freight":2,"bounds":[5.561965254296812,51.622495994008396,5.750477308938236,51.7680095089889],"operators":["Allego","DAEN Mobility","E-Flux by Road","EQUANS","Eneco","Fastned","Fleet Charge Services","Laadnet","Opcharge","Shell Recharge","Tesla","Vattenfall InCharge"]},"features":[{"type":"Feature","geometry":{"type":"Point","coordinates":[5.631564,51.726609]},"properties":{"type":"charge","layer":"passenger","locationId":"6418d009f8b2f900124997ef","name":"Charme Camping Hartje Groen","address":"Udensedreef 14","city":"Schaijk","operatorName":"E-Flux by Road","maxPowerKw":11,"isMegawatt":false,"status":"AVAILABLE","source":"ndw","priceKwh":0.68}},{"type":"Feature","geometry":{"type":"Point","coordinates":[5.637879,51.742671]},"properties":{"type":"charge","layer":"passenger","locationId":"NLLOC007339","name":"NL, Akkerwinde 50, 5374 DB, Schaijk","address":"Akkerwinde 50","city":"Schaijk","operatorName":"Allego","maxPowerKw":0,"isMegawatt":false,"status":"CHARGING","source":"ndw","priceKwh":0.511}},{"type":"Feature","geometry":{"type":"Point","coordinates":[5.645035,51.657746]},"properties":{"type":"charge","layer":"passenger","locationId":"922897","name":"DAE_NL_2000641","address":"Industrielaan 24","city":"Uden","operatorName":"DAEN Mobility","maxPowerKw":11,"isMegawatt":false,"status":"AVAILABLE","source":"ndw","priceKwh":0.42}},{"type":"Feature","geometry":{"type":"Point","coordinates":[5.637682,51.665866]},"properties":{"type":"charge","layer":"passenger","locationId":"28bbaf225f103391a862a983067bc9f1","name":"Germenzeel 707","address":"Germenzeel 707","city":"Uden","operatorName":"Vattenfall InCharge","maxPowerKw":11,"isMegawatt":false,"status":"AVAILABLE","source":"ndw"}},{"type":"Feature","geometry":{"type":"Point","coordinates":[5.637303,51.741469]},"properties":{"type":"charge","layer":"passenger","locationId":"7862a524-8970-4992-b71f-052a7b21f3e3","name":"Mackenhof","address":"Mackenhof 39","city":"Schaijk","operatorName":"Vattenfall InCharge","maxPowerKw":11,"isMegawatt":false,"status":"AVAILABLE","source":"ndw"}},{"type":"Feature","geometry":{"type":"Point","coordinates":[5.630931,51.662325]},"properties":{"type":"charge","layer":"passenger","locationId":"768b4611-2cd2-412b-aa1b-d65696b732a1","name":"Drossaard","address":"Drossaard 21","city":"Uden","operatorName":"Vattenfall InCharge","maxPowerKw":11,"isMegawatt":false,"status":"AVAILABLE","source":"ndw"}},{"type":"Feature","geometry":{"type":"Point","coordinates":[5.621824,51.666935]},"properties":{"type":"charge","layer":"passenger","locationId":"7312d6ecfa7dd7ce34212b0d12bfbe5c","name":"Herpenstraat 87","address":"Herpenstraat 87","city":"Uden","operatorName":"Vattenfall InCharge","maxPowerKw":11,"isMegawatt":false,"status":"AVAILABLE","source":"ndw"}},{"type":"Feature","geometry":{"type":"Point","coordinates":[5.6178,51.6435]},"properties":{"type":"charge","layer":"passenger","locationId":"ad560bb57135417ab577004bc66f8ea1","name":"Leasaholic","address":"Korenmijt 43 ","city":"Uden","operatorName":"","maxPowerKw":11,"isMegawatt":false,"status":"CHARGING","source":"ndw","priceKwh":2.95}},{"type":"Feature","geometry":{"type":"Point","coordinates":[5.625681,51.661746]},"properties":{"type":"charge","layer":"passenger","locationId":"9fd9be2e-29ba-45d0-8033-5a971e4d92dd","name":"Bevrijdingshof","address":"Bevrijdingshof 1","city":"Uden","operatorName":"Vattenfall InCharge","maxPowerKw":11,"isMegawatt":false,"status":"AVAILABLE","source":"ndw"}},{"type":"Feature","geometry":{"type":"Point","coordinates":[5.63808,51.661788]},"properties":{"type":"charge","layer":"passenger","locationId":"698177e6-4fa3-4271-989e-14389c710004","name":"Vaarzenhof","address":"Vaarzenhof 609","city":"Uden","operatorName":"Vattenfall InCharge","maxPowerKw":11,"isMegawatt":false,"status":"CHARGING","source":"ndw"}},{"type":"Feature","geometry":{"type":"Point","coordinates":[5.61922,51.67291]},"properties":{"type":"charge","layer":"passenger","locationId":"bac3209dbeef7ea41f253a0fb324e372","name":"Basstraat 19","address":"Basstraat 19","city":"Uden","operatorName":"Vattenfall InCharge","maxPowerKw":11,"isMegawatt":false,"status":"AVAILABLE","source":"ndw"}},{"type":"Feature","geometry":{"type":"Point","coordinates":[5.613614,51.672339]},"properties":{"type":"charge","layer":"passenger","locationId":"9d40e0255cc5e8be5ea821da0ac36d62","name":"Harpstraat 4","address":"Harpstraat 4","city":"Uden","operatorName":"Vattenfall InCharge","maxPowerKw":11,"isMegawatt":false,"status":"AVAILABLE","source":"ndw"}},{"type":"Feature","geometry":{"type":"Point","coordinates":[5.673123,51.702387]},"properties":{"type":"charge","layer":"passenger","locationId":"48a33f2a-71c6-4449-9538-fc0405a2876b","name":"Handboogstraat","address":"Handboogstraat 22","city":"Zeeland","operatorName":"Vattenfall InCharge","maxPowerKw":11,"isMegawatt":false,"status":"CHARGING","source":"ndw"}},{"type":"Feature","geometry":{"type":"Point","coordinates":[5.60077,51.67113]},"properties":{"type":"charge","layer":"passenger","locationId":"487da85e-f197-47ce-9363-814b51329ef6","name":"Voskestraat 3","address":"Voskestraat 3","city":"Uden","operatorName":"Vattenfall InCharge","maxPowerKw":50,"isMegawatt":false,"status":"AVAILABLE","source":"ndw"}},{"type":"Feature","geometry":{"type":"Point","coordinates":[5.61804,51.65401]},"properties":{"type":"charge","layer":"passenger","locationId":"f21eec5f-b845-4f24-a372-3ea0f93c81b5","name":"Veilingstraat","address":"Veilingstraat 36","city":"Uden","operatorName":"Vattenfall InCharge","maxPowerKw":11,"isMegawatt":false,"status":"AVAILABLE","source":"ndw"}},{"type":"Feature","geometry":{"type":"Point","coordinates":[5.612515,51.653931]},"properties":{"type":"charge","layer":"passenger","locationId":"a02a0ad5-6643-4138-929a-103d929a1fe3","name":"Beatrixhof","address":"Beatrixhof 344","city":"Uden","operatorName":"Vattenfall InCharge","maxPowerKw":11,"isMegawatt":false,"status":"CHARGING","source":"ndw"}},{"type":"Feature","geometry":{"type":"Point","coordinates":[5.62186,51.669558]},"properties":{"type":"charge","layer":"passenger","locationId":"1c14562c-78df-4e6d-a80d-72ea17f1989e","name":"Paukenstraat 83","address":"Paukenstraat 83","city":"Uden","operatorName":"Vattenfall InCharge","maxPowerKw":11,"isMegawatt":false,"status":"AVAILABLE","source":"ndw"}},{"type":"Feature","geometry":{"type":"Point","coordinates":[5.60703,51.657442]},"properties":{"type":"charge","layer":"passenger","locationId":"60b75025cf737bddb9336231","name":"Hotel Arrows Uden","address":"Sint Janstraat 14","city":"Uden","operatorName":"E-Flux by Road","maxPowerKw":11,"isMegawatt":false,"status":"AVAILABLE","source":"ndw","priceKwh":0.38}},{"type":"Feature","geometry":{"type":"Point","coordinates":[5.61642,51.662599]},"properties":{"type":"charge","layer":"passenger","locationId":"edb5fee5-2aec-452d-b75c-e5221cf98204","name":"Alardstraat 63","address":"Alardstraat 63","city":"UDEN","operatorName":"Vattenfall InCharge","maxPowerKw":11,"isMegawatt":false,"status":"AVAILABLE","source":"ndw"}},{"type":"Feature","geometry":{"type":"Point","coordinates":[5.63132,51.66099]},"properties":{"type":"charge","layer":"passenger","locationId":"a37e806187318af4e0d2252f74527223","name":"Jonkerveld 301","address":"Jonkerveld 301","city":"Uden","operatorName":"Vattenfall InCharge","maxPowerKw":11,"isMegawatt":false,"status":"CHARGING","source":"ndw"}},{"type":"Feature","geometry":{"type":"Point","coordinates":[5.607867,51.666201]},"properties":{"type":"charge","layer":"passenger","locationId":"926887d2-c92a-4b20-bfb9-f71a7005883f","name":"IJsselkers 3","address":"IJsselkers 3","city":"Uden","operatorName":"Vattenfall InCharge","maxPowerKw":11,"isMegawatt":false,"status":"AVAILABLE","source":"ndw"}},{"type":"Feature","geometry":{"type":"Point","coordinates":[5.61379,51.651542]},"properties":{"type":"charge","layer":"passenger","locationId":"82417546434bc575d21354172f642203","name":"Den Dries 2","address":"Den Dries 2","city":"Uden","operatorName":"Vattenfall InCharge","maxPowerKw":11,"isMegawatt":false,"status":"AVAILABLE","source":"ndw"}},{"type":"Feature","geometry":{"type":"Point","coordinates":[5.62996,51.650439]},"properties":{"type":"charge","layer":"passenger","locationId":"4b139d39-13a9-4e13-a209-6bb1f173560a","name":"Parklaan 4","address":"Parklaan 4","city":"Uden","operatorName":"Vattenfall InCharge","maxPowerKw":11,"isMegawatt":false,"status":"AVAILABLE","source":"ndw"}},{"type":"Feature","geometry":{"type":"Point","coordinates":[5.63645,51.665053]},"properties":{"type":"charge","layer":"passenger","locationId":"8e708933-6ee4-4643-b38f-4f4b6529100b","name":"Germenzeel","address":"Germenzeel 501","city":"Uden","operatorName":"Vattenfall InCharge","maxPowerKw":11,"isMegawatt":false,"status":"AVAILABLE","source":"ndw"}},{"type":"Feature","geometry":{"type":"Point","coordinates":[5.616395,51.655515]},"properties":{"type":"charge","layer":"passenger","locationId":"2160ce6b-e8c6-4fd8-bb1f-848f75e9a23d","name":"Nieuwe Markt","address":"Nieuwe Markt 35","city":"Uden","operatorName":"Vattenfall InCharge","maxPowerKw":11,"isMegawatt":false,"status":"AVAILABLE","source":"ndw"}},{"type":"Feature","geometry":{"type":"Point","coordinates":[5.609917,51.657523]},"properties":{"type":"charge","layer":"passenger","locationId":"1b61ef7e-e46d-4dbb-a77e-3420ae704e3f","name":"Sint Janstraat 21","address":"Sint Janstraat 21","city":"Uden","operatorName":"Vattenfall InCharge","maxPowerKw":11,"isMegawatt":false,"status":"AVAILABLE","source":"ndw"}},{"type":"Feature","geometry":{"type":"Point","coordinates":[5.636968,51.667988]},"properties":{"type":"charge","layer":"passenger","locationId":"56bb6fa5-9995-4ef6-afb4-e0b88706153b","name":"Bermershof","address":"Bermershof 251","city":"Uden","operatorName":"Vattenfall InCharge","maxPowerKw":11,"isMegawatt":false,"status":"AVAILABLE","source":"ndw"}},{"type":"Feature","geometry":{"type":"Point","coordinates":[5.632929,51.644681]},"properties":{"type":"charge","layer":"passenger","locationId":"d0ca31aa-4b7f-4489-a0cf-3abd4b6d7a3d","name":"Muntmeester","address":"Muntmeester 234","city":"Uden","operatorName":"Vattenfall InCharge","maxPowerKw":11,"isMegawatt":false,"status":"AVAILABLE","source":"ndw"}},{"type":"Feature","geometry":{"type":"Point","coordinates":[5.602512,51.670966]},"properties":{"type":"charge","layer":"passenger","locationId":"NLLOC008663","name":"Allego - Van der Valk Uden-Veghel A50 Rondweg 2","address":"Rondweg 2","city":"Uden","operatorName":"Allego","maxPowerKw":0,"isMegawatt":false,"status":"AVAILABLE","source":"ndw","priceKwh":0.511}},{"type":"Feature","geometry":{"type":"Point","coordinates":[5.633989,51.651363]},"properties":{"type":"charge","layer":"passenger","locationId":"fabf4bdd-6326-4fb6-b458-11a5235869e1","name":"Boekelsedijk 6","address":"Boekelsedijk 6","city":"Uden","operatorName":"Vattenfall InCharge","maxPowerKw":11,"isMegawatt":false,"status":"AVAILABLE","source":"ndw"}},{"type":"Feature","geometry":{"type":"Point","coordinates":[5.619969,51.653504]},"properties":{"type":"charge","layer":"passenger","locationId":"2706057","name":"Laadnet H & P de Bruin","address":"Velmolenweg 87","city":"Uden","operatorName":"Laadnet","maxPowerKw":22,"isMegawatt":false,"status":"AVAILABLE","source":"ndw"}},{"type":"Feature","geometry":{"type":"Point","coordinates":[5.60742,51.667601]},"properties":{"type":"charge","layer":"passenger","locationId":"56b99b4b7e75ee4ec44f93d021c7a8ba","name":"Wijnkers 22","address":"Wijnkers 22","city":"Uden","operatorName":"Vattenfall InCharge","maxPowerKw":11,"isMegawatt":false,"status":"AVAILABLE","source":"ndw"}},{"type":"Feature","geometry":{"type":"Point","coordinates":[5.640181,51.65727]},"properties":{"type":"charge","layer":"passenger","locationId":"359","name":"Shell Recharge NL9319 - Karwei Uden","address":"Loopkantstraat 25A","city":"Uden","operatorName":"Shell Recharge","maxPowerKw":150,"isMegawatt":false,"status":"AVAILABLE","source":"ndw","priceKwh":0.7025}},{"type":"Feature","geometry":{"type":"Point","coordinates":[5.618474,51.656404]},"properties":{"type":"charge","layer":"passenger","locationId":"930bdf19-993b-40a4-a414-864050cc4e88","name":"Nieuwe Markt 3","address":"Nieuwe Markt 3","city":"Uden","operatorName":"Vattenfall InCharge","maxPowerKw":11,"isMegawatt":false,"status":"AVAILABLE","source":"ndw"}},{"type":"Feature","geometry":{"type":"Point","coordinates":[5.632931,51.647995]},"properties":{"type":"charge","layer":"passenger","locationId":"4d4dce3e-99c4-48a8-aa17-f6f634fe8559","name":"Perelaar 8","address":"Perelaar 8","city":"Uden","operatorName":"Vattenfall InCharge","maxPowerKw":11,"isMegawatt":false,"status":"AVAILABLE","source":"ndw"}},{"type":"Feature","geometry":{"type":"Point","coordinates":[5.692339,51.742315]},"properties":{"type":"charge","layer":"passenger","locationId":"3735197","name":"Laadnet Bergstraat 3","address":"Bergstraat 3","city":"Reek","operatorName":"Laadnet","maxPowerKw":22,"isMegawatt":false,"status":"CHARGING","source":"ndw"}},{"type":"Feature","geometry":{"type":"Point","coordinates":[5.617247,51.666355]},"properties":{"type":"charge","layer":"passenger","locationId":"ca0ab67c-48fd-4e61-ac4d-e07687cbe7cc","name":"St. Eloy","address":"St. Eloy 1","city":"UDEN","operatorName":"Vattenfall InCharge","maxPowerKw":11,"isMegawatt":false,"status":"CHARGING","source":"ndw"}},{"type":"Feature","geometry":{"type":"Point","coordinates":[5.617035,51.658686]},"properties":{"type":"charge","layer":"passenger","locationId":"6dc1158f-79d9-47cc-a237-c15d95557288","name":"Mondriaanplein 27","address":"Mondriaanplein 27","city":"Uden","operatorName":"Vattenfall InCharge","maxPowerKw":11,"isMegawatt":false,"status":"AVAILABLE","source":"ndw"}},{"type":"Feature","geometry":{"type":"Point","coordinates":[5.64816,51.67316]},"properties":{"type":"charge","layer":"passenger","locationId":"7dc4fd80-fc36-11ec-972b-42010aa40034","name":"Eneco eMobility Oostwijk 18 Uden","address":"Oostwijk 18","city":"Uden","operatorName":"Eneco","maxPowerKw":22,"isMegawatt":false,"status":"AVAILABLE","source":"ndw","priceKwh":0.55}},{"type":"Feature","geometry":{"type":"Point","coordinates":[5.643195,51.731382]},"properties":{"type":"charge","layer":"passenger","locationId":"6172c8b0e9fdf182405bfe39","name":"Vakantiepark Schaijk","address":"Hermanusweg 4","city":"Schaijk","operatorName":"E-Flux by Road","maxPowerKw":22,"isMegawatt":false,"status":"AVAILABLE","source":"ndw","priceKwh":0.63}},{"type":"Feature","geometry":{"type":"Point","coordinates":[5.618329,51.642379]},"properties":{"type":"charge","layer":"passenger","locationId":"130cd52e0343246cacea6dbb8b9b07f3","name":"Lentemorgen 43","address":"Lentemorgen 43","city":"Uden","operatorName":"Vattenfall InCharge","maxPowerKw":11,"isMegawatt":false,"status":"AVAILABLE","source":"ndw"}},{"type":"Feature","geometry":{"type":"Point","coordinates":[5.610317,51.663167]},"properties":{"type":"charge","layer":"passenger","locationId":"84a8a035-b138-406f-bc0c-a06013fac5ad","name":"Kapelstraat 13","address":"Kapelstraat 13","city":"Uden","operatorName":"Vattenfall InCharge","maxPowerKw":11,"isMegawatt":false,"status":"AVAILABLE","source":"ndw"}},{"type":"Feature","geometry":{"type":"Point","coordinates":[5.649759,51.741874]},"properties":{"type":"charge","layer":"passenger","locationId":"4227460","name":"Laadnet Peters Groep","address":"Scheltseweg 13","city":"Schaijk","operatorName":"Laadnet","maxPowerKw":90,"isMegawatt":false,"status":"AVAILABLE","source":"ndw"}},{"type":"Feature","geometry":{"type":"Point","coordinates":[5.606604,51.664926]},"properties":{"type":"charge","layer":"passenger","locationId":"cf6bd5f3-0505-40be-b54c-cc15eea323ef","name":"Ringbaan Noord","address":"Ringbaan Noord 19","city":"Uden","operatorName":"Vattenfall InCharge","maxPowerKw":11,"isMegawatt":false,"status":"AVAILABLE","source":"ndw"}},{"type":"Feature","geometry":{"type":"Point","coordinates":[5.608522,51.652731]},"properties":{"type":"charge","layer":"passenger","locationId":"19faa21f-7487-47ed-9bd7-313f7f11dd58","name":"Nonnenveld","address":"Nonnenveld 122","city":"Uden","operatorName":"Vattenfall InCharge","maxPowerKw":11,"isMegawatt":false,"status":"AVAILABLE","source":"ndw"}},{"type":"Feature","geometry":{"type":"Point","coordinates":[5.64889,51.672742]},"properties":{"type":"charge","layer":"passenger","locationId":"3778628","name":"Laadnet DLV Bouw, Milieu en Techniek BV","address":"Oostwijk 5","city":"Uden","operatorName":"Laadnet","maxPowerKw":22,"isMegawatt":false,"status":"UNAVAILABLE","source":"ndw"}},{"type":"Feature","geometry":{"type":"Point","coordinates":[5.61831,51.65501]},"properties":{"type":"charge","layer":"passenger","locationId":"0d336411-1e84-4464-b3f5-9e75a6b26830","name":"Biggenstraat","address":"Biggenstraat 98","city":"Uden","operatorName":"Vattenfall InCharge","maxPowerKw":11,"isMegawatt":false,"status":"AVAILABLE","source":"ndw"}},{"type":"Feature","geometry":{"type":"Point","coordinates":[5.621383,51.645174]},"properties":{"type":"charge","layer":"passenger","locationId":"de05ada7-86b2-442a-98ec-f0b57a98924d","name":"Hoenderbosplein","address":"Hoenderbosplein 11","city":"Uden","operatorName":"Vattenfall InCharge","maxPowerKw":11,"isMegawatt":false,"status":"AVAILABLE","source":"ndw"}},{"type":"Feature","geometry":{"type":"Point","coordinates":[5.611212,51.655242]},"properties":{"type":"charge","layer":"passenger","locationId":"c9473579-2b82-4d2b-8c77-6b18b054de42","name":"Wilhelminastraat","address":"Wilhelminastraat 95","city":"Uden","operatorName":"Vattenfall InCharge","maxPowerKw":11,"isMegawatt":false,"status":"AVAILABLE","source":"ndw"}},{"type":"Feature","geometry":{"type":"Point","coordinates":[5.640181,51.65727]},"properties":{"type":"charge","layer":"passenger","locationId":"e7621b00-014f-11ee-a3f3-42010aa40fdd","name":"Shell Recharge Loopkantstraat 25A","address":"Loopkantstraat 25A","city":"Uden","operatorName":"Shell Recharge","maxPowerKw":150,"isMegawatt":false,"status":"AVAILABLE","source":"ndw"}},{"type":"Feature","geometry":{"type":"Point","coordinates":[5.603001,51.671432]},"properties":{"type":"charge","layer":"passenger","locationId":"adad14ea-48e0-45a0-b289-04d9e60ba7dc","name":"Uden, Netherlands","address":"2, Rondweg","city":"Uden","operatorName":"Tesla","maxPowerKw":250,"isMegawatt":false,"status":"AVAILABLE","source":"ndw","priceKwh":0.5}},{"type":"Feature","geometry":{"type":"Point","coordinates":[5.645035,51.657746]},"properties":{"type":"charge","layer":"passenger","locationId":"922899","name":"DAE_NL_2000644","address":"Industrielaan 24","city":"Uden","operatorName":"DAEN Mobility","maxPowerKw":11,"isMegawatt":false,"status":"AVAILABLE","source":"ndw","priceKwh":0.42}},{"type":"Feature","geometry":{"type":"Point","coordinates":[5.656224,51.695432]},"properties":{"type":"charge","layer":"passenger","locationId":"7b0cc1ef7d6c4273a0ea","name":"Vakantiepark De Heische Tip - Zeeland, Straatsven","address":"Straatsven 4","city":"Zeeland","operatorName":"Opcharge","maxPowerKw":22,"isMegawatt":false,"status":"AVAILABLE","source":"ndw","priceKwh":0.49}},{"type":"Feature","geometry":{"type":"Point","coordinates":[5.639707,51.668625]},"properties":{"type":"charge","layer":"passenger","locationId":"6114cca6-b5e0-47e1-897a-e1afed828f87","name":"Sieberg","address":"Sieberg 605","city":"Uden","operatorName":"Vattenfall InCharge","maxPowerKw":11,"isMegawatt":false,"status":"AVAILABLE","source":"ndw"}},{"type":"Feature","geometry":{"type":"Point","coordinates":[5.670945,51.700768]},"properties":{"type":"charge","layer":"passenger","locationId":"541d4f68-4163-11ea-af72-42010a840003","name":"NL, Wasmeesterstraat 5, 5411 DG, Zeeland","address":"Wasmeesterstraat 5","city":"Zeeland","operatorName":"Allego","maxPowerKw":0,"isMegawatt":false,"status":"AVAILABLE","source":"ndw"}},{"type":"Feature","geometry":{"type":"Point","coordinates":[5.619524,51.655911]},"properties":{"type":"charge","layer":"passenger","locationId":"7ea71109b1879a641da65e7281a26976","name":"Burgemeester Thijssenstraat 31","address":"Burgemeester Thijssenstraat 31","city":"Uden","operatorName":"Vattenfall InCharge","maxPowerKw":11,"isMegawatt":false,"status":"AVAILABLE","source":"ndw"}},{"type":"Feature","geometry":{"type":"Point","coordinates":[5.63622,51.661439]},"properties":{"type":"charge","layer":"passenger","locationId":"026a281d-cf6b-46ce-b2a8-9f3402fce26f","name":"Vaarzenhof","address":"Vaarzenhof 301","city":"Uden","operatorName":"Vattenfall InCharge","maxPowerKw":11,"isMegawatt":false,"status":"AVAILABLE","source":"ndw"}},{"type":"Feature","geometry":{"type":"Point","coordinates":[5.61925,51.64437]},"properties":{"type":"charge","layer":"passenger","locationId":"04d28d4ef43c9be65f71108b104285f5","name":"Hoenderbosplein","address":"Hoenderbosplein","city":"Uden","operatorName":"Vattenfall InCharge","maxPowerKw":11,"isMegawatt":false,"status":"AVAILABLE","source":"ndw"}},{"type":"Feature","geometry":{"type":"Point","coordinates":[5.644906,51.741503]},"properties":{"type":"charge","layer":"passenger","locationId":"68a47266e8fd3fd48387e1ed","name":"AGO Groep Installatiebedrijven","address":"Industriepark  11 A/B","city":"Schaijk","operatorName":"E-Flux by Road","maxPowerKw":22,"isMegawatt":false,"status":"AVAILABLE","source":"ndw","priceKwh":0.78}},{"type":"Feature","geometry":{"type":"Point","coordinates":[5.653971,51.640028]},"properties":{"type":"charge","layer":"passenger","locationId":"50d45944f3f0a4039da034bb9646eac2","name":"Hermelijnstraat 25","address":"Hermelijnstraat 25","city":"Volkel","operatorName":"Vattenfall InCharge","maxPowerKw":11,"isMegawatt":false,"status":"AVAILABLE","source":"ndw"}},{"type":"Feature","geometry":{"type":"Point","coordinates":[5.682945,51.746656]},"properties":{"type":"charge","layer":"passenger","locationId":"b32768d8-6c2e-11ed-be4c-42010aa40fc0","name":"NL, Noordhoek 3, 5375 AR Reek","address":"Noordhoek 3","city":"Reek","operatorName":"Allego","maxPowerKw":0,"isMegawatt":false,"status":"AVAILABLE","source":"ndw"}},{"type":"Feature","geometry":{"type":"Point","coordinates":[5.645035,51.657746]},"properties":{"type":"charge","layer":"passenger","locationId":"922896","name":"DAE_NL_2000640","address":"Industrielaan 24","city":"Uden","operatorName":"DAEN Mobility","maxPowerKw":11,"isMegawatt":false,"status":"AVAILABLE","source":"ndw","priceKwh":0.42}},{"type":"Feature","geometry":{"type":"Point","coordinates":[5.615719,51.64463]},"properties":{"type":"charge","layer":"passenger","locationId":"923570","name":"DAE_NL_2001321","address":"schepel 24","city":"Maashorst","operatorName":"DAEN Mobility","maxPowerKw":11,"isMegawatt":false,"status":"AVAILABLE","source":"ndw","priceKwh":0.36}},{"type":"Feature","geometry":{"type":"Point","coordinates":[5.628775,51.664812]},"properties":{"type":"charge","layer":"passenger","locationId":"22f66d2a-06f9-4abd-81ff-21a14c40e063","name":"Schoutenhoek","address":"Schoutenhoek 701","city":"Uden","operatorName":"Vattenfall InCharge","maxPowerKw":11,"isMegawatt":false,"status":"AVAILABLE","source":"ndw"}},{"type":"Feature","geometry":{"type":"Point","coordinates":[5.647843,51.658537]},"properties":{"type":"charge","layer":"passenger","locationId":"3576490","name":"Laadnet Mondine Uden","address":"Kuiperstraat 2","city":"Uden","operatorName":"Laadnet","maxPowerKw":22,"isMegawatt":false,"status":"AVAILABLE","source":"ndw"}},{"type":"Feature","geometry":{"type":"Point","coordinates":[5.67293,51.696731]},"properties":{"type":"charge","layer":"passenger","locationId":"30e70590-3a28-11e9-b68b-42010a840003","name":"NLD, Rector van Gerwenstraat 4, 5411 EH Zeeland","address":"Rector van Gerwenstraat 4","city":"Zeeland","operatorName":"Allego","maxPowerKw":0,"isMegawatt":false,"status":"CHARGING","source":"ndw"}},{"type":"Feature","geometry":{"type":"Point","coordinates":[5.61512,51.66204]},"properties":{"type":"charge","layer":"passenger","locationId":"620c97c83ee5460415010da0868183c5","name":"Land van Ravensteinstraat 47","address":"Land van Ravensteinstraat 47","city":"Uden","operatorName":"Vattenfall InCharge","maxPowerKw":11,"isMegawatt":false,"status":"AVAILABLE","source":"ndw"}},{"type":"Feature","geometry":{"type":"Point","coordinates":[5.602512,51.670966]},"properties":{"type":"charge","layer":"passenger","locationId":"a1458bfa-4e20-11f0-b517-42010aa40043","name":"Allego - Van der Valk Uden-Veghel A50","address":"Rondweg 2","city":"Uden","operatorName":"Allego","maxPowerKw":0,"isMegawatt":false,"status":"AVAILABLE","source":"ndw"}},{"type":"Feature","geometry":{"type":"Point","coordinates":[5.617897,51.669525]},"properties":{"type":"charge","layer":"passenger","locationId":"184b6874-7db0-4273-969f-72b40fc6f576","name":"Dwarsfluitstraat","address":"Dwarsfluitstraat 20","city":"Uden","operatorName":"Vattenfall InCharge","maxPowerKw":11,"isMegawatt":false,"status":"AVAILABLE","source":"ndw"}},{"type":"Feature","geometry":{"type":"Point","coordinates":[5.625381,51.743795]},"properties":{"type":"charge","layer":"passenger","locationId":"8cdf7cc0-88cb-11ec-9dcc-42010a840003","name":"NL, Lange Spruit 49, 5374 JE Schaijk","address":"Lange Spruit 49","city":"Schaijk","operatorName":"Allego","maxPowerKw":0,"isMegawatt":false,"status":"AVAILABLE","source":"ndw"}},{"type":"Feature","geometry":{"type":"Point","coordinates":[5.645035,51.657746]},"properties":{"type":"charge","layer":"passenger","locationId":"922898","name":"DAE_NL_2000642","address":"Industrielaan 24","city":"Uden","operatorName":"DAEN Mobility","maxPowerKw":11,"isMegawatt":false,"status":"AVAILABLE","source":"ndw","priceKwh":0.42}},{"type":"Feature","geometry":{"type":"Point","coordinates":[5.621647,51.746557]},"properties":{"type":"charge","layer":"passenger","locationId":"a8ffca3c-28d8-47f3-a34e-68d2ed8b4ab6","name":"Bossestraat","address":"Bossestraat 56","city":"Schaijk","operatorName":"Vattenfall InCharge","maxPowerKw":11,"isMegawatt":false,"status":"AVAILABLE","source":"ndw"}},{"type":"Feature","geometry":{"type":"Point","coordinates":[5.637879,51.742671]},"properties":{"type":"charge","layer":"passenger","locationId":"e2330bfe-7925-11ea-b28a-42010a840003","name":"NL, Akkerwinde 50, 5374 DB, Schaijk","address":"Akkerwinde 50","city":"Schaijk","operatorName":"Allego","maxPowerKw":0,"isMegawatt":false,"status":"AVAILABLE","source":"ndw"}},{"type":"Feature","geometry":{"type":"Point","coordinates":[5.67089,51.67577]},"properties":{"type":"charge","layer":"passenger","locationId":"4289474","name":"Laadnet Cornelissen aannemingsbedrijf","address":"Boekelsedijk 22A","city":"Zeeland","operatorName":"Laadnet","maxPowerKw":22,"isMegawatt":false,"status":"AVAILABLE","source":"ndw"}},{"type":"Feature","geometry":{"type":"Point","coordinates":[5.645035,51.657746]},"properties":{"type":"charge","layer":"passenger","locationId":"923075","name":"DAE_NL_2000831_P01","address":"Industrielaan 24","city":"Uden","operatorName":"DAEN Mobility","maxPowerKw":11,"isMegawatt":false,"status":"AVAILABLE","source":"ndw","priceKwh":0.42}},{"type":"Feature","geometry":{"type":"Point","coordinates":[5.640766,51.672441]},"properties":{"type":"charge","layer":"passenger","locationId":"420099fcbef0060304c2ebe77d53fbe7","name":"Eikenwal  149","address":"Eikenwal  149","city":"Uden","operatorName":"Vattenfall InCharge","maxPowerKw":11,"isMegawatt":false,"status":"UNAVAILABLE","source":"ndw"}},{"type":"Feature","geometry":{"type":"Point","coordinates":[5.627864,51.657012]},"properties":{"type":"charge","layer":"passenger","locationId":"3089484e-6571-4f46-a6f4-9a86c9617973","name":"Millsebaan","address":"Millsebaan 36","city":"Uden","operatorName":"Vattenfall InCharge","maxPowerKw":11,"isMegawatt":false,"status":"CHARGING","source":"ndw"}},{"type":"Feature","geometry":{"type":"Point","coordinates":[5.68303,51.69811]},"properties":{"type":"charge","layer":"passenger","locationId":"df36875513092be45d55d499aa08f061","name":"Veldzuring 2","address":"Veldzuring 2","city":"Zeeland","operatorName":"Vattenfall InCharge","maxPowerKw":11,"isMegawatt":false,"status":"AVAILABLE","source":"ndw"}},{"type":"Feature","geometry":{"type":"Point","coordinates":[5.632789,51.745479]},"properties":{"type":"charge","layer":"passenger","locationId":"248a90c4-8525-4479-95e9-f3601afb8085","name":"Kapelanieplein","address":"Kapelanieplein 4","city":"Schaijk","operatorName":"Vattenfall InCharge","maxPowerKw":11,"isMegawatt":false,"status":"AVAILABLE","source":"ndw"}},{"type":"Feature","geometry":{"type":"Point","coordinates":[5.63267,51.660293]},"properties":{"type":"charge","layer":"passenger","locationId":"0f6b7001-1e35-4407-bbc9-7eb1ef777d77","name":"Jonkerveld","address":"Jonkerveld 421","city":"Uden","operatorName":"Vattenfall InCharge","maxPowerKw":11,"isMegawatt":false,"status":"AVAILABLE","source":"ndw"}},{"type":"Feature","geometry":{"type":"Point","coordinates":[5.620696,51.653654]},"properties":{"type":"charge","layer":"passenger","locationId":"9bcb5dad-343e-4a95-822d-5a60fe7ecd64","name":"Staaldraad","address":"Staaldraad 30","city":"Uden","operatorName":"Vattenfall InCharge","maxPowerKw":11,"isMegawatt":false,"status":"AVAILABLE","source":"ndw"}},{"type":"Feature","geometry":{"type":"Point","coordinates":[5.64236,51.650898]},"properties":{"type":"charge","layer":"passenger","locationId":"6582de6de8542c001c4a0028","name":"Timmers Projecten en Service 's station","address":"industrielaan 5","city":"uden","operatorName":"E-Flux by Road","maxPowerKw":22,"isMegawatt":false,"status":"AVAILABLE","source":"ndw","priceKwh":0.43}},{"type":"Feature","geometry":{"type":"Point","coordinates":[5.654688,51.641067]},"properties":{"type":"charge","layer":"passenger","locationId":"cf434a52b14cbbc863c57042cccd6a99","name":"Wezelstraat 28","address":"Wezelstraat 28","city":"Volkel","operatorName":"Vattenfall InCharge","maxPowerKw":11,"isMegawatt":false,"status":"AVAILABLE","source":"ndw"}},{"type":"Feature","geometry":{"type":"Point","coordinates":[5.627254,51.646547]},"properties":{"type":"charge","layer":"passenger","locationId":"3d83c421-0590-4b91-b777-61326079efe6","name":"Rozebeker","address":"Rozebeker 52","city":"Uden","operatorName":"Vattenfall InCharge","maxPowerKw":11,"isMegawatt":false,"status":"AVAILABLE","source":"ndw"}},{"type":"Feature","geometry":{"type":"Point","coordinates":[5.6347,51.75139]},"properties":{"type":"charge","layer":"passenger","locationId":"f8521b0fd373dcbb0d025a0a4e99d24b","name":"Lisdodde 19","address":"Lisdodde 19","city":"Schaijk","operatorName":"Vattenfall InCharge","maxPowerKw":11,"isMegawatt":false,"status":"AVAILABLE","source":"ndw"}},{"type":"Feature","geometry":{"type":"Point","coordinates":[5.64236,51.650898]},"properties":{"type":"charge","layer":"passenger","locationId":"6582dea06b0f5c001c85fb14","name":"Timmers Projecten en Service 's station","address":"industrielaan  5","city":"uden","operatorName":"E-Flux by Road","maxPowerKw":22,"isMegawatt":false,"status":"AVAILABLE","source":"ndw","priceKwh":0.43}},{"type":"Feature","geometry":{"type":"Point","coordinates":[5.633369,51.644661]},"properties":{"type":"charge","layer":"passenger","locationId":"f7527363951f7b53f086308af460e53b","name":"Muntmeester 299","address":"Muntmeester 299","city":"Uden","operatorName":"Vattenfall InCharge","maxPowerKw":11,"isMegawatt":false,"status":"AVAILABLE","source":"ndw"}},{"type":"Feature","geometry":{"type":"Point","coordinates":[5.64721,51.67275]},"properties":{"type":"charge","layer":"passenger","locationId":"3AA359CB-AE8B-4ACB-99E3-E7A05DC58311","name":"Eneco eMobility Oostwijk 1A Uden","address":"Oostwijk 1A","city":"Uden","operatorName":"Eneco","maxPowerKw":0,"isMegawatt":false,"status":"UNAVAILABLE","source":"ndw","priceKwh":0.32}},{"type":"Feature","geometry":{"type":"Point","coordinates":[5.641358,51.662873]},"properties":{"type":"charge","layer":"passenger","locationId":"1fa485c59ea521980ee1f3ac71d24c99","name":"Raamsingel 70","address":"Raamsingel 70","city":"Uden","operatorName":"Vattenfall InCharge","maxPowerKw":11,"isMegawatt":false,"status":"AVAILABLE","source":"ndw"}},{"type":"Feature","geometry":{"type":"Point","coordinates":[5.576407,51.662843]},"properties":{"type":"charge","layer":"passenger","locationId":"56141c42-3159-11ec-bc11-42010a840003","name":"EQUANS Fletcher Fletcher Resort Teugel","address":"Bedafseweg 22","city":"Uden","operatorName":"EQUANS","maxPowerKw":0,"isMegawatt":false,"status":"AVAILABLE","source":"ndw","priceKwh":0.4}},{"type":"Feature","geometry":{"type":"Point","coordinates":[5.636532,51.746398]},"properties":{"type":"charge","layer":"passenger","locationId":"2684905","name":"Laadnet Point O B.V. (Schaijk)","address":"Pastoor van Winkelstraat 39","city":"Schaijk","operatorName":"Laadnet","maxPowerKw":22,"isMegawatt":false,"status":"AVAILABLE","source":"ndw"}},{"type":"Feature","geometry":{"type":"Point","coordinates":[5.611171,51.653523]},"properties":{"type":"charge","layer":"passenger","locationId":"c4a128dd-5e76-4167-93bd-6915685925b8","name":"Abdijhof","address":"Abdijhof 32","city":"Uden","operatorName":"Vattenfall InCharge","maxPowerKw":11,"isMegawatt":false,"status":"AVAILABLE","source":"ndw"}},{"type":"Feature","geometry":{"type":"Point","coordinates":[5.625316,51.743939]},"properties":{"type":"charge","layer":"passenger","locationId":"ca662769b8c27a54a6332ecc211fbffa","name":"Korte Zwaard 10","address":"Korte Zwaard 10","city":"Schaijk","operatorName":"Vattenfall InCharge","maxPowerKw":11,"isMegawatt":false,"status":"AVAILABLE","source":"ndw"}},{"type":"Feature","geometry":{"type":"Point","coordinates":[5.611776,51.645975]},"properties":{"type":"charge","layer":"passenger","locationId":"f247b6b579848f50275f57ff8dea915f","name":"Stalreep 50","address":"Stalreep 50","city":"Uden","operatorName":"Vattenfall InCharge","maxPowerKw":11,"isMegawatt":false,"status":"AVAILABLE","source":"ndw"}},{"type":"Feature","geometry":{"type":"Point","coordinates":[5.6355,51.66912]},"properties":{"type":"charge","layer":"passenger","locationId":"87d04486-0cc3-4585-8d49-b4568ec6a167","name":"Bermershof","address":"Bermershof 201","city":"Uden","operatorName":"Vattenfall InCharge","maxPowerKw":11,"isMegawatt":false,"status":"AVAILABLE","source":"ndw"}},{"type":"Feature","geometry":{"type":"Point","coordinates":[5.6165,51.650427]},"properties":{"type":"charge","layer":"passenger","locationId":"356be138-9b32-4279-a735-6f8ea2a2ec25","name":"Zicht","address":"Zicht 20","city":"Uden","operatorName":"Vattenfall InCharge","maxPowerKw":11,"isMegawatt":false,"status":"AVAILABLE","source":"ndw"}},{"type":"Feature","geometry":{"type":"Point","coordinates":[5.68222,51.739635]},"properties":{"type":"charge","layer":"passenger","locationId":"67a485d6257d6960941a62f6","name":"Parkeerplaats Rechts","address":"MGR. Borretstraat 63","city":"REEK","operatorName":"E-Flux by Road","maxPowerKw":11,"isMegawatt":false,"status":"AVAILABLE","source":"ndw","priceKwh":0.29}},{"type":"Feature","geometry":{"type":"Point","coordinates":[5.609229,51.658232]},"properties":{"type":"charge","layer":"passenger","locationId":"fd0de6b8-d391-453f-82f4-5666c899ada7","name":"Meester van Coothstraat 41","address":"Meester van Coothstraat 41","city":"Uden","operatorName":"Vattenfall InCharge","maxPowerKw":11,"isMegawatt":false,"status":"AVAILABLE","source":"ndw"}},{"type":"Feature","geometry":{"type":"Point","coordinates":[5.635514,51.737011]},"properties":{"type":"charge","layer":"passenger","locationId":"6628c3e5141afd001c1f127f","name":"Nieuw Schaijk BV","address":"Rijksweg 46","city":"Schaijk","operatorName":"E-Flux by Road","maxPowerKw":22,"isMegawatt":false,"status":"AVAILABLE","source":"ndw","priceKwh":0.58}},{"type":"Feature","geometry":{"type":"Point","coordinates":[5.612907,51.64507]},"properties":{"type":"charge","layer":"passenger","locationId":"56aa989c6db0b8f74c4bc7aecdada20e","name":"Stalreep 96","address":"Stalreep 96","city":"Uden","operatorName":"Vattenfall InCharge","maxPowerKw":11,"isMegawatt":false,"status":"AVAILABLE","source":"ndw"}},{"type":"Feature","geometry":{"type":"Point","coordinates":[5.641768,51.671084]},"properties":{"type":"charge","layer":"passenger","locationId":"66916ecef7ed07001c1ff9b3","name":"Bernards 's station","address":"Morene 131","city":"Uden","operatorName":"E-Flux by Road","maxPowerKw":11,"isMegawatt":false,"status":"AVAILABLE","source":"ndw","priceKwh":0.45}},{"type":"Feature","geometry":{"type":"Point","coordinates":[5.619638,51.67085]},"properties":{"type":"charge","layer":"passenger","locationId":"2e819df7-4d8a-4afc-bb16-51ba789ebb5a","name":"Klarinetstraat","address":"Klarinetstraat 45","city":"Uden","operatorName":"Vattenfall InCharge","maxPowerKw":11,"isMegawatt":false,"status":"AVAILABLE","source":"ndw"}},{"type":"Feature","geometry":{"type":"Point","coordinates":[5.634578,51.661419]},"properties":{"type":"charge","layer":"passenger","locationId":"5b166404-5542-48b3-a992-1fa425de5de2","name":"Hofstukken","address":"Hofstukken 316","city":"Uden","operatorName":"Vattenfall InCharge","maxPowerKw":11,"isMegawatt":false,"status":"CHARGING","source":"ndw"}},{"type":"Feature","geometry":{"type":"Point","coordinates":[5.68222,51.739635]},"properties":{"type":"charge","layer":"passenger","locationId":"67a49704fb474c8804f7785b","name":"Parkeerplaats Links","address":"MGR. Borretstraat 63","city":"REEK","operatorName":"E-Flux by Road","maxPowerKw":22,"isMegawatt":false,"status":"AVAILABLE","source":"ndw","priceKwh":0.29}},{"type":"Feature","geometry":{"type":"Point","coordinates":[5.61891,51.652971]},"properties":{"type":"charge","layer":"passenger","locationId":"9be51dbbf59077997a97c9ace92dfb87","name":"Veilingstraat 2","address":"Veilingstraat 2","city":"Uden","operatorName":"Vattenfall InCharge","maxPowerKw":11,"isMegawatt":false,"status":"AVAILABLE","source":"ndw"}},{"type":"Feature","geometry":{"type":"Point","coordinates":[5.613392,51.659865]},"properties":{"type":"charge","layer":"passenger","locationId":"0581dc12be6f735aa280a51caef2a410","name":"Burgemeester Buskensstraat 89","address":"Burgemeester Buskensstraat 89","city":"Uden","operatorName":"Vattenfall InCharge","maxPowerKw":11,"isMegawatt":false,"status":"CHARGING","source":"ndw"}},{"type":"Feature","geometry":{"type":"Point","coordinates":[5.630372,51.744631]},"properties":{"type":"charge","layer":"passenger","locationId":"60012b64-015a-4d4d-aafe-be14d0467220","name":"Zwingelhof","address":"Zwingelhof 9","city":"Schaijk","operatorName":"Vattenfall InCharge","maxPowerKw":11,"isMegawatt":false,"status":"CHARGING","source":"ndw"}},{"type":"Feature","geometry":{"type":"Point","coordinates":[5.68406,51.74489]},"properties":{"type":"charge","layer":"passenger","locationId":"9157f1545cdabef4fa7863e9f686cefd","name":"Kennedyplein 16","address":"Kennedyplein 16","city":"Reek","operatorName":"Vattenfall InCharge","maxPowerKw":11,"isMegawatt":false,"status":"AVAILABLE","source":"ndw"}},{"type":"Feature","geometry":{"type":"Point","coordinates":[5.625381,51.743795]},"properties":{"type":"charge","layer":"passenger","locationId":"NLLOC018572","name":"NL, Lange Spruit 49, 5374 JE Schaijk","address":"Lange Spruit 49","city":"Schaijk","operatorName":"Allego","maxPowerKw":0,"isMegawatt":false,"status":"AVAILABLE","source":"ndw","priceKwh":0.511}},{"type":"Feature","geometry":{"type":"Point","coordinates":[5.629215,51.66308]},"properties":{"type":"charge","layer":"passenger","locationId":"5e3bfdfc-91c9-4b6c-9f9c-3b0a5d5de385","name":"Schoutenhoek","address":"Schoutenhoek 212","city":"Uden","operatorName":"Vattenfall InCharge","maxPowerKw":11,"isMegawatt":false,"status":"AVAILABLE","source":"ndw"}},{"type":"Feature","geometry":{"type":"Point","coordinates":[5.576407,51.662843]},"properties":{"type":"charge","layer":"passenger","locationId":"88946571","name":"EQUANS Fletcher Fletcher Resort Teugel","address":"Bedafseweg 22","city":"Uden","operatorName":"EQUANS","maxPowerKw":0,"isMegawatt":false,"status":"AVAILABLE","source":"ndw"}},{"type":"Feature","geometry":{"type":"Point","coordinates":[5.636035,51.654282]},"properties":{"type":"charge","layer":"passenger","locationId":"0be96563-1a19-46f5-ae86-ed3d750be63a","name":"Missiezusterslaan 28","address":"Missiezusterslaan 28","city":"Uden","operatorName":"Vattenfall InCharge","maxPowerKw":11,"isMegawatt":false,"status":"AVAILABLE","source":"ndw"}},{"type":"Feature","geometry":{"type":"Point","coordinates":[5.617987,51.656801]},"properties":{"type":"charge","layer":"passenger","locationId":"f34c30d3-cd13-4bf6-9bc4-abfc1de74eba","name":"Markt 147","address":"Markt 147","city":"Uden","operatorName":"Vattenfall InCharge","maxPowerKw":11,"isMegawatt":false,"status":"AVAILABLE","source":"ndw"}},{"type":"Feature","geometry":{"type":"Point","coordinates":[5.631071,51.749995]},"properties":{"type":"charge","layer":"passenger","locationId":"93f5683e95976758a3dee3d14424ded4","name":"Smidse 121","address":"Smidse 121","city":"Schaijk","operatorName":"Vattenfall InCharge","maxPowerKw":11,"isMegawatt":false,"status":"AVAILABLE","source":"ndw"}},{"type":"Feature","geometry":{"type":"Point","coordinates":[5.64189,51.72078]},"properties":{"type":"charge","layer":"passenger","locationId":"1509864","name":"Laadnet De Buitenhorst VOF","address":"Franse baan 4","city":"Schaijk","operatorName":"Laadnet","maxPowerKw":22,"isMegawatt":false,"status":"AVAILABLE","source":"ndw"}},{"type":"Feature","geometry":{"type":"Point","coordinates":[5.604661,51.651255]},"properties":{"type":"charge","layer":"passenger","locationId":"65d6427a-5a2f-4cd3-8bec-9e5643dd1856","name":"Broekmorgen","address":"Broekmorgen 28","city":"Uden","operatorName":"Vattenfall InCharge","maxPowerKw":11,"isMegawatt":false,"status":"AVAILABLE","source":"ndw"}},{"type":"Feature","geometry":{"type":"Point","coordinates":[5.640679,51.646541]},"properties":{"type":"charge","layer":"passenger","locationId":"65fdaee3041a34001cdb5c92","name":"Beekvloed 20","address":"Beekvloed 20","city":"volkel","operatorName":"E-Flux by Road","maxPowerKw":22,"isMegawatt":false,"status":"UNAVAILABLE","source":"ndw","priceKwh":0.38}},{"type":"Feature","geometry":{"type":"Point","coordinates":[5.64008,51.74179]},"properties":{"type":"charge","layer":"passenger","locationId":"0a4456ce2b7c4cf26b2d8dc0a8f5bb72","name":"Ekstershoef 15","address":"Ekstershoef 15","city":"Schaijk","operatorName":"Vattenfall InCharge","maxPowerKw":11,"isMegawatt":false,"status":"AVAILABLE","source":"ndw"}},{"type":"Feature","geometry":{"type":"Point","coordinates":[5.656981,51.721197]},"properties":{"type":"charge","layer":"passenger","locationId":"667d2f24f1cfd4001c7826bf","name":"Camping de Heidebloem - Schaijk","address":"Noordhoekstraat 5","city":"Schaijk","operatorName":"Fleet Charge Services","maxPowerKw":11,"isMegawatt":false,"status":"AVAILABLE","source":"ndw","priceKwh":0.63}},{"type":"Feature","geometry":{"type":"Point","coordinates":[5.606487,51.660248]},"properties":{"type":"charge","layer":"passenger","locationId":"e09b48844585006c5cd478c2aec4ce34","name":"Groeneweg 38","address":"Groeneweg 38","city":"Uden","operatorName":"Vattenfall InCharge","maxPowerKw":11,"isMegawatt":false,"status":"AVAILABLE","source":"ndw"}},{"type":"Feature","geometry":{"type":"Point","coordinates":[5.631038,51.643402]},"properties":{"type":"charge","layer":"passenger","locationId":"fdc922d2-189b-4f26-b777-03670ffad0cc","name":"Muntmeester","address":"Muntmeester 164","city":"Uden","operatorName":"Vattenfall InCharge","maxPowerKw":11,"isMegawatt":false,"status":"CHARGING","source":"ndw"}},{"type":"Feature","geometry":{"type":"Point","coordinates":[5.609571,51.654238]},"properties":{"type":"charge","layer":"passenger","locationId":"d8a855f9-f8fe-49e3-b68a-5e7ba2b35222","name":"Abdijlaan 76","address":"Abdijlaan 76","city":"Uden","operatorName":"Vattenfall InCharge","maxPowerKw":11,"isMegawatt":false,"status":"AVAILABLE","source":"ndw"}},{"type":"Feature","geometry":{"type":"Point","coordinates":[5.632448,51.643271]},"properties":{"type":"charge","layer":"passenger","locationId":"1edf0ad7dfe5deeb05371b73b598cf71","name":"Muntmeester 177a","address":"Muntmeester 177a","city":"Uden","operatorName":"Vattenfall InCharge","maxPowerKw":11,"isMegawatt":false,"status":"AVAILABLE","source":"ndw"}},{"type":"Feature","geometry":{"type":"Point","coordinates":[5.645035,51.657746]},"properties":{"type":"charge","layer":"passenger","locationId":"923076","name":"DAE_NL_2001297","address":"Industrielaan 24","city":"Uden","operatorName":"DAEN Mobility","maxPowerKw":11,"isMegawatt":false,"status":"AVAILABLE","source":"ndw","priceKwh":0.42}},{"type":"Feature","geometry":{"type":"Point","coordinates":[5.634181,51.659735]},"properties":{"type":"charge","layer":"passenger","locationId":"bb4b1c55-dfd3-4deb-8bef-af7d8defb28f","name":"Bosveld","address":"Bosveld 604","city":"Uden","operatorName":"Vattenfall InCharge","maxPowerKw":11,"isMegawatt":false,"status":"AVAILABLE","source":"ndw"}},{"type":"Feature","geometry":{"type":"Point","coordinates":[5.633913,51.667892]},"properties":{"type":"charge","layer":"passenger","locationId":"a9d86115-1dc8-41ba-a0b3-45e05bd18495","name":"Bermershof","address":"Bermershof 821","city":"Uden","operatorName":"Vattenfall InCharge","maxPowerKw":11,"isMegawatt":false,"status":"AVAILABLE","source":"ndw"}},{"type":"Feature","geometry":{"type":"Point","coordinates":[5.627836,51.665941]},"properties":{"type":"charge","layer":"passenger","locationId":"6f1e06ea-a806-42d7-9048-d3e91e2af282","name":"Landschrijversveld","address":"Landschrijversveld 206","city":"Uden","operatorName":"Vattenfall InCharge","maxPowerKw":11,"isMegawatt":false,"status":"AVAILABLE","source":"ndw"}},{"type":"Feature","geometry":{"type":"Point","coordinates":[5.604391,51.667981]},"properties":{"type":"charge","layer":"passenger","locationId":"5e028204-69bf-4a8a-b447-f17d591b9259","name":"Sterappel","address":"Sterappel 4","city":"Uden","operatorName":"Vattenfall InCharge","maxPowerKw":11,"isMegawatt":false,"status":"AVAILABLE","source":"ndw"}},{"type":"Feature","geometry":{"type":"Point","coordinates":[5.63459,51.74004]},"properties":{"type":"charge","layer":"passenger","locationId":"e8fa6f9e4ad7a240e89e7c6b1d45f2d1","name":"Hofse Hoeve 1","address":"Hofse Hoeve 1","city":"Schaijk","operatorName":"Vattenfall InCharge","maxPowerKw":11,"isMegawatt":false,"status":"AVAILABLE","source":"ndw"}},{"type":"Feature","geometry":{"type":"Point","coordinates":[5.619191,51.672987]},"properties":{"type":"charge","layer":"passenger","locationId":"a99e47f6-c76b-45cc-85f2-f8fd9fe38119","name":"Basstraat","address":"Basstraat 17","city":"Uden","operatorName":"Vattenfall InCharge","maxPowerKw":11,"isMegawatt":false,"status":"AVAILABLE","source":"ndw"}},{"type":"Feature","geometry":{"type":"Point","coordinates":[5.635671,51.745301]},"properties":{"type":"charge","layer":"passenger","locationId":"896067a7-8ec0-4276-873b-a28636893b58","name":"Burgemeester van Rijckevorselstraat","address":"Burgemeester van Rijckevorselstraat 30","city":"Schaijk","operatorName":"Vattenfall InCharge","maxPowerKw":11,"isMegawatt":false,"status":"AVAILABLE","source":"ndw"}},{"type":"Feature","geometry":{"type":"Point","coordinates":[5.611902,51.646071]},"properties":{"type":"charge","layer":"passenger","locationId":"f637f257-d03c-4ab5-9763-5beee784798e","name":"Stalreep","address":"Stalreep 56","city":"Uden","operatorName":"Vattenfall InCharge","maxPowerKw":11,"isMegawatt":false,"status":"AVAILABLE","source":"ndw"}},{"type":"Feature","geometry":{"type":"Point","coordinates":[5.673195,51.701892]},"properties":{"type":"charge","layer":"passenger","locationId":"104da959-7c95-43ae-a14f-862900035c1d","name":"Eikenboogstraat","address":"Eikenboogstraat 5","city":"Zeeland","operatorName":"Vattenfall InCharge","maxPowerKw":11,"isMegawatt":false,"status":"AVAILABLE","source":"ndw"}},{"type":"Feature","geometry":{"type":"Point","coordinates":[5.607705,51.657925]},"properties":{"type":"charge","layer":"passenger","locationId":"9d610021-d75f-4e3b-9da7-c65bfa1495ac","name":"Meester van Coothstraat","address":"Meester van Coothstraat 2","city":"Uden","operatorName":"Vattenfall InCharge","maxPowerKw":11,"isMegawatt":false,"status":"AVAILABLE","source":"ndw"}},{"type":"Feature","geometry":{"type":"Point","coordinates":[5.618179,51.651331]},"properties":{"type":"charge","layer":"passenger","locationId":"52c8ad6b-ca4f-471d-9871-c80ad0d95294","name":"Koreschoep","address":"Koreschoep 3","city":"Uden","operatorName":"Vattenfall InCharge","maxPowerKw":11,"isMegawatt":false,"status":"AVAILABLE","source":"ndw"}},{"type":"Feature","geometry":{"type":"Point","coordinates":[5.626274,51.649171]},"properties":{"type":"charge","layer":"passenger","locationId":"c3380ea034b2d260a6ff80c1877a481b","name":"Vijverlaan 7","address":"Vijverlaan 7","city":"Uden","operatorName":"Vattenfall InCharge","maxPowerKw":11,"isMegawatt":false,"status":"AVAILABLE","source":"ndw"}},{"type":"Feature","geometry":{"type":"Point","coordinates":[5.705243,51.643595]},"properties":{"type":"charge","layer":"passenger","locationId":"31caf03f-3085-4634-861e-8c0c59ea135b","name":"Oudedijk 51","address":"Oudedijk 51","city":"Odiliapeel","operatorName":"Vattenfall InCharge","maxPowerKw":11,"isMegawatt":false,"status":"AVAILABLE","source":"ndw"}},{"type":"Feature","geometry":{"type":"Point","coordinates":[5.702299,51.645179]},"properties":{"type":"charge","layer":"passenger","locationId":"ee50615b48b07ab819b2d23614c98f79","name":"Oudedijk 30A","address":"Oudedijk 30A","city":"Odiliapeel","operatorName":"Vattenfall InCharge","maxPowerKw":11,"isMegawatt":false,"status":"AVAILABLE","source":"ndw"}},{"type":"Feature","geometry":{"type":"Point","coordinates":[5.709223,51.639886]},"properties":{"type":"charge","layer":"passenger","locationId":"595eb63c-a6dc-4a41-90d9-2ad3a7a77cb8","name":"Zonnedauw 12","address":"Zonnedauw 12","city":"Odiliapeel","operatorName":"Vattenfall InCharge","maxPowerKw":11,"isMegawatt":false,"status":"AVAILABLE","source":"ndw"}},{"type":"Feature","geometry":{"type":"Point","coordinates":[5.614168,51.652016]},"properties":{"type":"charge","layer":"passenger","locationId":"921f55b6-327c-4715-93e0-d2ae01ef8b73","name":"Abdijlaan","address":"Abdijlaan 372","city":"Uden","operatorName":"Vattenfall InCharge","maxPowerKw":11,"isMegawatt":false,"status":"AVAILABLE","source":"ndw"}},{"type":"Feature","geometry":{"type":"Point","coordinates":[5.670319,51.697508]},"properties":{"type":"charge","layer":"passenger","locationId":"94cccf0e-a7c6-4020-9013-9b1fac1edac4","name":"Burgerveld","address":"Burgerveld 33","city":"Zeeland","operatorName":"Vattenfall InCharge","maxPowerKw":11,"isMegawatt":false,"status":"AVAILABLE","source":"ndw"}},{"type":"Feature","geometry":{"type":"Point","coordinates":[5.619736,51.665193]},"properties":{"type":"charge","layer":"passenger","locationId":"e8f3a036-919e-42d9-92a9-c090ec752500","name":"CuijkstraatValkenburgstraat","address":"CuijkstraatValkenburgstraat 8","city":"Uden","operatorName":"Vattenfall InCharge","maxPowerKw":11,"isMegawatt":false,"status":"AVAILABLE","source":"ndw"}},{"type":"Feature","geometry":{"type":"Point","coordinates":[5.625261,51.663767]},"properties":{"type":"charge","layer":"passenger","locationId":"74f29450-6afb-4248-9414-151a725fc811","name":"Schepenhoek 307","address":"Schepenhoek 307","city":"Uden","operatorName":"Vattenfall InCharge","maxPowerKw":11,"isMegawatt":false,"status":"AVAILABLE","source":"ndw"}},{"type":"Feature","geometry":{"type":"Point","coordinates":[5.628851,51.653825]},"properties":{"type":"charge","layer":"passenger","locationId":"400708c3ad8e61a48a293e6d54b2eb8c","name":"Sportlaan 2","address":"Sportlaan 2","city":"Uden","operatorName":"Vattenfall InCharge","maxPowerKw":11,"isMegawatt":false,"status":"AVAILABLE","source":"ndw"}},{"type":"Feature","geometry":{"type":"Point","coordinates":[5.684888,51.744533]},"properties":{"type":"charge","layer":"passenger","locationId":"0e2f4d13-486f-4f3c-8555-ed67e159b8a2","name":"Wethouder Zegersstraat","address":"Wethouder Zegersstraat 63","city":"Reek","operatorName":"Vattenfall InCharge","maxPowerKw":11,"isMegawatt":false,"status":"AVAILABLE","source":"ndw"}},{"type":"Feature","geometry":{"type":"Point","coordinates":[5.628404,51.64298]},"properties":{"type":"charge","layer":"passenger","locationId":"bb6a4a5a-6871-4f37-a335-5866de1f4411","name":"Muntmeester","address":"Muntmeester 130","city":"Uden","operatorName":"Vattenfall InCharge","maxPowerKw":11,"isMegawatt":false,"status":"AVAILABLE","source":"ndw"}},{"type":"Feature","geometry":{"type":"Point","coordinates":[5.639442,51.672252]},"properties":{"type":"charge","layer":"passenger","locationId":"87810640-5803-4529-8500-4f205fe02e37","name":"Den Brier","address":"Den Brier 231","city":"Uden","operatorName":"Vattenfall InCharge","maxPowerKw":11,"isMegawatt":false,"status":"AVAILABLE","source":"ndw"}},{"type":"Feature","geometry":{"type":"Point","coordinates":[5.621807,51.664794]},"properties":{"type":"charge","layer":"passenger","locationId":"74c4faed63f753c7fe461ce297916212","name":"Salmstraat 60","address":"Salmstraat 60","city":"Uden","operatorName":"Vattenfall InCharge","maxPowerKw":11,"isMegawatt":false,"status":"AVAILABLE","source":"ndw"}},{"type":"Feature","geometry":{"type":"Point","coordinates":[5.63027,51.747887]},"properties":{"type":"charge","layer":"passenger","locationId":"a4dc801ca4e86cea1e6847917ff7328c","name":"Runstraat 12","address":"Runstraat 12","city":"Schaijk","operatorName":"Vattenfall InCharge","maxPowerKw":11,"isMegawatt":false,"status":"AVAILABLE","source":"ndw"}},{"type":"Feature","geometry":{"type":"Point","coordinates":[5.606187,51.672159]},"properties":{"type":"charge","layer":"passenger","locationId":"2b5e7105-e443-49b9-896c-a97cac2b27d2","name":"Nistelrodeseweg 10","address":"Nistelrodeseweg 10","city":"Uden","operatorName":"Vattenfall InCharge","maxPowerKw":11,"isMegawatt":false,"status":"AVAILABLE","source":"ndw"}},{"type":"Feature","geometry":{"type":"Point","coordinates":[5.617437,51.643686]},"properties":{"type":"charge","layer":"passenger","locationId":"05f075d6-a0c3-43b8-b57f-97b107a84f53","name":"Hoenderbosplein","address":"Hoenderbosplein 149","city":"Uden","operatorName":"Vattenfall InCharge","maxPowerKw":11,"isMegawatt":false,"status":"CHARGING","source":"ndw"}},{"type":"Feature","geometry":{"type":"Point","coordinates":[5.66127,51.64599]},"properties":{"type":"charge","layer":"passenger","locationId":"24829c010a80c499924b24e8156b5f29","name":"Kroatenstraat 32","address":"Kroatenstraat 32","city":"Volkel","operatorName":"Vattenfall InCharge","maxPowerKw":11,"isMegawatt":false,"status":"AVAILABLE","source":"ndw"}},{"type":"Feature","geometry":{"type":"Point","coordinates":[5.623091,51.650873]},"properties":{"type":"charge","layer":"passenger","locationId":"922761","name":"DAE-NL-2000432","address":"Velmolenweg 54a","city":"Uden","operatorName":"DAEN Mobility","maxPowerKw":11,"isMegawatt":false,"status":"UNAVAILABLE","source":"ndw","priceKwh":0.5}},{"type":"Feature","geometry":{"type":"Point","coordinates":[5.621333,51.663764]},"properties":{"type":"charge","layer":"passenger","locationId":"faee22aa-5b64-4666-8f9b-66f01849e80b","name":"Leeuweriksweg","address":"Leeuweriksweg 57","city":"Uden","operatorName":"Vattenfall InCharge","maxPowerKw":11,"isMegawatt":false,"status":"AVAILABLE","source":"ndw"}},{"type":"Feature","geometry":{"type":"Point","coordinates":[5.611135,51.652622]},"properties":{"type":"charge","layer":"passenger","locationId":"060e8785-1807-472c-b235-891507c863e8","name":"Abdijlaan","address":"Abdijlaan 311","city":"Uden","operatorName":"Vattenfall InCharge","maxPowerKw":11,"isMegawatt":false,"status":"AVAILABLE","source":"ndw"}},{"type":"Feature","geometry":{"type":"Point","coordinates":[5.645035,51.657746]},"properties":{"type":"charge","layer":"passenger","locationId":"923077","name":"DAE_NL_2000833_P03","address":"Industrielaan 24","city":"Uden","operatorName":"DAEN Mobility","maxPowerKw":11,"isMegawatt":false,"status":"AVAILABLE","source":"ndw","priceKwh":0.42}},{"type":"Feature","geometry":{"type":"Point","coordinates":[5.636712,51.645286]},"properties":{"type":"charge","layer":"passenger","locationId":"6d3310c0-b639-49bd-98de-87669787adb7","name":"Helmteken","address":"Helmteken 24","city":"Uden","operatorName":"Vattenfall InCharge","maxPowerKw":11,"isMegawatt":false,"status":"CHARGING","source":"ndw"}},{"type":"Feature","geometry":{"type":"Point","coordinates":[5.6118,51.667083]},"properties":{"type":"charge","layer":"passenger","locationId":"e6fb4845-f9cf-4bdb-8b47-d41a8c7aa12f","name":"Vaaldriessenstraat","address":"Vaaldriessenstraat 1","city":"Uden","operatorName":"Vattenfall InCharge","maxPowerKw":11,"isMegawatt":false,"status":"AVAILABLE","source":"ndw"}},{"type":"Feature","geometry":{"type":"Point","coordinates":[5.618955,51.642009]},"properties":{"type":"charge","layer":"passenger","locationId":"84eea67d-a338-4771-80a9-1bdc20d83093","name":"Wislaan","address":"Wislaan 131","city":"Uden","operatorName":"Vattenfall InCharge","maxPowerKw":11,"isMegawatt":false,"status":"AVAILABLE","source":"ndw"}},{"type":"Feature","geometry":{"type":"Point","coordinates":[5.645035,51.657746]},"properties":{"type":"charge","layer":"passenger","locationId":"923078","name":"DAE_NL_2000834_P04","address":"Industrielaan 24","city":"Uden","operatorName":"DAEN Mobility","maxPowerKw":11,"isMegawatt":false,"status":"AVAILABLE","source":"ndw","priceKwh":0.42}},{"type":"Feature","geometry":{"type":"Point","coordinates":[5.673348,51.69583]},"properties":{"type":"charge","layer":"passenger","locationId":"ab53161a-1140-40c6-8131-77b8d0680fb8","name":"Kerkstraat","address":"Kerkstraat 37B","city":"Zeeland","operatorName":"Vattenfall InCharge","maxPowerKw":11,"isMegawatt":false,"status":"CHARGING","source":"ndw"}},{"type":"Feature","geometry":{"type":"Point","coordinates":[5.670945,51.700768]},"properties":{"type":"charge","layer":"passenger","locationId":"NLLOC006986","name":"NL, Wasmeesterstraat 5, 5411 DG, Zeeland","address":"Wasmeesterstraat 5","city":"Zeeland","operatorName":"Allego","maxPowerKw":0,"isMegawatt":false,"status":"AVAILABLE","source":"ndw","priceKwh":0.511}},{"type":"Feature","geometry":{"type":"Point","coordinates":[5.710503,51.64069]},"properties":{"type":"charge","layer":"passenger","locationId":"a1b6f0b50098a1654b58b9a89fed12e0","name":"Peelseheide 10","address":"Peelseheide 10","city":"Odiliapeel","operatorName":"Vattenfall InCharge","maxPowerKw":11,"isMegawatt":false,"status":"AVAILABLE","source":"ndw"}},{"type":"Feature","geometry":{"type":"Point","coordinates":[5.671517,51.700894]},"properties":{"type":"charge","layer":"passenger","locationId":"12fb5aad-b16b-4ce8-af14-116ab688ab60","name":"Hoofdmanstraat","address":"Hoofdmanstraat 2","city":"Zeeland","operatorName":"Vattenfall InCharge","maxPowerKw":11,"isMegawatt":false,"status":"AVAILABLE","source":"ndw"}},{"type":"Feature","geometry":{"type":"Point","coordinates":[5.672864,51.698494]},"properties":{"type":"charge","layer":"passenger","locationId":"7dfb9c0b-9c8b-458c-a3f2-673e08d6653a","name":"Schoolstraat","address":"Schoolstraat 49","city":"Zeeland","operatorName":"Vattenfall InCharge","maxPowerKw":11,"isMegawatt":false,"status":"AVAILABLE","source":"ndw"}},{"type":"Feature","geometry":{"type":"Point","coordinates":[5.619258,51.644387]},"properties":{"type":"charge","layer":"passenger","locationId":"33d5efcb-526f-400b-8e7d-ad71ea662141","name":"Hoenderbosplein","address":"Hoenderbosplein 101","city":"Uden","operatorName":"Vattenfall InCharge","maxPowerKw":11,"isMegawatt":false,"status":"AVAILABLE","source":"ndw"}},{"type":"Feature","geometry":{"type":"Point","coordinates":[5.62922,51.66044]},"properties":{"type":"charge","layer":"passenger","locationId":"4488e96cd8938f4547967882e5b1d9f1","name":"Keizershof 409","address":"Keizershof 409","city":"Uden","operatorName":"Vattenfall InCharge","maxPowerKw":11,"isMegawatt":false,"status":"AVAILABLE","source":"ndw"}},{"type":"Feature","geometry":{"type":"Point","coordinates":[5.623322,51.746379]},"properties":{"type":"charge","layer":"passenger","locationId":"cf51a2ccbae75e47fa332ff3d14f3104","name":"Bossestraat 54","address":"Bossestraat 54","city":"Schaijk","operatorName":"Vattenfall InCharge","maxPowerKw":11,"isMegawatt":false,"status":"AVAILABLE","source":"ndw"}},{"type":"Feature","geometry":{"type":"Point","coordinates":[5.602918,51.66448]},"properties":{"type":"charge","layer":"passenger","locationId":"137826f5-f46c-4f94-93fa-b040438a23a8","name":"Boskriek","address":"Boskriek 1","city":"Uden","operatorName":"Vattenfall InCharge","maxPowerKw":11,"isMegawatt":false,"status":"AVAILABLE","source":"ndw"}},{"type":"Feature","geometry":{"type":"Point","coordinates":[5.636344,51.748625]},"properties":{"type":"charge","layer":"passenger","locationId":"b836403c708c7d62f41097bce8a47dd1","name":"Wingerd 9","address":"Wingerd 9","city":"Schaijk","operatorName":"Vattenfall InCharge","maxPowerKw":11,"isMegawatt":false,"status":"AVAILABLE","source":"ndw"}},{"type":"Feature","geometry":{"type":"Point","coordinates":[5.670518,51.698733]},"properties":{"type":"charge","layer":"passenger","locationId":"c44556e9-a614-47cb-8c2e-532be76093b5","name":"Burgerveld","address":"Burgerveld 5","city":"Zeeland","operatorName":"Vattenfall InCharge","maxPowerKw":11,"isMegawatt":false,"status":"AVAILABLE","source":"ndw"}},{"type":"Feature","geometry":{"type":"Point","coordinates":[5.613833,51.655475]},"properties":{"type":"charge","layer":"passenger","locationId":"d4bd420d-b5d3-4e0e-82b9-974606b752ab","name":"Willem-Alexanderhof","address":"Willem-Alexanderhof 248","city":"Uden","operatorName":"Vattenfall InCharge","maxPowerKw":11,"isMegawatt":false,"status":"AVAILABLE","source":"ndw"}},{"type":"Feature","geometry":{"type":"Point","coordinates":[5.640024,51.670405]},"properties":{"type":"charge","layer":"passenger","locationId":"ebb4b414-0fc8-474c-9f7c-0f0a36f49188","name":"Morene","address":"Morene 108","city":"Uden","operatorName":"Vattenfall InCharge","maxPowerKw":11,"isMegawatt":false,"status":"AVAILABLE","source":"ndw"}},{"type":"Feature","geometry":{"type":"Point","coordinates":[5.62215,51.64861]},"properties":{"type":"charge","layer":"passenger","locationId":"a5a3cd90-a88e-41c9-a8f0-5245faa7c738","name":"Korenmolen","address":"Korenmolen 1","city":"Uden","operatorName":"Vattenfall InCharge","maxPowerKw":11,"isMegawatt":false,"status":"AVAILABLE","source":"ndw"}},{"type":"Feature","geometry":{"type":"Point","coordinates":[5.636843,51.660605]},"properties":{"type":"charge","layer":"passenger","locationId":"771e70b5-04a9-4b39-b4e7-cada415643ba","name":"Vaarzenhof","address":"Vaarzenhof 702","city":"Uden","operatorName":"Vattenfall InCharge","maxPowerKw":11,"isMegawatt":false,"status":"AVAILABLE","source":"ndw"}},{"type":"Feature","geometry":{"type":"Point","coordinates":[5.63701,51.658972]},"properties":{"type":"charge","layer":"passenger","locationId":"eb3a7e6d-95cf-4776-8403-846e1920ee22","name":"Raam 513","address":"Raam 513","city":"Uden","operatorName":"Vattenfall InCharge","maxPowerKw":11,"isMegawatt":false,"status":"AVAILABLE","source":"ndw"}},{"type":"Feature","geometry":{"type":"Point","coordinates":[5.623366,51.665381]},"properties":{"type":"charge","layer":"passenger","locationId":"a0981dc3-4959-4f75-bcc9-fa81a2086af1","name":"Leeuweriksweg","address":"Leeuweriksweg 111","city":"Uden","operatorName":"Vattenfall InCharge","maxPowerKw":11,"isMegawatt":false,"status":"AVAILABLE","source":"ndw"}},{"type":"Feature","geometry":{"type":"Point","coordinates":[5.616009,51.65413]},"properties":{"type":"charge","layer":"passenger","locationId":"d494e549-fb43-4588-b507-b07850c806c5","name":"Kazernestraat","address":"Kazernestraat 29","city":"Uden","operatorName":"Vattenfall InCharge","maxPowerKw":11,"isMegawatt":false,"status":"AVAILABLE","source":"ndw"}},{"type":"Feature","geometry":{"type":"Point","coordinates":[5.679902,51.746351]},"properties":{"type":"charge","layer":"passenger","locationId":"263d55fe-9f16-4337-810c-6cd78da768af","name":"Brouwershof","address":"Brouwershof 40","city":"Reek","operatorName":"Vattenfall InCharge","maxPowerKw":11,"isMegawatt":false,"status":"AVAILABLE","source":"ndw"}},{"type":"Feature","geometry":{"type":"Point","coordinates":[5.619278,51.656767]},"properties":{"type":"charge","layer":"passenger","locationId":"4d624d2a-64b8-452a-b2e7-c4d48b1ce4ea","name":"Prior van Milstraat 107","address":"Prior van Milstraat 107","city":"Uden","operatorName":"Vattenfall InCharge","maxPowerKw":11,"isMegawatt":false,"status":"AVAILABLE","source":"ndw"}},{"type":"Feature","geometry":{"type":"Point","coordinates":[5.629444,51.660016]},"properties":{"type":"charge","layer":"passenger","locationId":"5ac59454-6def-4606-99f1-1c21dd2489d8","name":"Keizershof","address":"Keizershof 417","city":"Uden","operatorName":"Vattenfall InCharge","maxPowerKw":11,"isMegawatt":false,"status":"AVAILABLE","source":"ndw"}},{"type":"Feature","geometry":{"type":"Point","coordinates":[5.61173,51.661735]},"properties":{"type":"charge","layer":"passenger","locationId":"2791e44b-5253-4a0e-b8fe-ea8ff2176050","name":"Kleinveld","address":"Kleinveld 25","city":"Uden","operatorName":"Vattenfall InCharge","maxPowerKw":11,"isMegawatt":false,"status":"AVAILABLE","source":"ndw"}},{"type":"Feature","geometry":{"type":"Point","coordinates":[5.614544,51.641275]},"properties":{"type":"charge","layer":"passenger","locationId":"81bc8ba38f9c7b55c7c196f2cc92c5ca","name":"Koetsier 2","address":"Koetsier 2","city":"Uden","operatorName":"Vattenfall InCharge","maxPowerKw":11,"isMegawatt":false,"status":"AVAILABLE","source":"ndw"}},{"type":"Feature","geometry":{"type":"Point","coordinates":[5.615294,51.670432]},"properties":{"type":"charge","layer":"passenger","locationId":"0a6daf8a-47db-4443-a464-faed7e61920d","name":"Luitstraat 75","address":"Luitstraat 75","city":"Uden","operatorName":"Vattenfall InCharge","maxPowerKw":11,"isMegawatt":false,"status":"AVAILABLE","source":"ndw"}},{"type":"Feature","geometry":{"type":"Point","coordinates":[5.635528,51.670002]},"properties":{"type":"charge","layer":"passenger","locationId":"2ef9314b-b95a-42f0-8870-00e9e3998653","name":"Heufkens","address":"Heufkens 102","city":"Uden","operatorName":"Vattenfall InCharge","maxPowerKw":11,"isMegawatt":false,"status":"AVAILABLE","source":"ndw"}},{"type":"Feature","geometry":{"type":"Point","coordinates":[5.611531,51.656909]},"properties":{"type":"charge","layer":"passenger","locationId":"1e9604ca-09e7-4b0c-9248-2435841ada18","name":"Oranjestraat 14","address":"Oranjestraat 14","city":"Uden","operatorName":"Vattenfall InCharge","maxPowerKw":11,"isMegawatt":false,"status":"AVAILABLE","source":"ndw"}},{"type":"Feature","geometry":{"type":"Point","coordinates":[5.616061,51.652727]},"properties":{"type":"charge","layer":"passenger","locationId":"62f80a29-6e84-4c7a-b4fa-23380655ac12","name":"Hoogzoggel","address":"Hoogzoggel 124","city":"Uden","operatorName":"Vattenfall InCharge","maxPowerKw":11,"isMegawatt":false,"status":"AVAILABLE","source":"ndw"}},{"type":"Feature","geometry":{"type":"Point","coordinates":[5.614803,51.660616]},"properties":{"type":"charge","layer":"passenger","locationId":"6dbc6f4a733b5bbcbabaf52b38a4e8a1","name":"Burgemeester Buskensstraat 62","address":"Burgemeester Buskensstraat 62","city":"Uden","operatorName":"Vattenfall InCharge","maxPowerKw":11,"isMegawatt":false,"status":"AVAILABLE","source":"ndw"}},{"type":"Feature","geometry":{"type":"Point","coordinates":[5.64816,51.67316]},"properties":{"type":"charge","layer":"passenger","locationId":"E5816DB2-0B2E-4F27-89E0-FAEB52908EF4","name":"Eneco eMobility Oostwijk 18 Uden","address":"Oostwijk 18","city":"Uden","operatorName":"Eneco","maxPowerKw":22,"isMegawatt":false,"status":"AVAILABLE","source":"ndw","priceKwh":0.25}},{"type":"Feature","geometry":{"type":"Point","coordinates":[5.67293,51.696731]},"properties":{"type":"charge","layer":"passenger","locationId":"NLLOC003476","name":"NLD, Rector van Gerwenstraat 4, 5411 EH Zeeland","address":"Rector van Gerwenstraat 4","city":"Zeeland","operatorName":"Allego","maxPowerKw":0,"isMegawatt":false,"status":"AVAILABLE","source":"ndw","priceKwh":0.511}},{"type":"Feature","geometry":{"type":"Point","coordinates":[5.638233,51.661324]},"properties":{"type":"charge","layer":"passenger","locationId":"2cdef09374b3d95cc54f41f59d08b50f","name":"Vaarzenhof 617","address":"Vaarzenhof 617","city":"Uden","operatorName":"Vattenfall InCharge","maxPowerKw":11,"isMegawatt":false,"status":"AVAILABLE","source":"ndw"}},{"type":"Feature","geometry":{"type":"Point","coordinates":[5.605954,51.663598]},"properties":{"type":"charge","layer":"passenger","locationId":"1050de55-c5bb-4088-8770-f102fd30e99c","name":"Verduijnstraat","address":"Verduijnstraat 18","city":"Uden","operatorName":"Vattenfall InCharge","maxPowerKw":11,"isMegawatt":false,"status":"AVAILABLE","source":"ndw"}},{"type":"Feature","geometry":{"type":"Point","coordinates":[5.60966,51.67183]},"properties":{"type":"charge","layer":"passenger","locationId":"4f5b68f0-2163-4490-a1b8-f2c2ae84a7d7","name":"Cellostraat","address":"Cellostraat 21","city":"Uden","operatorName":"Vattenfall InCharge","maxPowerKw":11,"isMegawatt":false,"status":"AVAILABLE","source":"ndw"}},{"type":"Feature","geometry":{"type":"Point","coordinates":[5.682945,51.746656]},"properties":{"type":"charge","layer":"passenger","locationId":"NLLOC018891","name":"NL, Noordhoek 3, 5375 AR Reek","address":"Noordhoek 3","city":"Reek","operatorName":"Allego","maxPowerKw":0,"isMegawatt":false,"status":"AVAILABLE","source":"ndw","priceKwh":0.511}},{"type":"Feature","geometry":{"type":"Point","coordinates":[5.645035,51.657746]},"properties":{"type":"charge","layer":"passenger","locationId":"922894","name":"DAE_NL_2000638","address":"Industrielaan 24","city":"Uden","operatorName":"DAEN Mobility","maxPowerKw":11,"isMegawatt":false,"status":"AVAILABLE","source":"ndw","priceKwh":0.42}},{"type":"Feature","geometry":{"type":"Point","coordinates":[5.64039,51.666556]},"properties":{"type":"charge","layer":"passenger","locationId":"348f6dd763e2e14100ec679ce5f4acdb","name":"Bijland 701","address":"Bijland 701","city":"Uden","operatorName":"Vattenfall InCharge","maxPowerKw":11,"isMegawatt":false,"status":"AVAILABLE","source":"ndw"}},{"type":"Feature","geometry":{"type":"Point","coordinates":[5.658915,51.695948]},"properties":{"type":"charge","layer":"passenger","locationId":"6239cf23c24b18d2c9a55caf","name":"Vakantiepark De Heische Tip","address":"Straatsven 4","city":"Zeeland","operatorName":"E-Flux by Road","maxPowerKw":11,"isMegawatt":false,"status":"UNAVAILABLE","source":"ndw"}},{"type":"Feature","geometry":{"type":"Point","coordinates":[5.645035,51.657746]},"properties":{"type":"charge","layer":"passenger","locationId":"922900","name":"DAE_NL_2000643","address":"Industrielaan 24","city":"Uden","operatorName":"DAEN Mobility","maxPowerKw":11,"isMegawatt":false,"status":"AVAILABLE","source":"ndw","priceKwh":0.42}},{"type":"Feature","geometry":{"type":"Point","coordinates":[5.632034,51.647711]},"properties":{"type":"charge","layer":"passenger","locationId":"4b2d3646-b2fb-4e9b-b3d1-ed1a75a2620b","name":"Muntmeester 457","address":"Muntmeester 457","city":"Uden","operatorName":"Vattenfall InCharge","maxPowerKw":11,"isMegawatt":false,"status":"CHARGING","source":"ndw"}},{"type":"Feature","geometry":{"type":"Point","coordinates":[5.681566,51.745958]},"properties":{"type":"charge","layer":"passenger","locationId":"2c47674bd60486eb41b8021d27849a37","name":"Nieuw Heijtmorgen 13","address":"Nieuw Heijtmorgen 13","city":"Reek","operatorName":"Vattenfall InCharge","maxPowerKw":11,"isMegawatt":false,"status":"AVAILABLE","source":"ndw"}},{"type":"Feature","geometry":{"type":"Point","coordinates":[5.629735,51.743766]},"properties":{"type":"charge","layer":"passenger","locationId":"c35df5d096c319de75acf1a240efb1de","name":"De Biezen 1","address":"De Biezen 1","city":"Schaijk","operatorName":"Vattenfall InCharge","maxPowerKw":11,"isMegawatt":false,"status":"AVAILABLE","source":"ndw"}},{"type":"Feature","geometry":{"type":"Point","coordinates":[5.623754,51.661384]},"properties":{"type":"charge","layer":"passenger","locationId":"8a8cf2d6-4342-45c8-aa5c-adc5b703e179","name":"Hyacintstraat","address":"Hyacintstraat 2G1","city":"Uden","operatorName":"Vattenfall InCharge","maxPowerKw":11,"isMegawatt":false,"status":"AVAILABLE","source":"ndw"}},{"type":"Feature","geometry":{"type":"Point","coordinates":[5.609881,51.661528]},"properties":{"type":"charge","layer":"passenger","locationId":"20e830ed-a54e-4480-82c9-205648fd0a3b","name":"Lieve Vrouwenplein","address":"Lieve Vrouwenplein 2","city":"Uden","operatorName":"Vattenfall InCharge","maxPowerKw":11,"isMegawatt":false,"status":"AVAILABLE","source":"ndw"}},{"type":"Feature","geometry":{"type":"Point","coordinates":[5.63018,51.665385]},"properties":{"type":"charge","layer":"passenger","locationId":"6a87b490-8741-40fa-b364-9eaf2200797d","name":"Rentmeestershoef","address":"Rentmeestershoef 156","city":"Uden","operatorName":"Vattenfall InCharge","maxPowerKw":11,"isMegawatt":false,"status":"AVAILABLE","source":"ndw"}},{"type":"Feature","geometry":{"type":"Point","coordinates":[5.617627,51.657895]},"properties":{"type":"charge","layer":"passenger","locationId":"363e2a0fbaff2cbd27a0d90371633faa","name":"Neringstraat Oost 26","address":"Neringstraat Oost 26","city":"Uden","operatorName":"Vattenfall InCharge","maxPowerKw":11,"isMegawatt":false,"status":"AVAILABLE","source":"ndw"}},{"type":"Feature","geometry":{"type":"Point","coordinates":[5.614364,51.664498]},"properties":{"type":"charge","layer":"passenger","locationId":"34866e0a-c88f-43bd-ae1e-df4aae99495e","name":"Herpenstraat","address":"Herpenstraat 40","city":"Uden","operatorName":"Vattenfall InCharge","maxPowerKw":11,"isMegawatt":false,"status":"AVAILABLE","source":"ndw"}},{"type":"Feature","geometry":{"type":"Point","coordinates":[5.613857,51.667888]},"properties":{"type":"charge","layer":"passenger","locationId":"dc0bdcd1-563f-4184-9bbb-88f182cf1278","name":"Paukenstraat","address":"Paukenstraat 12","city":"Uden","operatorName":"Vattenfall InCharge","maxPowerKw":11,"isMegawatt":false,"status":"AVAILABLE","source":"ndw"}},{"type":"Feature","geometry":{"type":"Point","coordinates":[5.612859,51.666223]},"properties":{"type":"charge","layer":"passenger","locationId":"35d0a8ae-d28f-47c5-975d-0ad3828ab8e3","name":"Accordeonstraat 16","address":"Accordeonstraat 16","city":"Uden","operatorName":"Vattenfall InCharge","maxPowerKw":11,"isMegawatt":false,"status":"AVAILABLE","source":"ndw"}},{"type":"Feature","geometry":{"type":"Point","coordinates":[5.638871,51.666699]},"properties":{"type":"charge","layer":"passenger","locationId":"131354df-621d-42ff-afb2-e6de405bb0d1","name":"Bijland","address":"Bijland 508","city":"Uden","operatorName":"Vattenfall InCharge","maxPowerKw":11,"isMegawatt":false,"status":"AVAILABLE","source":"ndw"}},{"type":"Feature","geometry":{"type":"Point","coordinates":[5.60333,51.65631]},"properties":{"type":"charge","layer":"passenger","locationId":"6f672722837cd6bfbbaf70d16adb7fdb","name":"Missielaan 6","address":"Missielaan 6","city":"Uden","operatorName":"Vattenfall InCharge","maxPowerKw":11,"isMegawatt":false,"status":"AVAILABLE","source":"ndw"}},{"type":"Feature","geometry":{"type":"Point","coordinates":[5.635879,51.660373]},"properties":{"type":"charge","layer":"passenger","locationId":"8445c377-a9f1-409d-8bb9-93c75c37ba63","name":"Hofstukken","address":"Hofstukken 730","city":"Uden","operatorName":"Vattenfall InCharge","maxPowerKw":11,"isMegawatt":false,"status":"AVAILABLE","source":"ndw"}},{"type":"Feature","geometry":{"type":"Point","coordinates":[5.60784,51.66689]},"properties":{"type":"charge","layer":"passenger","locationId":"10eabcb481eca60cda9d65865fa5aee1","name":"Mulderspad 16","address":"Mulderspad 16","city":"Uden","operatorName":"Vattenfall InCharge","maxPowerKw":11,"isMegawatt":false,"status":"AVAILABLE","source":"ndw"}},{"type":"Feature","geometry":{"type":"Point","coordinates":[5.60629,51.65507]},"properties":{"type":"charge","layer":"passenger","locationId":"c19d70f1edb6068094088912570a8932","name":"Veghelsedijk 25","address":"Veghelsedijk 25","city":"Uden","operatorName":"Vattenfall InCharge","maxPowerKw":11,"isMegawatt":false,"status":"AVAILABLE","source":"ndw"}},{"type":"Feature","geometry":{"type":"Point","coordinates":[5.609268,51.670153]},"properties":{"type":"charge","layer":"passenger","locationId":"87a892e1-b428-4bd7-ac8f-02601663913e","name":"Pianostraat","address":"Pianostraat 33","city":"Uden","operatorName":"Vattenfall InCharge","maxPowerKw":11,"isMegawatt":false,"status":"AVAILABLE","source":"ndw"}},{"type":"Feature","geometry":{"type":"Point","coordinates":[5.640004,51.664714]},"properties":{"type":"charge","layer":"passenger","locationId":"2ba113bf-db7c-416f-bd0b-622ec32a766a","name":"Wachtendonk","address":"Wachtendonk 101","city":"Uden","operatorName":"Vattenfall InCharge","maxPowerKw":11,"isMegawatt":false,"status":"AVAILABLE","source":"ndw"}},{"type":"Feature","geometry":{"type":"Point","coordinates":[5.63224,51.75065]},"properties":{"type":"charge","layer":"passenger","locationId":"530af714d629c89252282ad3cbea4b57","name":"Smidse 61","address":"Smidse 61","city":"Schaijk","operatorName":"Vattenfall InCharge","maxPowerKw":11,"isMegawatt":false,"status":"AVAILABLE","source":"ndw"}},{"type":"Feature","geometry":{"type":"Point","coordinates":[5.645035,51.657746]},"properties":{"type":"charge","layer":"passenger","locationId":"923375","name":"DAE_NL_2001213_P02","address":"Industrielaan 24","city":"Uden","operatorName":"DAEN Mobility","maxPowerKw":11,"isMegawatt":false,"status":"AVAILABLE","source":"ndw","priceKwh":0.42}},{"type":"Feature","geometry":{"type":"Point","coordinates":[5.703126,51.643719]},"properties":{"type":"charge","layer":"passenger","locationId":"10a00d28-803a-4eda-a46a-bc3cba8e12e5","name":"Wolfstraat","address":"Wolfstraat 1A","city":"Odiliapeel","operatorName":"Vattenfall InCharge","maxPowerKw":11,"isMegawatt":false,"status":"AVAILABLE","source":"ndw"}},{"type":"Feature","geometry":{"type":"Point","coordinates":[5.618263,51.671333]},"properties":{"type":"charge","layer":"passenger","locationId":"066c72f6-69a0-45e1-b276-b4e42274f0bc","name":"Tamboerijnstraat","address":"Tamboerijnstraat 2 a","city":"Uden","operatorName":"Vattenfall InCharge","maxPowerKw":11,"isMegawatt":false,"status":"AVAILABLE","source":"ndw"}},{"type":"Feature","geometry":{"type":"Point","coordinates":[5.677064,51.745488]},"properties":{"type":"charge","layer":"passenger","locationId":"9c72c65d339ad4b73de8fdd6e9684a8e","name":"Rosmolen 32","address":"Rosmolen 32","city":"Reek","operatorName":"Vattenfall InCharge","maxPowerKw":11,"isMegawatt":false,"status":"AVAILABLE","source":"ndw"}},{"type":"Feature","geometry":{"type":"Point","coordinates":[5.608998,51.65822]},"properties":{"type":"charge","layer":"passenger","locationId":"f1d00619-28d8-4e2e-b700-a1788927ab05","name":"Meester van Coothstraat 41","address":"Meester van Coothstraat 41","city":"Uden","operatorName":"Vattenfall InCharge","maxPowerKw":11,"isMegawatt":false,"status":"AVAILABLE","source":"ndw"}},{"type":"Feature","geometry":{"type":"Point","coordinates":[5.631665,51.654649]},"properties":{"type":"charge","layer":"passenger","locationId":"1866b0cf-9397-4008-8518-fc65f14e3e2d","name":"Kersengaarde","address":"Kersengaarde 8","city":"Uden","operatorName":"Vattenfall InCharge","maxPowerKw":11,"isMegawatt":false,"status":"AVAILABLE","source":"ndw"}},{"type":"Feature","geometry":{"type":"Point","coordinates":[5.638005,51.664711]},"properties":{"type":"charge","layer":"passenger","locationId":"5b1fdca4-b5af-42c1-9839-e40f40eb3d99","name":"Efferen 528","address":"Efferen 528","city":"Uden","operatorName":"Vattenfall InCharge","maxPowerKw":11,"isMegawatt":false,"status":"CHARGING","source":"ndw"}},{"type":"Feature","geometry":{"type":"Point","coordinates":[5.674383,51.683635]},"properties":{"type":"charge","layer":"passenger","locationId":"ff17e3b7-283e-45a9-9128-5af371b12c3a","name":"Boekelsedijk 1","address":"Boekelsedijk 1","city":"Zeeland","operatorName":"Vattenfall InCharge","maxPowerKw":11,"isMegawatt":false,"status":"AVAILABLE","source":"ndw"}},{"type":"Feature","geometry":{"type":"Point","coordinates":[5.628131,51.745395]},"properties":{"type":"charge","layer":"passenger","locationId":"c58f0705-35d9-4a35-a19f-d9c047169201","name":"Imkerstraat","address":"Imkerstraat 13","city":"Schaijk","operatorName":"Vattenfall InCharge","maxPowerKw":11,"isMegawatt":false,"status":"AVAILABLE","source":"ndw"}},{"type":"Feature","geometry":{"type":"Point","coordinates":[5.625402,51.65631]},"properties":{"type":"charge","layer":"passenger","locationId":"53b2a927-68a6-471d-a18a-366f4f674ac3","name":"Vlosstraat 29","address":"Vlosstraat 29","city":"Uden","operatorName":"Vattenfall InCharge","maxPowerKw":11,"isMegawatt":false,"status":"AVAILABLE","source":"ndw"}},{"type":"Feature","geometry":{"type":"Point","coordinates":[5.622562,51.655312]},"properties":{"type":"charge","layer":"passenger","locationId":"9ab5903a2ad0735a76088fb4f5b45097","name":"Losplaats 10a","address":"Losplaats 10a","city":"Uden","operatorName":"Vattenfall InCharge","maxPowerKw":11,"isMegawatt":false,"status":"AVAILABLE","source":"ndw"}},{"type":"Feature","geometry":{"type":"Point","coordinates":[5.60848,51.667261]},"properties":{"type":"charge","layer":"passenger","locationId":"b3ce13ef-bf65-4d38-8f36-0d9ec61aaa4a","name":"Morel","address":"Morel 143","city":"Uden","operatorName":"Vattenfall InCharge","maxPowerKw":11,"isMegawatt":false,"status":"AVAILABLE","source":"ndw"}},{"type":"Feature","geometry":{"type":"Point","coordinates":[5.642014,51.646409]},"properties":{"type":"charge","layer":"passenger","locationId":"147b2715-440b-48a6-a16c-0e184d0aab9e","name":"Beekvloed","address":"Beekvloed 5","city":"Volkel","operatorName":"Vattenfall InCharge","maxPowerKw":11,"isMegawatt":false,"status":"AVAILABLE","source":"ndw"}},{"type":"Feature","geometry":{"type":"Point","coordinates":[5.628325,51.64289]},"properties":{"type":"charge","layer":"passenger","locationId":"809245e5-13b0-40f8-bc6b-ebce15d11839","name":"Muntmeester","address":"Muntmeester 122","city":"Uden","operatorName":"Vattenfall InCharge","maxPowerKw":11,"isMegawatt":false,"status":"AVAILABLE","source":"ndw"}},{"type":"Feature","geometry":{"type":"Point","coordinates":[5.615653,51.663831]},"properties":{"type":"charge","layer":"passenger","locationId":"678661158a0fb2a54a80ae8e","name":"zakelijk","address":"Alardstraat 6","city":"Uden","operatorName":"E-Flux by Road","maxPowerKw":22,"isMegawatt":false,"status":"AVAILABLE","source":"ndw","priceKwh":0.91}},{"type":"Feature","geometry":{"type":"Point","coordinates":[5.633045,51.657924]},"properties":{"type":"charge","layer":"passenger","locationId":"9e458c2a-a07b-464b-aae5-7476afd29fdd","name":"Bosveld","address":"Bosveld 502","city":"Uden","operatorName":"Vattenfall InCharge","maxPowerKw":11,"isMegawatt":false,"status":"AVAILABLE","source":"ndw"}},{"type":"Feature","geometry":{"type":"Point","coordinates":[5.634124,51.666489]},"properties":{"type":"charge","layer":"passenger","locationId":"9bed474a-20a0-4d4f-9654-81a0e1f472b2","name":"Wijsthoek","address":"Wijsthoek 602","city":"Uden","operatorName":"Vattenfall InCharge","maxPowerKw":11,"isMegawatt":false,"status":"CHARGING","source":"ndw"}},{"type":"Feature","geometry":{"type":"Point","coordinates":[5.622639,51.654332]},"properties":{"type":"charge","layer":"passenger","locationId":"5242a8ee-1fc3-49cb-88d1-854f1712c7f1","name":"Strohuls 9","address":"Strohuls 9","city":"Uden","operatorName":"Vattenfall InCharge","maxPowerKw":11,"isMegawatt":false,"status":"AVAILABLE","source":"ndw"}},{"type":"Feature","geometry":{"type":"Point","coordinates":[5.645035,51.657746]},"properties":{"type":"charge","layer":"passenger","locationId":"922893","name":"DAE_NL_2000637","address":"Industrielaan 24","city":"Uden","operatorName":"DAEN Mobility","maxPowerKw":11,"isMegawatt":false,"status":"AVAILABLE","source":"ndw","priceKwh":0.42}},{"type":"Feature","geometry":{"type":"Point","coordinates":[5.61032,51.66937]},"properties":{"type":"charge","layer":"passenger","locationId":"48d4f2f2-f310-4c74-b684-d33d16cbafaa","name":"Saxofoonstraat","address":"Saxofoonstraat 38","city":"Uden","operatorName":"Vattenfall InCharge","maxPowerKw":11,"isMegawatt":false,"status":"AVAILABLE","source":"ndw"}},{"type":"Feature","geometry":{"type":"Point","coordinates":[5.61277,51.656872]},"properties":{"type":"charge","layer":"passenger","locationId":"f808d0cc-9add-4fd9-8e45-7843160d659f","name":"Oranjestraat","address":"Oranjestraat 20","city":"Uden","operatorName":"Vattenfall InCharge","maxPowerKw":11,"isMegawatt":false,"status":"AVAILABLE","source":"ndw"}},{"type":"Feature","geometry":{"type":"Point","coordinates":[5.624969,51.672534]},"properties":{"type":"charge","layer":"passenger","locationId":"ef44fd11f36b2f1ae8604a5f4c167009","name":"Artillerieweg 4","address":"Artillerieweg 4","city":"Uden","operatorName":"Vattenfall InCharge","maxPowerKw":11,"isMegawatt":false,"status":"AVAILABLE","source":"ndw"}},{"type":"Feature","geometry":{"type":"Point","coordinates":[5.632575,51.646118]},"properties":{"type":"charge","layer":"passenger","locationId":"26934f2e-1d26-4e8c-b369-65ae0a92f3e2","name":"Muntmeester","address":"Muntmeester 258","city":"Uden","operatorName":"Vattenfall InCharge","maxPowerKw":11,"isMegawatt":false,"status":"AVAILABLE","source":"ndw"}},{"type":"Feature","geometry":{"type":"Point","coordinates":[5.678981,51.701051]},"properties":{"type":"charge","layer":"passenger","locationId":"c98b47ab-5eba-452b-8193-25e64e675548","name":"Melkpad 75","address":"Melkpad 75","city":"Zeeland","operatorName":"Vattenfall InCharge","maxPowerKw":11,"isMegawatt":false,"status":"AVAILABLE","source":"ndw"}},{"type":"Feature","geometry":{"type":"Point","coordinates":[5.630289,51.737971]},"properties":{"type":"charge","layer":"passenger","locationId":"4951a8831d60d34d54350515eb552c8e","name":"Hoekstraat 21","address":"Hoekstraat 21","city":"Schaijk","operatorName":"Vattenfall InCharge","maxPowerKw":11,"isMegawatt":false,"status":"AVAILABLE","source":"ndw"}},{"type":"Feature","geometry":{"type":"Point","coordinates":[5.62293,51.6415]},"properties":{"type":"charge","layer":"passenger","locationId":"9af5ba6ed1f268654d39e309bfcaefe7","name":"Wislaan 46","address":"Wislaan 46","city":"Uden","operatorName":"Vattenfall InCharge","maxPowerKw":11,"isMegawatt":false,"status":"AVAILABLE","source":"ndw"}},{"type":"Feature","geometry":{"type":"Point","coordinates":[5.645035,51.657746]},"properties":{"type":"charge","layer":"passenger","locationId":"922895","name":"DAE_NL_2000639","address":"Industrielaan 24","city":"Uden","operatorName":"DAEN Mobility","maxPowerKw":11,"isMegawatt":false,"status":"AVAILABLE","source":"ndw","priceKwh":0.42}},{"type":"Feature","geometry":{"type":"Point","coordinates":[5.630729,51.647757]},"properties":{"type":"charge","layer":"passenger","locationId":"0c63a483-c301-47a2-9ce1-fda2c2d23fc1","name":"Muntmeester 302","address":"Muntmeester 302","city":"Uden","operatorName":"Vattenfall InCharge","maxPowerKw":11,"isMegawatt":false,"status":"AVAILABLE","source":"ndw"}},{"type":"Feature","geometry":{"type":"Point","coordinates":[5.62131,51.74645]},"properties":{"type":"charge","layer":"passenger","locationId":"0e06f55273be92c8ce9b2e739f8290f0","name":"Bossestraat 71","address":"Bossestraat 71","city":"Schaijk","operatorName":"Vattenfall InCharge","maxPowerKw":11,"isMegawatt":false,"status":"AVAILABLE","source":"ndw"}},{"type":"Feature","geometry":{"type":"Point","coordinates":[5.676636,51.695469]},"properties":{"type":"charge","layer":"passenger","locationId":"8aa5ee4bd62120230858d441d189d9cc","name":"Linnenstraat 1","address":"Linnenstraat 1","city":"Zeeland","operatorName":"Vattenfall InCharge","maxPowerKw":11,"isMegawatt":false,"status":"AVAILABLE","source":"ndw"}},{"type":"Feature","geometry":{"type":"Point","coordinates":[5.636675,51.649749]},"properties":{"type":"charge","layer":"passenger","locationId":"afee9156-9dec-42c1-8bd6-51c0ca113b39","name":"Hockeyweg","address":"Hockeyweg 12","city":"Uden","operatorName":"Vattenfall InCharge","maxPowerKw":11,"isMegawatt":false,"status":"AVAILABLE","source":"ndw"}},{"type":"Feature","geometry":{"type":"Point","coordinates":[5.624144,51.647133]},"properties":{"type":"charge","layer":"passenger","locationId":"376e39da-f7c0-4709-8e7b-7c004f8ab80f","name":"Verlengde Velmolen","address":"Verlengde Velmolen 7","city":"Uden","operatorName":"Vattenfall InCharge","maxPowerKw":11,"isMegawatt":false,"status":"AVAILABLE","source":"ndw"}},{"type":"Feature","geometry":{"type":"Point","coordinates":[5.617209,51.666359]},"properties":{"type":"charge","layer":"passenger","locationId":"c46c69a7-d5a4-4333-909d-caa9ba0435cc","name":"Saint Eloy","address":"Saint Eloy 1","city":"Uden","operatorName":"Vattenfall InCharge","maxPowerKw":11,"isMegawatt":false,"status":"AVAILABLE","source":"ndw"}},{"type":"Feature","geometry":{"type":"Point","coordinates":[5.650752,51.642881]},"properties":{"type":"charge","layer":"passenger","locationId":"c4e4be1a-ab09-4fab-a53a-34478c4be1bc","name":"Antilopestraat 12","address":"Antilopestraat 12","city":"Volkel","operatorName":"Vattenfall InCharge","maxPowerKw":11,"isMegawatt":false,"status":"AVAILABLE","source":"ndw"}},{"type":"Feature","geometry":{"type":"Point","coordinates":[5.635799,51.670945]},"properties":{"type":"charge","layer":"passenger","locationId":"abc4d776-17e4-4a48-b83f-25df056d907f","name":"Heufkens","address":"Heufkens 309","city":"Uden","operatorName":"Vattenfall InCharge","maxPowerKw":11,"isMegawatt":false,"status":"CHARGING","source":"ndw"}},{"type":"Feature","geometry":{"type":"Point","coordinates":[5.638776,51.741128]},"properties":{"type":"charge","layer":"passenger","locationId":"613fd1ea-64b4-4185-8c86-f1cd5350cb9e","name":"Ekstershoef","address":"Ekstershoef 12","city":"Schaijk","operatorName":"Vattenfall InCharge","maxPowerKw":11,"isMegawatt":false,"status":"AVAILABLE","source":"ndw"}},{"type":"Feature","geometry":{"type":"Point","coordinates":[5.610543,51.662038]},"properties":{"type":"charge","layer":"passenger","locationId":"b0525ace2ce77e4eaa317dd3d2ea3d12","name":"Kapelstraat 100","address":"Kapelstraat 100","city":"Uden","operatorName":"Vattenfall InCharge","maxPowerKw":11,"isMegawatt":false,"status":"AVAILABLE","source":"ndw"}},{"type":"Feature","geometry":{"type":"Point","coordinates":[5.706415,51.643343]},"properties":{"type":"charge","layer":"passenger","locationId":"be64cfe8c3df2b42775a5a3f1f8d9ce1","name":"Oudedijk 59","address":"Oudedijk 59","city":"Odiliapeel","operatorName":"Vattenfall InCharge","maxPowerKw":11,"isMegawatt":false,"status":"AVAILABLE","source":"ndw"}},{"type":"Feature","geometry":{"type":"Point","coordinates":[5.609118,51.660067]},"properties":{"type":"charge","layer":"passenger","locationId":"3e71c925-de30-4829-bf9b-ffb93f45c13e","name":"Rooijsestraat","address":"Rooijsestraat 6","city":"Uden","operatorName":"Vattenfall InCharge","maxPowerKw":11,"isMegawatt":false,"status":"UNAVAILABLE","source":"ndw"}},{"type":"Feature","geometry":{"type":"Point","coordinates":[5.625813,51.646197]},"properties":{"type":"charge","layer":"passenger","locationId":"11526d7d65ffa90b7e3a8ac2ba2118c3","name":"Muntmeester  545","address":"Muntmeester  545","city":"Uden","operatorName":"Vattenfall InCharge","maxPowerKw":11,"isMegawatt":false,"status":"AVAILABLE","source":"ndw"}},{"type":"Feature","geometry":{"type":"Point","coordinates":[5.62987,51.663866]},"properties":{"type":"charge","layer":"passenger","locationId":"9b896dc5-9a48-47ce-a79b-3755bcbb0de0","name":"Schoutenhoek 601","address":"Schoutenhoek 601 601","city":"Uden","operatorName":"Vattenfall InCharge","maxPowerKw":11,"isMegawatt":false,"status":"AVAILABLE","source":"ndw"}},{"type":"Feature","geometry":{"type":"Point","coordinates":[5.618449,51.644945]},"properties":{"type":"charge","layer":"passenger","locationId":"42be8c2d-310e-4cde-830a-d7348f6e56f3","name":"Wislaan 221","address":"Wislaan 221","city":"Uden","operatorName":"Vattenfall InCharge","maxPowerKw":11,"isMegawatt":false,"status":"AVAILABLE","source":"ndw"}},{"type":"Feature","geometry":{"type":"Point","coordinates":[5.674427,51.684072]},"properties":{"type":"charge","layer":"passenger","locationId":"27b4ff64-389c-4eb9-b88e-9166d7f35d75","name":"Boekelsedijk 3","address":"Boekelsedijk 3","city":"Zeeland","operatorName":"Vattenfall InCharge","maxPowerKw":11,"isMegawatt":false,"status":"AVAILABLE","source":"ndw"}},{"type":"Feature","geometry":{"type":"Point","coordinates":[5.632057,51.667937]},"properties":{"type":"charge","layer":"passenger","locationId":"d37f72f9-87ca-47cd-923e-718fb0c1bf6a","name":"Wijsthoek","address":"Wijsthoek 143","city":"Uden","operatorName":"Vattenfall InCharge","maxPowerKw":11,"isMegawatt":false,"status":"AVAILABLE","source":"ndw"}},{"type":"Feature","geometry":{"type":"Point","coordinates":[5.608864,51.663979]},"properties":{"type":"charge","layer":"passenger","locationId":"775b7bdd-c7ca-406b-9933-dae918b1f64c","name":"Bogerdstraat","address":"Bogerdstraat 19A","city":"Uden","operatorName":"Vattenfall InCharge","maxPowerKw":11,"isMegawatt":false,"status":"AVAILABLE","source":"ndw"}},{"type":"Feature","geometry":{"type":"Point","coordinates":[5.625082,51.645664]},"properties":{"type":"charge","layer":"passenger","locationId":"5bfbbc43eef78fabb3be40308ab71e4b","name":"Sesterlaan 6","address":"Sesterlaan 6","city":"Uden","operatorName":"Vattenfall InCharge","maxPowerKw":11,"isMegawatt":false,"status":"AVAILABLE","source":"ndw"}},{"type":"Feature","geometry":{"type":"Point","coordinates":[5.603523,51.662997]},"properties":{"type":"charge","layer":"passenger","locationId":"6597a039200c4d83bb018f5eaa375102","name":"Bosschebaan 1","address":"Bosschebaan 1","city":"Uden","operatorName":"Vattenfall InCharge","maxPowerKw":11,"isMegawatt":false,"status":"AVAILABLE","source":"ndw"}},{"type":"Feature","geometry":{"type":"Point","coordinates":[5.599171,51.746556]},"properties":{"type":"charge","layer":"freight","locationId":"50689","name":"Fastned Ganzenven","address":"Ganzenven A50","city":"Schaijk","operatorName":"Fastned","maxPowerKw":400,"isMegawatt":false,"status":"AVAILABLE","source":"ndw","priceKwh":0.6364}},{"type":"Feature","geometry":{"type":"Point","coordinates":[5.602485,51.745595]},"properties":{"type":"charge","layer":"freight","locationId":"bbd9ffbc-e70f-11ec-829b-42010aa40036","name":"Fastned De Gagel","address":"De Gagel A50","city":"Schaijk","operatorName":"Fastned","maxPowerKw":400,"isMegawatt":false,"status":"AVAILABLE","source":"ndw","priceKwh":0.6364}},{"type":"Feature","geometry":{"type":"MultiPolygon","coordinates":[[[[5.701087547511536,51.75536202593305],[5.699910323133408,51.750468458123585],[5.703487428269529,51.75045946865537],[5.701743653487452,51.74549447711775],[5.701425334219651,51.744219448068506],[5.701058370544185,51.742132846904724],[5.699901236080757,51.74190538815203],[5.69811557167147,51.73850708858769],[5.707910719545829,51.73658210260863],[5.7060950292139765,51.7321222882289],[5.708056925992356,51.73195839456464],[5.709647097361145,51.73222422974595],[5.709619747375795,51.73182781444067],[5.709862166604288,51.73180755766308],[5.718810902848014,51.732926022877514],[5.718393500977765,51.730973967972425],[5.718197385492299,51.73091020075201],[5.718061965639588,51.73110327099204],[5.711363695628302,51.7295226208011],[5.709416833864353,51.728571562386996],[5.711876510465343,51.727658800604864],[5.713138352866174,51.726414793407336],[5.709336367557197,51.72540408614051],[5.704850235874447,51.721322707296274],[5.699959457225425,51.711451285632045],[5.707105734511271,51.70442226973275],[5.7138139994895765,51.697821340797454],[5.734358281384086,51.677621590632754],[5.735274666405363,51.67460236271156],[5.73906043409,51.66184388809836],[5.7425454374335905,51.65006132042456],[5.747675180463748,51.632667577308],[5.750477308938236,51.62268297615438],[5.74005951519242,51.622495994008396],[5.709227814174056,51.625753255224055],[5.685924017509455,51.62811558321049],[5.681779690391707,51.62781626224842],[5.681458860227709,51.62903071332674],[5.68007694554493,51.62837782437895],[5.674277902790679,51.628134998032785],[5.674343687886779,51.62743805845406],[5.672739193882714,51.62735688387816],[5.672606269920937,51.628688446491225],[5.666590150978081,51.62845276534357],[5.664923657858391,51.62833903547143],[5.664710179745495,51.62898647847553],[5.6581776060716145,51.62802991828799],[5.651342793311953,51.62669532753083],[5.650981498938981,51.62571131680995],[5.63557348476978,51.625363397512906],[5.63367300625391,51.62478517395132],[5.626567324117126,51.62340064654165],[5.623391164032974,51.62665965427276],[5.607469785046944,51.633777251049864],[5.605627520087561,51.632092568541815],[5.602272368849833,51.62941332470738],[5.598734677992361,51.6320886271644],[5.5950680872433605,51.63414828100778],[5.593171709544256,51.63350474680984],[5.58754204005441,51.6376269286128],[5.5864333886488655,51.64007092071547],[5.588355213626332,51.642653176471136],[5.586775774390626,51.643422535435185],[5.58576459948898,51.643869885199635],[5.583973890856724,51.64459370056544],[5.579746305639869,51.64591034170573],[5.572765965272456,51.65061221423362],[5.571650824619673,51.651154389441885],[5.570299102796546,51.65143394609563],[5.567408293953975,51.6535067606202],[5.571044773087131,51.65519752105966],[5.5689091390995875,51.65956324332157],[5.5677377147183,51.65933310968313],[5.5663931069344015,51.66134415561772],[5.564047335889009,51.66147045656201],[5.561965254296812,51.66077708129461],[5.562238560559024,51.663152061827155],[5.5659067688911,51.667368641746556],[5.573521904820187,51.6770899301031],[5.573015280359233,51.67808986767598],[5.574492132503008,51.67838434992498],[5.576964322084785,51.678765326612655],[5.5764116643539055,51.67997141595954],[5.578783325748066,51.68054568078236],[5.586863219981549,51.68305295137649],[5.5889476019237625,51.68481588504595],[5.5968366047755795,51.690922348778194],[5.598855165024367,51.695870699059945],[5.6005879019309095,51.696572737847866],[5.600227662479579,51.6982897198429],[5.59703984254414,51.70198731562127],[5.595435776915343,51.70752631661842],[5.599085612119787,51.707155062707095],[5.600064450777371,51.70848667998573],[5.58775822795799,51.72595406218458],[5.5808805933978896,51.731448003720324],[5.582224402177704,51.73274983361743],[5.579917261190517,51.73293886205082],[5.577476544595588,51.73576082910726],[5.576384845618579,51.744891363653004],[5.5966053559139,51.74741322580662],[5.597323651762004,51.750597724873934],[5.602029576400379,51.75167718865621],[5.61246956851981,51.754774199503636],[5.615048719009459,51.75616004188487],[5.617220528995994,51.75520206165156],[5.620488142021879,51.756000090075204],[5.62433797784084,51.75651573655777],[5.626727751541941,51.756941886089315],[5.635774892071647,51.75832497173584],[5.633773139333657,51.760832936239744],[5.645417725948319,51.76289110813046],[5.6487284380302665,51.76426570897599],[5.652546789341577,51.761986570277834],[5.660261506598485,51.75570214823035],[5.663505850900055,51.75432540868488],[5.667222025407642,51.752256145489106],[5.667692029683204,51.75381303252952],[5.669964248442089,51.76260430499506],[5.672259990303146,51.76561604544065],[5.674733977302681,51.7680095089889],[5.676275048442493,51.76477302868577],[5.68013898065216,51.761353218451504],[5.686104863565626,51.75927471352397],[5.690857522553907,51.75913053332525],[5.694240786318421,51.75548808810643],[5.701087547511536,51.75536202593305]]]]},"properties":{"type":"boundary","gemeente":"Maashorst","code":"GM1991"}}]}