{"type":"FeatureCollection","metadata":{"gemeente":"Maassluis","slug":"maassluis","code":"GM0556","generated_at":"2026-06-02T13:19:22.438Z","total_passenger":362,"total_freight":0,"bounds":[4.212717672623121,51.905335091012304,4.292610636796516,51.94799079452291],"operators":["Allego","E-Flux by Road","EQUANS","Eneco","Tango electric"]},"features":[{"type":"Feature","geometry":{"type":"Point","coordinates":[4.227316,51.941147]},"properties":{"type":"charge","layer":"passenger","locationId":"89462856","name":"EQUANS SGZH 2.0 89462856","address":"Kopermolen 43","city":"Maassluis","operatorName":"EQUANS","maxPowerKw":0,"isMegawatt":false,"status":"AVAILABLE","source":"ndw"}},{"type":"Feature","geometry":{"type":"Point","coordinates":[4.235868,51.932198]},"properties":{"type":"charge","layer":"passenger","locationId":"89202998","name":"EQUANS SGZH 2.0 89202998","address":"Nachtegaallaan 3","city":"Maassluis","operatorName":"EQUANS","maxPowerKw":0,"isMegawatt":false,"status":"AVAILABLE","source":"ndw"}},{"type":"Feature","geometry":{"type":"Point","coordinates":[4.25285,51.9211]},"properties":{"type":"charge","layer":"passenger","locationId":"90925352","name":"EQUANS SGZH 2.0 Haven 7","address":"Haven 7","city":"Maassluis","operatorName":"EQUANS","maxPowerKw":0,"isMegawatt":false,"status":"AVAILABLE","source":"ndw"}},{"type":"Feature","geometry":{"type":"Point","coordinates":[4.260794,51.925829]},"properties":{"type":"charge","layer":"passenger","locationId":"NLLOC007723","name":"NL, Carderie 9, 3142 BA, Maassluis","address":"Carderie 9","city":"Maassluis","operatorName":"Allego","maxPowerKw":0,"isMegawatt":false,"status":"AVAILABLE","source":"ndw"}},{"type":"Feature","geometry":{"type":"Point","coordinates":[4.24358,51.9198]},"properties":{"type":"charge","layer":"passenger","locationId":"8bdcc178-fc36-11ec-bd74-42010aa40014","name":"Eneco eMobility Zwarte Zee 54 Maassluis","address":"Zwarte Zee 54","city":"Maassluis","operatorName":"Eneco","maxPowerKw":22,"isMegawatt":false,"status":"AVAILABLE","source":"ndw"}},{"type":"Feature","geometry":{"type":"Point","coordinates":[4.22762,51.93985]},"properties":{"type":"charge","layer":"passenger","locationId":"91261698","name":"EQUANS SGZH 2.0 Stadsmolen 103","address":"Stadsmolen 103","city":"Maassluis","operatorName":"EQUANS","maxPowerKw":0,"isMegawatt":false,"status":"AVAILABLE","source":"ndw"}},{"type":"Feature","geometry":{"type":"Point","coordinates":[4.266818,51.921293]},"properties":{"type":"charge","layer":"passenger","locationId":"89354074","name":"EQUANS SGZH 2.0 89604320","address":"Crabethstraat 1","city":"Maassluis","operatorName":"EQUANS","maxPowerKw":0,"isMegawatt":false,"status":"AVAILABLE","source":"ndw"}},{"type":"Feature","geometry":{"type":"Point","coordinates":[4.259552,51.922322]},"properties":{"type":"charge","layer":"passenger","locationId":"89641442","name":"EQUANS SGZH 2.0 89641442","address":"Guido Gezellestraat 2","city":"Maassluis","operatorName":"EQUANS","maxPowerKw":0,"isMegawatt":false,"status":"AVAILABLE","source":"ndw"}},{"type":"Feature","geometry":{"type":"Point","coordinates":[4.251386,51.920903]},"properties":{"type":"charge","layer":"passenger","locationId":"73442828-5b7d-11eb-bcd6-42010a840003","name":"NL, De Schans 29, 3144 ET Maassluis","address":"De Schans 29","city":"Maassluis","operatorName":"Allego","maxPowerKw":0,"isMegawatt":false,"status":"AVAILABLE","source":"ndw"}},{"type":"Feature","geometry":{"type":"Point","coordinates":[4.241404,51.92401]},"properties":{"type":"charge","layer":"passenger","locationId":"e338ad84-0bc3-11f0-a65c-42010aa400b8","name":"Tango Maassluis 1-2","address":"Mozartlaan 332","city":"Maassluis","operatorName":"Tango electric","maxPowerKw":300,"isMegawatt":false,"status":"AVAILABLE","source":"ndw"}},{"type":"Feature","geometry":{"type":"Point","coordinates":[4.232005,51.930691]},"properties":{"type":"charge","layer":"passenger","locationId":"90822375","name":"EQUANS SGZH 2.0 Reigerstraat 39","address":"Reigerstraat 39","city":"Maassluis","operatorName":"EQUANS","maxPowerKw":0,"isMegawatt":false,"status":"AVAILABLE","source":"ndw"}},{"type":"Feature","geometry":{"type":"Point","coordinates":[4.235867,51.924353]},"properties":{"type":"charge","layer":"passenger","locationId":"f5949c94-5f3f-11ea-bcd0-42010a840003","name":"NL, Jacob van Heemskercklaan 120, 3144 DK, Maassluis","address":"Jacob van Heemskercklaan 120","city":"Maassluis","operatorName":"Allego","maxPowerKw":0,"isMegawatt":false,"status":"AVAILABLE","source":"ndw"}},{"type":"Feature","geometry":{"type":"Point","coordinates":[4.242851,51.92775]},"properties":{"type":"charge","layer":"passenger","locationId":"89315454","name":"EQUANS SGZH 2.0 Schubertlaan 814 Botter 2","address":"Schubertlaan 814","city":"Maassluis","operatorName":"EQUANS","maxPowerKw":0,"isMegawatt":false,"status":"AVAILABLE","source":"ndw"}},{"type":"Feature","geometry":{"type":"Point","coordinates":[4.243,51.91863]},"properties":{"type":"charge","layer":"passenger","locationId":"9c653b0e-2da5-11ef-922a-42010aa400b8","name":"Eneco eMobility Noordzee 10 Maassluis","address":"Noordzee 10","city":"Maassluis","operatorName":"Eneco","maxPowerKw":22,"isMegawatt":false,"status":"CHARGING","source":"ndw"}},{"type":"Feature","geometry":{"type":"Point","coordinates":[4.255693,51.928935]},"properties":{"type":"charge","layer":"passenger","locationId":"NLLOC002607","name":"NLD, Maassluis, Rozenlaan 2","address":"Rozenlaan 2","city":"Maassluis","operatorName":"Allego","maxPowerKw":0,"isMegawatt":false,"status":"AVAILABLE","source":"ndw"}},{"type":"Feature","geometry":{"type":"Point","coordinates":[4.261465,51.917323]},"properties":{"type":"charge","layer":"passenger","locationId":"NLLOC001869","name":"NLD, Maassluis, Rembrandtlaan 2","address":"Rembrandtlaan 2","city":"Maassluis","operatorName":"Allego","maxPowerKw":0,"isMegawatt":false,"status":"AVAILABLE","source":"ndw"}},{"type":"Feature","geometry":{"type":"Point","coordinates":[4.262369,51.923269]},"properties":{"type":"charge","layer":"passenger","locationId":"90167038","name":"EQUANS SGZH 2.0 Mgr. W.M. Bekkerslaan 98","address":"Mgr. W.M. Bekkerslaan 98","city":"Maassluis","operatorName":"EQUANS","maxPowerKw":0,"isMegawatt":false,"status":"AVAILABLE","source":"ndw"}},{"type":"Feature","geometry":{"type":"Point","coordinates":[4.258543,51.920819]},"properties":{"type":"charge","layer":"passenger","locationId":"90172059","name":"EQUANS SGZH 2.0 P.C. Hooftlaan 302","address":"P.C. Hooftlaan 302","city":"Maassluis","operatorName":"EQUANS","maxPowerKw":0,"isMegawatt":false,"status":"CHARGING","source":"ndw"}},{"type":"Feature","geometry":{"type":"Point","coordinates":[4.241404,51.92401]},"properties":{"type":"charge","layer":"passenger","locationId":"07d08b7d-2196-415c-8f12-88cf5c12e5ce","name":"Tango Maassluis 1-2","address":"Mozartlaan 332","city":"Maassluis","operatorName":"Tango electric","maxPowerKw":300,"isMegawatt":false,"status":"AVAILABLE","source":"ndw"}},{"type":"Feature","geometry":{"type":"Point","coordinates":[4.251933,51.929694]},"properties":{"type":"charge","layer":"passenger","locationId":"90123455","name":"EQUANS SGZH 2.0 Olmendal 60","address":"Olmendal 60","city":"Maassluis","operatorName":"EQUANS","maxPowerKw":0,"isMegawatt":false,"status":"AVAILABLE","source":"ndw"}},{"type":"Feature","geometry":{"type":"Point","coordinates":[4.253425,51.919142]},"properties":{"type":"charge","layer":"passenger","locationId":"89254206","name":"EQUANS SGZH 2.0 89254206","address":"Witte de Withstraat 17","city":"Maassluis","operatorName":"EQUANS","maxPowerKw":0,"isMegawatt":false,"status":"AVAILABLE","source":"ndw"}},{"type":"Feature","geometry":{"type":"Point","coordinates":[4.229082,51.931088]},"properties":{"type":"charge","layer":"passenger","locationId":"78e4810c-0d85-11ea-858f-42010a840003","name":"NLD Merellaan 168 3145 XH Maassluis","address":"Merellaan 168","city":"Maassluis","operatorName":"Allego","maxPowerKw":0,"isMegawatt":false,"status":"AVAILABLE","source":"ndw"}},{"type":"Feature","geometry":{"type":"Point","coordinates":[4.247437,51.927077]},"properties":{"type":"charge","layer":"passenger","locationId":"aa4767b0-70f5-11e8-b512-42010a840002","name":"NLD, Maassluis, Peter van Anrooylaan 2","address":"Peter van Anrooylaan 2","city":"Maassluis","operatorName":"Allego","maxPowerKw":0,"isMegawatt":false,"status":"AVAILABLE","source":"ndw"}},{"type":"Feature","geometry":{"type":"Point","coordinates":[4.25056,51.929009]},"properties":{"type":"charge","layer":"passenger","locationId":"90310804","name":"EQUANS SGZH 2.0 Berkendal 67","address":"Berkendal 67","city":"Maassluis","operatorName":"EQUANS","maxPowerKw":0,"isMegawatt":false,"status":"AVAILABLE","source":"ndw"}},{"type":"Feature","geometry":{"type":"Point","coordinates":[4.23694,51.927907]},"properties":{"type":"charge","layer":"passenger","locationId":"89239858","name":"EQUANS SGZH 2.0 Uiverlaan 26","address":"Uiverlaan 26","city":"Maassluis","operatorName":"EQUANS","maxPowerKw":0,"isMegawatt":false,"status":"AVAILABLE","source":"ndw"}},{"type":"Feature","geometry":{"type":"Point","coordinates":[4.2643,51.9224]},"properties":{"type":"charge","layer":"passenger","locationId":"91050032","name":"EQUANS SGZH 2.0 Staringstraat 23","address":"Staringstraat 23","city":"Maassluis","operatorName":"EQUANS","maxPowerKw":0,"isMegawatt":false,"status":"AVAILABLE","source":"ndw"}},{"type":"Feature","geometry":{"type":"Point","coordinates":[4.257318,51.922838]},"properties":{"type":"charge","layer":"passenger","locationId":"77290b0c-8654-11e9-a058-42010a840003","name":"NLD, Groen van Prinstererkade 2 3142GD Maassluis","address":"Groen van Prinstererkade 2","city":"Maassluis","operatorName":"Allego","maxPowerKw":0,"isMegawatt":false,"status":"AVAILABLE","source":"ndw"}},{"type":"Feature","geometry":{"type":"Point","coordinates":[4.22977,51.93366]},"properties":{"type":"charge","layer":"passenger","locationId":"91049966","name":"EQUANS SGZH 2.0 Dr. Jan Schoutenlaan 328","address":"Dr. Jan Schoutenlaan 328","city":"Maassluis","operatorName":"EQUANS","maxPowerKw":0,"isMegawatt":false,"status":"AVAILABLE","source":"ndw"}},{"type":"Feature","geometry":{"type":"Point","coordinates":[4.245937,51.922894]},"properties":{"type":"charge","layer":"passenger","locationId":"46787352-6290-11eb-a4a2-42010a840003","name":"NL, Talmastraat 50, 3144 CV, Maassluis","address":"Talmastraat 50","city":"Maassluis","operatorName":"Allego","maxPowerKw":0,"isMegawatt":false,"status":"AVAILABLE","source":"ndw"}},{"type":"Feature","geometry":{"type":"Point","coordinates":[4.233935,51.931205]},"properties":{"type":"charge","layer":"passenger","locationId":"656a860c-b57a-11e9-b6b2-42010a840003","name":"NLD Nachtegaallaan 40 3145 CL Maassluis","address":"Nachtegaallaan 40","city":"Maassluis","operatorName":"Allego","maxPowerKw":0,"isMegawatt":false,"status":"AVAILABLE","source":"ndw"}},{"type":"Feature","geometry":{"type":"Point","coordinates":[4.252717,51.926201]},"properties":{"type":"charge","layer":"passenger","locationId":"8301618c-d67b-11e9-ad73-42010a840003","name":"NLD, Seringenstraat 2 3142NW Maassluis","address":"Seringenstraat 2","city":"Maassluis","operatorName":"Allego","maxPowerKw":0,"isMegawatt":false,"status":"AVAILABLE","source":"ndw"}},{"type":"Feature","geometry":{"type":"Point","coordinates":[4.240479,51.929883]},"properties":{"type":"charge","layer":"passenger","locationId":"e5fa4b0e-65b4-11eb-b0c8-42010a840003","name":"NL, Boeier 21, 3144GA Maassluis","address":"Boeier 21","city":"Maassluis","operatorName":"Allego","maxPowerKw":0,"isMegawatt":false,"status":"AVAILABLE","source":"ndw"}},{"type":"Feature","geometry":{"type":"Point","coordinates":[4.239092,51.921382]},"properties":{"type":"charge","layer":"passenger","locationId":"66e2d8b44f1df6001d97d77c","name":"Praepes Charge","address":"Het Hoge Licht 46","city":"Maassluis","operatorName":"E-Flux by Road","maxPowerKw":22,"isMegawatt":false,"status":"AVAILABLE","source":"ndw"}},{"type":"Feature","geometry":{"type":"Point","coordinates":[4.229834,51.935448]},"properties":{"type":"charge","layer":"passenger","locationId":"90122379","name":"EQUANS SGZH 2.0 Burg. van de Brandelerlaan 2 b","address":"Burg. van de Brandelerlaan 2 b","city":"Maassluis","operatorName":"EQUANS","maxPowerKw":0,"isMegawatt":false,"status":"AVAILABLE","source":"ndw"}},{"type":"Feature","geometry":{"type":"Point","coordinates":[4.24835,51.92517]},"properties":{"type":"charge","layer":"passenger","locationId":"1a3d3e06-4e72-11e8-91c6-42010a840002","name":"EQUANS SGZH 2.0 89035925","address":"Heldringstraat 101","city":"Maassluis","operatorName":"EQUANS","maxPowerKw":0,"isMegawatt":false,"status":"AVAILABLE","source":"ndw"}},{"type":"Feature","geometry":{"type":"Point","coordinates":[4.22762,51.93985]},"properties":{"type":"charge","layer":"passenger","locationId":"3d3bcce4-d54f-11f0-813f-42010aa400b8","name":"EQUANS SGZH 2.0 Stadsmolen 103","address":"Stadsmolen 103","city":"Maassluis","operatorName":"EQUANS","maxPowerKw":0,"isMegawatt":false,"status":"AVAILABLE","source":"ndw"}},{"type":"Feature","geometry":{"type":"Point","coordinates":[4.251007,51.923489]},"properties":{"type":"charge","layer":"passenger","locationId":"7a8c93f6-dbfc-11ee-a167-42010aa400b8","name":"EQUANS SGZH 2.0 89942990","address":"Noorddijk 53 b","city":"Maassluis","operatorName":"EQUANS","maxPowerKw":0,"isMegawatt":false,"status":"AVAILABLE","source":"ndw"}},{"type":"Feature","geometry":{"type":"Point","coordinates":[4.228204,51.938931]},"properties":{"type":"charge","layer":"passenger","locationId":"83f42f18-80a8-11ed-a2f2-42010aa40fc0","name":"EQUANS SGZH 2.0 89035930","address":"Stadsmolen 30","city":"Maassluis","operatorName":"EQUANS","maxPowerKw":0,"isMegawatt":false,"status":"CHARGING","source":"ndw"}},{"type":"Feature","geometry":{"type":"Point","coordinates":[4.259552,51.922322]},"properties":{"type":"charge","layer":"passenger","locationId":"6937eac4-04ac-11ee-9a05-42010aa40fc0","name":"EQUANS SGZH 2.0 89641442","address":"Guido Gezellestraat 2","city":"Maassluis","operatorName":"EQUANS","maxPowerKw":0,"isMegawatt":false,"status":"AVAILABLE","source":"ndw"}},{"type":"Feature","geometry":{"type":"Point","coordinates":[4.226291,51.942493]},"properties":{"type":"charge","layer":"passenger","locationId":"8d50adde-57f8-11ee-8216-42010aa40fc0","name":"EQUANS SGZH 2.0 89942874","address":"Dr. Albert Schweitzerdreef 485","city":"Maassluis","operatorName":"EQUANS","maxPowerKw":0,"isMegawatt":false,"status":"AVAILABLE","source":"ndw"}},{"type":"Feature","geometry":{"type":"Point","coordinates":[4.254179,51.924563]},"properties":{"type":"charge","layer":"passenger","locationId":"8d852668-57f8-11ee-a2fa-42010aa40fc0","name":"EQUANS SGZH 2.0 89942877","address":"Scheerderij 37","city":"Maassluis","operatorName":"EQUANS","maxPowerKw":0,"isMegawatt":false,"status":"AVAILABLE","source":"ndw"}},{"type":"Feature","geometry":{"type":"Point","coordinates":[4.244462,51.926008]},"properties":{"type":"charge","layer":"passenger","locationId":"8e664eb4-1fbf-11f0-985b-42010aa400b8","name":"EQUANS SGZH 2.0 Mozartlaan 110","address":"Mozartlaan 110","city":"Maassluis","operatorName":"EQUANS","maxPowerKw":0,"isMegawatt":false,"status":"CHARGING","source":"ndw"}},{"type":"Feature","geometry":{"type":"Point","coordinates":[4.236137,51.922171]},"properties":{"type":"charge","layer":"passenger","locationId":"b2cf312a-c509-11ed-9010-42010aa40fc0","name":"EQUANS SGZH 2.0 SGZH","address":"Santplaet 210","city":"Maassluis","operatorName":"EQUANS","maxPowerKw":0,"isMegawatt":false,"status":"AVAILABLE","source":"ndw"}},{"type":"Feature","geometry":{"type":"Point","coordinates":[4.2268,51.93289]},"properties":{"type":"charge","layer":"passenger","locationId":"f8897644-4e71-11e8-ae5f-42010a840002","name":"EQUANS SGZH 2.0 89035929","address":"Willem Weltevredenlaan 58","city":"Maassluis","operatorName":"EQUANS","maxPowerKw":0,"isMegawatt":false,"status":"AVAILABLE","source":"ndw"}},{"type":"Feature","geometry":{"type":"Point","coordinates":[4.252433,51.920005]},"properties":{"type":"charge","layer":"passenger","locationId":"5e087030-b66a-11ea-afe3-42010a840003","name":"NLD Zandpad 26 3143 BL, Maassluis","address":"Zandpad 26","city":"Maassluis","operatorName":"Allego","maxPowerKw":0,"isMegawatt":false,"status":"AVAILABLE","source":"ndw"}},{"type":"Feature","geometry":{"type":"Point","coordinates":[4.230118,51.932425]},"properties":{"type":"charge","layer":"passenger","locationId":"89145575","name":"EQUANS SGZH 2.0 89145575","address":"Korhoenstraat 25","city":"Maassluis","operatorName":"EQUANS","maxPowerKw":0,"isMegawatt":false,"status":"AVAILABLE","source":"ndw"}},{"type":"Feature","geometry":{"type":"Point","coordinates":[4.231515,51.930783]},"properties":{"type":"charge","layer":"passenger","locationId":"d1f36ea6-4f3c-11e8-960a-42010a840002","name":"NLD, Maassluis, Reigerstraat 63","address":"Reigerstraat 63","city":"Maassluis","operatorName":"Allego","maxPowerKw":0,"isMegawatt":false,"status":"AVAILABLE","source":"ndw"}},{"type":"Feature","geometry":{"type":"Point","coordinates":[4.250019,51.919898]},"properties":{"type":"charge","layer":"passenger","locationId":"d486c246-ad9e-11e9-9a31-42010a840003","name":"NLD Keucheniusstraat 2 3144 EN Maassluis","address":"Keucheniusstraat 5","city":"Maassluis","operatorName":"Allego","maxPowerKw":0,"isMegawatt":false,"status":"AVAILABLE","source":"ndw"}},{"type":"Feature","geometry":{"type":"Point","coordinates":[4.255693,51.928935]},"properties":{"type":"charge","layer":"passenger","locationId":"f16ed588-86f8-11e8-b1ef-42010a840002","name":"NLD, Maassluis, Rozenlaan 2","address":"Rozenlaan 2","city":"Maassluis","operatorName":"Allego","maxPowerKw":0,"isMegawatt":false,"status":"AVAILABLE","source":"ndw"}},{"type":"Feature","geometry":{"type":"Point","coordinates":[4.233842,51.933124]},"properties":{"type":"charge","layer":"passenger","locationId":"84401654-527f-11e9-a1b0-42010a840003","name":"NLD, Maassluis, Bosuilstraat 8","address":"Bosuilstraat 8","city":"Maassluis","operatorName":"Allego","maxPowerKw":0,"isMegawatt":false,"status":"AVAILABLE","source":"ndw"}},{"type":"Feature","geometry":{"type":"Point","coordinates":[4.239097,51.925179]},"properties":{"type":"charge","layer":"passenger","locationId":"89200934","name":"EQUANS SGZH 2.0 89200934","address":"Berliozstraat 12","city":"Maassluis","operatorName":"EQUANS","maxPowerKw":0,"isMegawatt":false,"status":"CHARGING","source":"ndw"}},{"type":"Feature","geometry":{"type":"Point","coordinates":[4.24817,51.92291]},"properties":{"type":"charge","layer":"passenger","locationId":"0cb7269a-7f1f-11ea-a997-42010a840fd3","name":"EQUANS SGZH 2.0 89035926","address":"Heldringstraat 6","city":"Maassluis","operatorName":"EQUANS","maxPowerKw":0,"isMegawatt":false,"status":"CHARGING","source":"ndw"}},{"type":"Feature","geometry":{"type":"Point","coordinates":[4.23896,51.92268]},"properties":{"type":"charge","layer":"passenger","locationId":"3ec80f62-4e72-11e8-81de-42010a840002","name":"EQUANS SGZH 2.0 89035927","address":"Bruinvisch 12TO","city":"Maassluis","operatorName":"EQUANS","maxPowerKw":0,"isMegawatt":false,"status":"AVAILABLE","source":"ndw"}},{"type":"Feature","geometry":{"type":"Point","coordinates":[4.231088,51.939909]},"properties":{"type":"charge","layer":"passenger","locationId":"8010c4b0-da97-11ef-a6f4-42010aa400b8","name":"EQUANS SGZH 2.0 Schepradmolen 2","address":"Schepradmolen 2","city":"Maassluis","operatorName":"EQUANS","maxPowerKw":0,"isMegawatt":false,"status":"AVAILABLE","source":"ndw"}},{"type":"Feature","geometry":{"type":"Point","coordinates":[4.252621,51.923323]},"properties":{"type":"charge","layer":"passenger","locationId":"91161396","name":"EQUANS SGZH 2.0 wagenstraat 9","address":"wagenstraat 9","city":"Maassluis","operatorName":"EQUANS","maxPowerKw":0,"isMegawatt":false,"status":"AVAILABLE","source":"ndw"}},{"type":"Feature","geometry":{"type":"Point","coordinates":[4.259838,51.921472]},"properties":{"type":"charge","layer":"passenger","locationId":"5077cb68-cb14-11eb-8dd8-42010a840003","name":"NL, Guido Gezellestraat 12, 3141BG, Maassluis","address":"Guido Gezellestraat 12","city":"Maassluis","operatorName":"Allego","maxPowerKw":0,"isMegawatt":false,"status":"AVAILABLE","source":"ndw"}},{"type":"Feature","geometry":{"type":"Point","coordinates":[4.26731,51.91936]},"properties":{"type":"charge","layer":"passenger","locationId":"89035922","name":"EQUANS SGZH 2.0 89035922","address":"Vermeerlaan 32","city":"Maassluis","operatorName":"EQUANS","maxPowerKw":0,"isMegawatt":false,"status":"AVAILABLE","source":"ndw"}},{"type":"Feature","geometry":{"type":"Point","coordinates":[4.238566,51.922089]},"properties":{"type":"charge","layer":"passenger","locationId":"011ed11e-3fa8-11e9-a352-42010a840003","name":"NLD, Maassluis, Vuurbaak 2","address":"Vuurbaak 2","city":"Maassluis","operatorName":"Allego","maxPowerKw":0,"isMegawatt":false,"status":"AVAILABLE","source":"ndw"}},{"type":"Feature","geometry":{"type":"Point","coordinates":[4.227313,51.93483]},"properties":{"type":"charge","layer":"passenger","locationId":"bee6a53e-2a70-11e9-afe7-42010a840003","name":"NLD, Maassluis, Doctor Jan Schoutenlaan 256","address":"Doctor Jan Schoutenlaan 256","city":"Maassluis","operatorName":"Allego","maxPowerKw":0,"isMegawatt":false,"status":"CHARGING","source":"ndw"}},{"type":"Feature","geometry":{"type":"Point","coordinates":[4.251626,51.927678]},"properties":{"type":"charge","layer":"passenger","locationId":"46dd540e-507d-11eb-9fb0-42010a840003","name":"NL, Dennendal 48, 3142AC, Maassluis","address":"Dennendal 48","city":"Maassluis","operatorName":"Allego","maxPowerKw":0,"isMegawatt":false,"status":"AVAILABLE","source":"ndw"}},{"type":"Feature","geometry":{"type":"Point","coordinates":[4.255306,51.924095]},"properties":{"type":"charge","layer":"passenger","locationId":"519cb794-8baf-11e8-814b-42010a840002","name":"NLD, Maassluis, Marelstraat 69","address":"Marelstraat 69","city":"Maassluis","operatorName":"Allego","maxPowerKw":0,"isMegawatt":false,"status":"AVAILABLE","source":"ndw"}},{"type":"Feature","geometry":{"type":"Point","coordinates":[4.240668,51.92471]},"properties":{"type":"charge","layer":"passenger","locationId":"e6f1ee4c-7890-11eb-a220-42010a840033","name":"NL, Verdistraat 11, 3144KH, Maassluis","address":"Verdistraat 11","city":"Maassluis","operatorName":"Allego","maxPowerKw":0,"isMegawatt":false,"status":"AVAILABLE","source":"ndw"}},{"type":"Feature","geometry":{"type":"Point","coordinates":[4.238369,51.931387]},"properties":{"type":"charge","layer":"passenger","locationId":"eca69e94-4be9-11e9-b4e1-42010a840003","name":"NLD, Maassluis, Zwaluwstraat 15","address":"Zwaluwstraat 15","city":"Maassluis","operatorName":"Allego","maxPowerKw":0,"isMegawatt":false,"status":"AVAILABLE","source":"ndw"}},{"type":"Feature","geometry":{"type":"Point","coordinates":[4.251503,51.921632]},"properties":{"type":"charge","layer":"passenger","locationId":"9176c08a-4f3c-11e8-8985-42010a840002","name":"NLD, Maassluis, Ankerstraat 2","address":"Ankerstraat 2","city":"Maassluis","operatorName":"Allego","maxPowerKw":0,"isMegawatt":false,"status":"AVAILABLE","source":"ndw"}},{"type":"Feature","geometry":{"type":"Point","coordinates":[4.24358,51.9198]},"properties":{"type":"charge","layer":"passenger","locationId":"756C6277-C636-45BD-AF26-8E46A75423C8","name":"Eneco eMobility Zwarte Zee 54 Maassluis","address":"Zwarte Zee 54","city":"Maassluis","operatorName":"Eneco","maxPowerKw":22,"isMegawatt":false,"status":"AVAILABLE","source":"ndw"}},{"type":"Feature","geometry":{"type":"Point","coordinates":[4.26612,51.920771]},"properties":{"type":"charge","layer":"passenger","locationId":"3360e72c-57f7-11e9-b35b-42010a840003","name":"NLD, Maassluis, Vermeerlaan 2","address":"Vermeerlaan 2","city":"Maassluis","operatorName":"Allego","maxPowerKw":0,"isMegawatt":false,"status":"AVAILABLE","source":"ndw"}},{"type":"Feature","geometry":{"type":"Point","coordinates":[4.230901,51.941828]},"properties":{"type":"charge","layer":"passenger","locationId":"45d1b276-507d-11eb-85f7-42010a840003","name":"Kalandermolen 52, 3146 SL Maassluis","address":"Kalandermolen 52","city":"Maassluis","operatorName":"Allego","maxPowerKw":0,"isMegawatt":false,"status":"AVAILABLE","source":"ndw"}},{"type":"Feature","geometry":{"type":"Point","coordinates":[4.264922,51.922392]},"properties":{"type":"charge","layer":"passenger","locationId":"bbd9712e-4f3c-11e8-93b4-42010a840002","name":"NLD, Maassluis, Wipperspark 70","address":"Wipperspark 70","city":"Maassluis","operatorName":"Allego","maxPowerKw":0,"isMegawatt":false,"status":"AVAILABLE","source":"ndw"}},{"type":"Feature","geometry":{"type":"Point","coordinates":[4.25412,51.91988]},"properties":{"type":"charge","layer":"passenger","locationId":"89035923","name":"EQUANS SGZH 2.0 89035923","address":"Fenacoliuslaan 10","city":"Maassluis","operatorName":"EQUANS","maxPowerKw":0,"isMegawatt":false,"status":"AVAILABLE","source":"ndw"}},{"type":"Feature","geometry":{"type":"Point","coordinates":[4.2371,51.92355]},"properties":{"type":"charge","layer":"passenger","locationId":"89488019","name":"EQUANS SGZH 2.0 Jacob van Heemskercklaan 76","address":"Jacob van Heemskercklaan 76","city":"Maassluis","operatorName":"EQUANS","maxPowerKw":0,"isMegawatt":false,"status":"AVAILABLE","source":"ndw"}},{"type":"Feature","geometry":{"type":"Point","coordinates":[4.25412,51.91988]},"properties":{"type":"charge","layer":"passenger","locationId":"32c6a980-4e72-11e8-a9fd-42010a840002","name":"EQUANS SGZH 2.0 89035923","address":"Fenacoliuslaan 10","city":"Maassluis","operatorName":"EQUANS","maxPowerKw":0,"isMegawatt":false,"status":"CHARGING","source":"ndw"}},{"type":"Feature","geometry":{"type":"Point","coordinates":[4.263585,51.920001]},"properties":{"type":"charge","layer":"passenger","locationId":"797478fc-55fd-11ed-adc4-42010aa40fc0","name":"EQUANS SGZH 2.0 89329834","address":"Govert Flinckplein 1","city":"Maassluis","operatorName":"EQUANS","maxPowerKw":0,"isMegawatt":false,"status":"AVAILABLE","source":"ndw"}},{"type":"Feature","geometry":{"type":"Point","coordinates":[4.237069,51.923571]},"properties":{"type":"charge","layer":"passenger","locationId":"a364bd38-dbef-11ee-a644-42010aa400b8","name":"NL, Jacob van Heemskercklaan 72, 3144 DK, Maassluis","address":"Jacob van Heemskercklaan 72","city":"Maassluis","operatorName":"Allego","maxPowerKw":0,"isMegawatt":false,"status":"CHARGING","source":"ndw"}},{"type":"Feature","geometry":{"type":"Point","coordinates":[4.230028,51.934656]},"properties":{"type":"charge","layer":"passenger","locationId":"a41bf2e4-2eeb-11ed-bf1c-42010aa40fc0","name":"EQUANS SGZH 2.0 89273919","address":"Schwartzlaan 20","city":"Maassluis","operatorName":"EQUANS","maxPowerKw":0,"isMegawatt":false,"status":"AVAILABLE","source":"ndw"}},{"type":"Feature","geometry":{"type":"Point","coordinates":[4.259989,51.916655]},"properties":{"type":"charge","layer":"passenger","locationId":"ac02b1d0-d5b3-11ee-a378-42010aa40fc0","name":"EQUANS SGZH 2.0 Mauvelaan 16 (hoek Neuhuyslaan )","address":"Mauvelaan 16","city":"Maassluis","operatorName":"EQUANS","maxPowerKw":0,"isMegawatt":false,"status":"AVAILABLE","source":"ndw"}},{"type":"Feature","geometry":{"type":"Point","coordinates":[4.242269,51.922786]},"properties":{"type":"charge","layer":"passenger","locationId":"b17d9d22-4f3c-11e8-92db-42010a840002","name":"EQUANS SGZH 2.0 89185502","address":"Cornelis van der Kolffstraat 169","city":"Maassluis","operatorName":"EQUANS","maxPowerKw":0,"isMegawatt":false,"status":"AVAILABLE","source":"ndw"}},{"type":"Feature","geometry":{"type":"Point","coordinates":[4.248824,51.915385]},"properties":{"type":"charge","layer":"passenger","locationId":"f88d4b3e-5aec-11ed-9070-42010aa40fc0","name":"EQUANS SGZH 2.0 89254171","address":"De la Reystraat 29","city":"Maassluis","operatorName":"EQUANS","maxPowerKw":0,"isMegawatt":false,"status":"AVAILABLE","source":"ndw"}},{"type":"Feature","geometry":{"type":"Point","coordinates":[4.241351,51.920925]},"properties":{"type":"charge","layer":"passenger","locationId":"09e5d22e-ddf4-11eb-8135-42010a840003","name":"NL, Jacob van Heemskercklaan 2, 3144DK, Maassluis","address":"Jacob van Heemskercklaan 2","city":"Maassluis","operatorName":"Allego","maxPowerKw":0,"isMegawatt":false,"status":"AVAILABLE","source":"ndw"}},{"type":"Feature","geometry":{"type":"Point","coordinates":[4.241931,51.922746]},"properties":{"type":"charge","layer":"passenger","locationId":"06212036-dbed-11ee-93d4-42010aa400b8","name":"NLD, Maassluis, Industrieweg 100","address":"Industrieweg 100","city":"Maassluis","operatorName":"Allego","maxPowerKw":0,"isMegawatt":false,"status":"CHARGING","source":"ndw"}},{"type":"Feature","geometry":{"type":"Point","coordinates":[4.262461,51.92562]},"properties":{"type":"charge","layer":"passenger","locationId":"a9f6ecae-ea20-11e9-bfb2-42010a840003","name":"NLD Lijnbaan 122 3142 BM Maassluis","address":"Lijnbaan 124","city":"Maassluis","operatorName":"Allego","maxPowerKw":0,"isMegawatt":false,"status":"AVAILABLE","source":"ndw"}},{"type":"Feature","geometry":{"type":"Point","coordinates":[4.246477,51.928577]},"properties":{"type":"charge","layer":"passenger","locationId":"8a4c05d6-6b9c-11e9-bf0a-42010a840003","name":"NLD, Willem Pijperplein 89 3144BP Maassluis","address":"Willem Pijperplein 89","city":"Maassluis","operatorName":"Allego","maxPowerKw":0,"isMegawatt":false,"status":"AVAILABLE","source":"ndw"}},{"type":"Feature","geometry":{"type":"Point","coordinates":[4.24627,51.92919]},"properties":{"type":"charge","layer":"passenger","locationId":"6fb44bc0-febc-11ef-ad97-42010aa400b8","name":"EQUANS SGZH 2.0 Richard Hollaan 127","address":"Richard Hollaan 127","city":"Maassluis","operatorName":"EQUANS","maxPowerKw":0,"isMegawatt":false,"status":"AVAILABLE","source":"ndw"}},{"type":"Feature","geometry":{"type":"Point","coordinates":[4.239097,51.925179]},"properties":{"type":"charge","layer":"passenger","locationId":"96ecd50c-c771-11ec-9112-42010a840003","name":"EQUANS SGZH 2.0 89200934","address":"Berliozstraat 12","city":"Maassluis","operatorName":"EQUANS","maxPowerKw":0,"isMegawatt":false,"status":"AVAILABLE","source":"ndw"}},{"type":"Feature","geometry":{"type":"Point","coordinates":[4.237194,51.931708]},"properties":{"type":"charge","layer":"passenger","locationId":"a4f8996e-7f0e-11ee-8de4-42010aa40fc0","name":"EQUANS SGZH 2.0 Karekietstraat 30","address":"Karekietstraat 30","city":"Maassluis","operatorName":"EQUANS","maxPowerKw":0,"isMegawatt":false,"status":"AVAILABLE","source":"ndw"}},{"type":"Feature","geometry":{"type":"Point","coordinates":[4.262056,51.921764]},"properties":{"type":"charge","layer":"passenger","locationId":"af2d779c-a4e5-11ec-8925-42010a840003","name":"EQUANS SGZH 2.0 89188816","address":"Jan Luykenstraat 36","city":"Maassluis","operatorName":"EQUANS","maxPowerKw":0,"isMegawatt":false,"status":"CHARGING","source":"ndw"}},{"type":"Feature","geometry":{"type":"Point","coordinates":[4.23694,51.927907]},"properties":{"type":"charge","layer":"passenger","locationId":"f771983e-6a06-11ee-bf28-42010aa40fc0","name":"EQUANS SGZH 2.0 Uiverlaan 26","address":"Uiverlaan 26","city":"Maassluis","operatorName":"EQUANS","maxPowerKw":0,"isMegawatt":false,"status":"AVAILABLE","source":"ndw"}},{"type":"Feature","geometry":{"type":"Point","coordinates":[4.238923,51.921999]},"properties":{"type":"charge","layer":"passenger","locationId":"4bcec770-74dc-11ec-9b9d-42010a840003","name":"NL, Vuurbaak 1, 3144DP, Maassluis","address":"Vuurbaak 1","city":"Maassluis","operatorName":"Allego","maxPowerKw":0,"isMegawatt":false,"status":"AVAILABLE","source":"ndw"}},{"type":"Feature","geometry":{"type":"Point","coordinates":[4.238151,51.920508]},"properties":{"type":"charge","layer":"passenger","locationId":"2c74c988-5245-11ec-8546-42010a840003","name":"NL, Het Hoge Licht 135, 3144DN, Maassluis","address":"Het Hoge Licht 135","city":"Maassluis","operatorName":"Allego","maxPowerKw":0,"isMegawatt":false,"status":"AVAILABLE","source":"ndw"}},{"type":"Feature","geometry":{"type":"Point","coordinates":[4.256231,51.925751]},"properties":{"type":"charge","layer":"passenger","locationId":"6a2c3212-e6d2-11ec-a305-42010aa40fc0","name":"EQUANS SGZH 2.0 89235334","address":"Twijnerij 35","city":"Maassluis","operatorName":"EQUANS","maxPowerKw":0,"isMegawatt":false,"status":"AVAILABLE","source":"ndw"}},{"type":"Feature","geometry":{"type":"Point","coordinates":[4.22011,51.938008]},"properties":{"type":"charge","layer":"passenger","locationId":"9f2c967e-0edf-11ee-9fce-42010aa40fc0","name":"EQUANS SGZH 2.0 89145574","address":"Lorentzdreef 13","city":"Maassluis","operatorName":"EQUANS","maxPowerKw":0,"isMegawatt":false,"status":"AVAILABLE","source":"ndw"}},{"type":"Feature","geometry":{"type":"Point","coordinates":[4.266818,51.921293]},"properties":{"type":"charge","layer":"passenger","locationId":"ab40c1b8-66b7-11ed-99bb-42010aa40fc0","name":"EQUANS SGZH 2.0 89604320","address":"Crabethstraat 1","city":"Maassluis","operatorName":"EQUANS","maxPowerKw":0,"isMegawatt":false,"status":"AVAILABLE","source":"ndw"}},{"type":"Feature","geometry":{"type":"Point","coordinates":[4.250741,51.926695]},"properties":{"type":"charge","layer":"passenger","locationId":"6fa349ee-6b6e-11ed-83af-42010aa40fc0","name":"EQUANS SGZH 2.0 89355425","address":"Weverskade 43","city":"Maassluis","operatorName":"EQUANS","maxPowerKw":0,"isMegawatt":false,"status":"AVAILABLE","source":"ndw"}},{"type":"Feature","geometry":{"type":"Point","coordinates":[4.24616,51.9221]},"properties":{"type":"charge","layer":"passenger","locationId":"9debd22a-d83c-11ef-a67b-42010aa400b8","name":"EQUANS SGZH 2.0 P.J. Troelstraweg 101","address":"P.J. Troelstraweg 101","city":"Maassluis","operatorName":"EQUANS","maxPowerKw":0,"isMegawatt":false,"status":"AVAILABLE","source":"ndw"}},{"type":"Feature","geometry":{"type":"Point","coordinates":[4.23391,51.929586]},"properties":{"type":"charge","layer":"passenger","locationId":"b1b6f052-f5eb-11ee-9da2-42010aa400b8","name":"EQUANS SGZH 2.0 Eksterstraat 12","address":"Eksterstraat 12","city":"Maassluis","operatorName":"EQUANS","maxPowerKw":0,"isMegawatt":false,"status":"CHARGING","source":"ndw"}},{"type":"Feature","geometry":{"type":"Point","coordinates":[4.222689,51.934454]},"properties":{"type":"charge","layer":"passenger","locationId":"89328019","name":"EQUANS SGZH 2.0 89328019","address":"Nobeldreef 55","city":"Maassluis","operatorName":"EQUANS","maxPowerKw":0,"isMegawatt":false,"status":"AVAILABLE","source":"ndw"}},{"type":"Feature","geometry":{"type":"Point","coordinates":[4.227419,51.940881]},"properties":{"type":"charge","layer":"passenger","locationId":"89221187","name":"EQUANS SGZH 2.0 Pelmolen 11","address":"Pelmolen 11","city":"Maassluis","operatorName":"EQUANS","maxPowerKw":0,"isMegawatt":false,"status":"AVAILABLE","source":"ndw"}},{"type":"Feature","geometry":{"type":"Point","coordinates":[4.231683,51.929079]},"properties":{"type":"charge","layer":"passenger","locationId":"b7949340-dacc-11eb-b916-42010a840003","name":"NL, Merellaan 447, 3145 ER Maassluis","address":"Merellaan 447","city":"Maassluis","operatorName":"Allego","maxPowerKw":0,"isMegawatt":false,"status":"AVAILABLE","source":"ndw"}},{"type":"Feature","geometry":{"type":"Point","coordinates":[4.260794,51.925829]},"properties":{"type":"charge","layer":"passenger","locationId":"dbb07cbc-7925-11ea-bbe8-42010a840003","name":"NL, Carderie 9, 3142 BA, Maassluis","address":"Carderie 9","city":"Maassluis","operatorName":"Allego","maxPowerKw":0,"isMegawatt":false,"status":"AVAILABLE","source":"ndw"}},{"type":"Feature","geometry":{"type":"Point","coordinates":[4.24867,51.91637]},"properties":{"type":"charge","layer":"passenger","locationId":"89035924","name":"EQUANS SGZH 2.0 89035924","address":"Joubertstraat 2","city":"Maassluis","operatorName":"EQUANS","maxPowerKw":0,"isMegawatt":false,"status":"AVAILABLE","source":"ndw"}},{"type":"Feature","geometry":{"type":"Point","coordinates":[4.22579,51.939835]},"properties":{"type":"charge","layer":"passenger","locationId":"d42085f6-c9e8-11e9-9323-42010a840003","name":"NLD Trasmolen 15 3146 TE Maassluis","address":"Trasmolen 15","city":"Maassluis","operatorName":"Allego","maxPowerKw":0,"isMegawatt":false,"status":"AVAILABLE","source":"ndw"}},{"type":"Feature","geometry":{"type":"Point","coordinates":[4.227683,51.939454]},"properties":{"type":"charge","layer":"passenger","locationId":"626bcae61f1ec2a641098628","name":"DrieMaasHave - Maassluis","address":"Stadsmolen 101","city":"Maassluis","operatorName":"E-Flux by Road","maxPowerKw":10,"isMegawatt":false,"status":"CHARGING","source":"ndw"}},{"type":"Feature","geometry":{"type":"Point","coordinates":[4.228891,51.938094]},"properties":{"type":"charge","layer":"passenger","locationId":"99845d9e-83d2-11e8-8f8e-42010a840002","name":"NLD, Maassluis, Getijmolen 26","address":"Getijmolen 26","city":"Maassluis","operatorName":"Allego","maxPowerKw":0,"isMegawatt":false,"status":"AVAILABLE","source":"ndw"}},{"type":"Feature","geometry":{"type":"Point","coordinates":[4.251853,51.923787]},"properties":{"type":"charge","layer":"passenger","locationId":"25eb2f50-d9a0-11e9-9e5f-42010a840003","name":"NLD Scheerderij 1 3142 JB Maassluis","address":"Scheerderij 1","city":"Maassluis","operatorName":"Allego","maxPowerKw":0,"isMegawatt":false,"status":"AVAILABLE","source":"ndw"}},{"type":"Feature","geometry":{"type":"Point","coordinates":[4.242443,51.928681]},"properties":{"type":"charge","layer":"passenger","locationId":"15187800-639f-11ec-b573-42010a840003","name":"EQUANS SGZH 2.0 89153851","address":"Buis 13","city":"Maassluis","operatorName":"EQUANS","maxPowerKw":0,"isMegawatt":false,"status":"AVAILABLE","source":"ndw"}},{"type":"Feature","geometry":{"type":"Point","coordinates":[4.253369,51.918615]},"properties":{"type":"charge","layer":"passenger","locationId":"2bec5e20-c469-11ee-a94a-42010aa40fc0","name":"EQUANS SGZH 2.0 Michiel de Ruyterplein 1","address":"Michiel de Ruyterplein 1","city":"Maassluis","operatorName":"EQUANS","maxPowerKw":0,"isMegawatt":false,"status":"AVAILABLE","source":"ndw"}},{"type":"Feature","geometry":{"type":"Point","coordinates":[4.25769,51.91421]},"properties":{"type":"charge","layer":"passenger","locationId":"594d7b14-d485-11f0-a1b0-42010aa400b8","name":"EQUANS SGZH 2.0 Boonerhavenkade 37","address":"Boonerhavenkade 37","city":"Maassluis","operatorName":"EQUANS","maxPowerKw":0,"isMegawatt":false,"status":"AVAILABLE","source":"ndw"}},{"type":"Feature","geometry":{"type":"Point","coordinates":[4.262369,51.923269]},"properties":{"type":"charge","layer":"passenger","locationId":"68828be4-b57c-11ee-94ab-42010aa40fc0","name":"EQUANS SGZH 2.0 Mgr. W.M. Bekkerslaan 98","address":"Mgr. W.M. Bekkerslaan 98","city":"Maassluis","operatorName":"EQUANS","maxPowerKw":0,"isMegawatt":false,"status":"AVAILABLE","source":"ndw"}},{"type":"Feature","geometry":{"type":"Point","coordinates":[4.222689,51.934454]},"properties":{"type":"charge","layer":"passenger","locationId":"731ae284-55fd-11ed-a252-42010aa40fc0","name":"EQUANS SGZH 2.0 89328019","address":"Nobeldreef 55","city":"Maassluis","operatorName":"EQUANS","maxPowerKw":0,"isMegawatt":false,"status":"AVAILABLE","source":"ndw"}},{"type":"Feature","geometry":{"type":"Point","coordinates":[4.232501,51.937509]},"properties":{"type":"charge","layer":"passenger","locationId":"87d07a64-cb5f-11ec-b63a-42010a840003","name":"EQUANS SGZH 2.0 89209928","address":"Burg. Zaneveldstraat 16","city":"Maassluis","operatorName":"EQUANS","maxPowerKw":0,"isMegawatt":false,"status":"AVAILABLE","source":"ndw"}},{"type":"Feature","geometry":{"type":"Point","coordinates":[4.249289,51.915763]},"properties":{"type":"charge","layer":"passenger","locationId":"a8d16050-7804-11ed-a592-42010aa40fc0","name":"EQUANS SGZH 2.0 89362791","address":"De la Reystraat 5","city":"Maassluis","operatorName":"EQUANS","maxPowerKw":0,"isMegawatt":false,"status":"AVAILABLE","source":"ndw"}},{"type":"Feature","geometry":{"type":"Point","coordinates":[4.24395,51.9366]},"properties":{"type":"charge","layer":"passenger","locationId":"d7ca9c26-9022-11f0-9ab0-42010aa400b8","name":"EQUANS SGZH 2.0 Doorkijk 6","address":"Doorkijk 6","city":"Maassluis","operatorName":"EQUANS","maxPowerKw":0,"isMegawatt":false,"status":"AVAILABLE","source":"ndw"}},{"type":"Feature","geometry":{"type":"Point","coordinates":[4.2571,51.92287]},"properties":{"type":"charge","layer":"passenger","locationId":"e8094244-fdf2-11ef-86fe-42010aa400b8","name":"EQUANS SGZH 2.0 Groen van Prinstererkade 2","address":"Groen van Prinstererkade 2","city":"Maassluis","operatorName":"EQUANS","maxPowerKw":0,"isMegawatt":false,"status":"AVAILABLE","source":"ndw"}},{"type":"Feature","geometry":{"type":"Point","coordinates":[4.25606,51.920558]},"properties":{"type":"charge","layer":"passenger","locationId":"f94655f6-80a9-11ed-b3bb-42010aa40fc0","name":"EQUANS SGZH 2.0 89354075","address":"Patijnestraat 18","city":"Maassluis","operatorName":"EQUANS","maxPowerKw":0,"isMegawatt":false,"status":"AVAILABLE","source":"ndw"}},{"type":"Feature","geometry":{"type":"Point","coordinates":[4.25741,51.91687]},"properties":{"type":"charge","layer":"passenger","locationId":"c2ff0fa6-f09b-11ef-b806-42010aa400b8","name":"EQUANS SGZH 2.0 Willem de Zwijgerstraat 43","address":"Willem de Zwijgerstraat 43","city":"Maassluis","operatorName":"EQUANS","maxPowerKw":0,"isMegawatt":false,"status":"AVAILABLE","source":"ndw"}},{"type":"Feature","geometry":{"type":"Point","coordinates":[4.259246,51.920657]},"properties":{"type":"charge","layer":"passenger","locationId":"d9b8adec-d097-11f0-9bfb-42010aa400b8","name":"EQUANS SGZH 2.0 G.A. Brederolaan 41 A","address":"G.A. Brederolaan 41 A","city":"Maassluis","operatorName":"EQUANS","maxPowerKw":0,"isMegawatt":false,"status":"AVAILABLE","source":"ndw"}},{"type":"Feature","geometry":{"type":"Point","coordinates":[4.251933,51.929694]},"properties":{"type":"charge","layer":"passenger","locationId":"e12295d8-9f7b-11ee-ad55-42010aa40fc0","name":"EQUANS SGZH 2.0 Olmendal 60","address":"Olmendal 60","city":"Maassluis","operatorName":"EQUANS","maxPowerKw":0,"isMegawatt":false,"status":"AVAILABLE","source":"ndw"}},{"type":"Feature","geometry":{"type":"Point","coordinates":[4.24867,51.91637]},"properties":{"type":"charge","layer":"passenger","locationId":"f43b5490-4e71-11e8-b851-42010a840002","name":"EQUANS SGZH 2.0 89035924","address":"Joubertstraat 2","city":"Maassluis","operatorName":"EQUANS","maxPowerKw":0,"isMegawatt":false,"status":"AVAILABLE","source":"ndw"}},{"type":"Feature","geometry":{"type":"Point","coordinates":[4.21795,51.93779]},"properties":{"type":"charge","layer":"passenger","locationId":"4d98b45e-e017-11ef-8b1a-42010aa400b8","name":"EQUANS SGZH 2.0 Dr. Albert Schweitzerdreef 351","address":"Dr. Albert Schweitzerdreef 351","city":"Maassluis","operatorName":"EQUANS","maxPowerKw":0,"isMegawatt":false,"status":"AVAILABLE","source":"ndw"}},{"type":"Feature","geometry":{"type":"Point","coordinates":[4.253505,51.926928]},"properties":{"type":"charge","layer":"passenger","locationId":"81d207c6-55fd-11ed-89b0-42010aa40fc0","name":"EQUANS SGZH 2.0 89329863","address":"Jasmijnstraat 10","city":"Maassluis","operatorName":"EQUANS","maxPowerKw":0,"isMegawatt":false,"status":"AVAILABLE","source":"ndw"}},{"type":"Feature","geometry":{"type":"Point","coordinates":[4.260506,51.92389]},"properties":{"type":"charge","layer":"passenger","locationId":"b3313276-a1bf-11ec-9342-42010a840003","name":"EQUANS SGZH 2.0 89153840","address":"Brouwerijstraat 2 K-1H","city":"Maassluis","operatorName":"EQUANS","maxPowerKw":0,"isMegawatt":false,"status":"AVAILABLE","source":"ndw"}},{"type":"Feature","geometry":{"type":"Point","coordinates":[4.251488,51.930745]},"properties":{"type":"charge","layer":"passenger","locationId":"12bdbaee-ddbc-11ef-bdea-42010aa400b8","name":"EQUANS SGZH 2.0 Olmendal 144 (t.h.v. Iependal","address":"Olmendal 144 (t.h.v. Iependal","city":"Maassluis","operatorName":"EQUANS","maxPowerKw":0,"isMegawatt":false,"status":"AVAILABLE","source":"ndw"}},{"type":"Feature","geometry":{"type":"Point","coordinates":[4.242075,51.93061]},"properties":{"type":"charge","layer":"passenger","locationId":"5e6db756-f5ea-11ee-87ce-42010aa400b8","name":"EQUANS SGZH 2.0 89942986","address":"De Vloot 211","city":"Maassluis","operatorName":"EQUANS","maxPowerKw":0,"isMegawatt":false,"status":"AVAILABLE","source":"ndw"}},{"type":"Feature","geometry":{"type":"Point","coordinates":[4.241707,51.936988]},"properties":{"type":"charge","layer":"passenger","locationId":"99e5bb5c-fcd2-11ec-a566-42010aa40fc0","name":"EQUANS SGZH 2.0 89217230","address":"Ritseling 20","city":"Maassluis","operatorName":"EQUANS","maxPowerKw":0,"isMegawatt":false,"status":"AVAILABLE","source":"ndw"}},{"type":"Feature","geometry":{"type":"Point","coordinates":[4.253425,51.919142]},"properties":{"type":"charge","layer":"passenger","locationId":"d64e776e-fcd2-11ec-bc45-42010aa40fc0","name":"EQUANS SGZH 2.0 89254206","address":"Witte de Withstraat 17","city":"Maassluis","operatorName":"EQUANS","maxPowerKw":0,"isMegawatt":false,"status":"AVAILABLE","source":"ndw"}},{"type":"Feature","geometry":{"type":"Point","coordinates":[4.251587,51.928755]},"properties":{"type":"charge","layer":"passenger","locationId":"ff7798fc-af14-11ec-912e-42010a840003","name":"EQUANS SGZH 2.0 89200935","address":"Berkendal 20","city":"Maassluis","operatorName":"EQUANS","maxPowerKw":0,"isMegawatt":false,"status":"AVAILABLE","source":"ndw"}},{"type":"Feature","geometry":{"type":"Point","coordinates":[4.24253,51.93777]},"properties":{"type":"charge","layer":"passenger","locationId":"18b7409c-3108-11f0-ab1d-42010aa400b8","name":"EQUANS SGZH 2.0 Verreweg 123 (t.h.v. Gazon 1)","address":"Verreweg 123","city":"Maassluis","operatorName":"EQUANS","maxPowerKw":0,"isMegawatt":false,"status":"AVAILABLE","source":"ndw"}},{"type":"Feature","geometry":{"type":"Point","coordinates":[4.22467,51.942175]},"properties":{"type":"charge","layer":"passenger","locationId":"33e16716-2475-11f0-8a19-42010aa400b8","name":"EQUANS SGZH 2.0 Dr Albert Schweitzerdreef 503","address":"Dr Albert Schweitzerdreef 503","city":"Maassluis","operatorName":"EQUANS","maxPowerKw":0,"isMegawatt":false,"status":"AVAILABLE","source":"ndw"}},{"type":"Feature","geometry":{"type":"Point","coordinates":[4.262076,51.916341]},"properties":{"type":"charge","layer":"passenger","locationId":"6fdd7182-aa5d-11ec-a777-42010a840003","name":"EQUANS SGZH 2.0 89188824","address":"Blommerslaan 19","city":"Maassluis","operatorName":"EQUANS","maxPowerKw":0,"isMegawatt":false,"status":"AVAILABLE","source":"ndw"}},{"type":"Feature","geometry":{"type":"Point","coordinates":[4.257592,51.922387]},"properties":{"type":"charge","layer":"passenger","locationId":"74a38de4-4d93-11e8-9143-42010a840002","name":"EQUANS SGZH 2.0 89286232","address":"P.C. Hooftlaan 38","city":"Maassluis","operatorName":"EQUANS","maxPowerKw":0,"isMegawatt":false,"status":"AVAILABLE","source":"ndw"}},{"type":"Feature","geometry":{"type":"Point","coordinates":[4.261465,51.917323]},"properties":{"type":"charge","layer":"passenger","locationId":"92365846-4f3c-11e8-a29b-42010a840002","name":"NLD, Maassluis, Rembrandtlaan 2","address":"Rembrandtlaan 2","city":"Maassluis","operatorName":"Allego","maxPowerKw":0,"isMegawatt":false,"status":"AVAILABLE","source":"ndw"}},{"type":"Feature","geometry":{"type":"Point","coordinates":[4.228079,51.937776]},"properties":{"type":"charge","layer":"passenger","locationId":"a4cf6dd0-e087-11ed-a184-42010aa40fc0","name":"EQUANS SGZH 2.0 89602005","address":"Westeinde 17","city":"Maassluis","operatorName":"EQUANS","maxPowerKw":0,"isMegawatt":false,"status":"AVAILABLE","source":"ndw"}},{"type":"Feature","geometry":{"type":"Point","coordinates":[4.236856,51.923503]},"properties":{"type":"charge","layer":"passenger","locationId":"2ddefe6e-a15b-11ec-912e-42010a840003","name":"EQUANS SGZH 2.0 89488019","address":"Jacob van Heemskercklaan 129","city":"Maassluis","operatorName":"EQUANS","maxPowerKw":0,"isMegawatt":false,"status":"AVAILABLE","source":"ndw"}},{"type":"Feature","geometry":{"type":"Point","coordinates":[4.25261,51.9186]},"properties":{"type":"charge","layer":"passenger","locationId":"4db7bffc-e017-11ef-a144-42010aa400b8","name":"EQUANS SGZH 2.0 M.H. Trompstraat 28","address":"M.H. Trompstraat 28","city":"Maassluis","operatorName":"EQUANS","maxPowerKw":0,"isMegawatt":false,"status":"AVAILABLE","source":"ndw"}},{"type":"Feature","geometry":{"type":"Point","coordinates":[4.227316,51.941147]},"properties":{"type":"charge","layer":"passenger","locationId":"16839806-b3c0-11ed-ac90-42010aa40fc0","name":"EQUANS SGZH 2.0 89462856","address":"Kopermolen 43","city":"Maassluis","operatorName":"EQUANS","maxPowerKw":0,"isMegawatt":false,"status":"AVAILABLE","source":"ndw"}},{"type":"Feature","geometry":{"type":"Point","coordinates":[4.26789,51.908741]},"properties":{"type":"charge","layer":"passenger","locationId":"47c73628-f390-11ee-b13d-42010aa400b8","name":"EQUANS SGZH 2.0 Hooge Zeedijk 100","address":"Hooge Zeedijk 100","city":"Maassluis","operatorName":"EQUANS","maxPowerKw":0,"isMegawatt":false,"status":"AVAILABLE","source":"ndw"}},{"type":"Feature","geometry":{"type":"Point","coordinates":[4.25495,51.9202]},"properties":{"type":"charge","layer":"passenger","locationId":"51640ff6-9fdf-11f0-9e5b-42010aa400b8","name":"EQUANS SGZH 2.0 Fenacoliuslaan 1 A","address":"Fenacoliuslaan 1 A","city":"Maassluis","operatorName":"EQUANS","maxPowerKw":0,"isMegawatt":false,"status":"AVAILABLE","source":"ndw"}},{"type":"Feature","geometry":{"type":"Point","coordinates":[4.221813,51.938767]},"properties":{"type":"charge","layer":"passenger","locationId":"68e8d876-04ac-11ee-9777-42010aa40fc0","name":"EQUANS SGZH 2.0 89641439","address":"Kamerling Onnesdreef 37","city":"Maassluis","operatorName":"EQUANS","maxPowerKw":0,"isMegawatt":false,"status":"AVAILABLE","source":"ndw"}},{"type":"Feature","geometry":{"type":"Point","coordinates":[4.257419,51.914007]},"properties":{"type":"charge","layer":"passenger","locationId":"7ebe3f70-d3eb-11ed-add6-42010aa40fc0","name":"EQUANS SGZH 2.0 89254233","address":"Boonerhavenkade 37","city":"Maassluis","operatorName":"EQUANS","maxPowerKw":0,"isMegawatt":false,"status":"AVAILABLE","source":"ndw"}},{"type":"Feature","geometry":{"type":"Point","coordinates":[4.26731,51.91936]},"properties":{"type":"charge","layer":"passenger","locationId":"f806044e-4e71-11e8-87da-42010a840002","name":"EQUANS SGZH 2.0 89035922","address":"Vermeerlaan 32","city":"Maassluis","operatorName":"EQUANS","maxPowerKw":0,"isMegawatt":false,"status":"AVAILABLE","source":"ndw"}},{"type":"Feature","geometry":{"type":"Point","coordinates":[4.251798,51.929005]},"properties":{"type":"charge","layer":"passenger","locationId":"9266a640-4f3c-11e8-9491-42010a840002","name":"NLD, Maassluis, Berkendal 58","address":"Berkendal 58","city":"Maassluis","operatorName":"Allego","maxPowerKw":0,"isMegawatt":false,"status":"AVAILABLE","source":"ndw"}},{"type":"Feature","geometry":{"type":"Point","coordinates":[4.240381,51.926432]},"properties":{"type":"charge","layer":"passenger","locationId":"753b15a6-0252-11ed-a452-42010aa40fc0","name":"EQUANS SGZH 2.0 89188826","address":"Van Beethovenlaan 651","city":"Maassluis","operatorName":"EQUANS","maxPowerKw":0,"isMegawatt":false,"status":"AVAILABLE","source":"ndw"}},{"type":"Feature","geometry":{"type":"Point","coordinates":[4.22329,51.93439]},"properties":{"type":"charge","layer":"passenger","locationId":"10078aac-641f-11f0-afaf-42010aa400b8","name":"EQUANS SGZH 2.0 Asserdreef 1","address":"Asserdreef 1","city":"Maassluis","operatorName":"EQUANS","maxPowerKw":0,"isMegawatt":false,"status":"AVAILABLE","source":"ndw"}},{"type":"Feature","geometry":{"type":"Point","coordinates":[4.249769,51.929917]},"properties":{"type":"charge","layer":"passenger","locationId":"17b33eee-5bb8-11ed-a412-42010aa40fc0","name":"EQUANS SGZH 2.0 89332798","address":"Iependal 44","city":"Maassluis","operatorName":"EQUANS","maxPowerKw":0,"isMegawatt":false,"status":"AVAILABLE","source":"ndw"}},{"type":"Feature","geometry":{"type":"Point","coordinates":[4.232005,51.930691]},"properties":{"type":"charge","layer":"passenger","locationId":"89b8112e-8814-11ef-896f-42010aa400b8","name":"EQUANS SGZH 2.0 Reigerstraat 39","address":"Reigerstraat 39","city":"Maassluis","operatorName":"EQUANS","maxPowerKw":0,"isMegawatt":false,"status":"AVAILABLE","source":"ndw"}},{"type":"Feature","geometry":{"type":"Point","coordinates":[4.251798,51.929005]},"properties":{"type":"charge","layer":"passenger","locationId":"NLLOC001871","name":"NLD, Maassluis, Berkendal 58","address":"Berkendal 58","city":"Maassluis","operatorName":"Allego","maxPowerKw":0,"isMegawatt":false,"status":"AVAILABLE","source":"ndw"}},{"type":"Feature","geometry":{"type":"Point","coordinates":[4.247662,51.928451]},"properties":{"type":"charge","layer":"passenger","locationId":"ae4e0778-d65f-11ec-a3c4-42010a840003","name":"EQUANS SGZH 2.0 89228304","address":"Henriëtte Bosmanslaan 33","city":"Maassluis","operatorName":"EQUANS","maxPowerKw":0,"isMegawatt":false,"status":"AVAILABLE","source":"ndw"}},{"type":"Feature","geometry":{"type":"Point","coordinates":[4.238923,51.921999]},"properties":{"type":"charge","layer":"passenger","locationId":"NLLOC016579","name":"NL, Vuurbaak 1, 3144DP, Maassluis","address":"Vuurbaak 1","city":"Maassluis","operatorName":"Allego","maxPowerKw":0,"isMegawatt":false,"status":"AVAILABLE","source":"ndw"}},{"type":"Feature","geometry":{"type":"Point","coordinates":[4.22818,51.93719]},"properties":{"type":"charge","layer":"passenger","locationId":"46655284-4e72-11e8-a709-42010a840002","name":"EQUANS SGZH 2.0 89035928","address":"Dokter Jan Schoutenlaan 12","city":"Maassluis","operatorName":"EQUANS","maxPowerKw":0,"isMegawatt":false,"status":"AVAILABLE","source":"ndw"}},{"type":"Feature","geometry":{"type":"Point","coordinates":[4.24878,51.926507]},"properties":{"type":"charge","layer":"passenger","locationId":"536b474e-296b-11ed-ac2a-42010aa40fc0","name":"EQUANS SGZH 2.0 89273911","address":"Johan Wagenaarlaan 1","city":"Maassluis","operatorName":"EQUANS","maxPowerKw":0,"isMegawatt":false,"status":"AVAILABLE","source":"ndw"}},{"type":"Feature","geometry":{"type":"Point","coordinates":[4.259995,51.917408]},"properties":{"type":"charge","layer":"passenger","locationId":"8a7f089c-c78f-11ee-9085-42010aa40fc0","name":"EQUANS SGZH 2.0 Jozef Israëlslaan 7","address":"Jozef Israëlslaan 7","city":"Maassluis","operatorName":"EQUANS","maxPowerKw":0,"isMegawatt":false,"status":"AVAILABLE","source":"ndw"}},{"type":"Feature","geometry":{"type":"Point","coordinates":[4.230211,51.940494]},"properties":{"type":"charge","layer":"passenger","locationId":"6b56a7ac-fdc9-11ee-a2b5-42010aa400b8","name":"EQUANS SGZH 2.0 stellingmolen 29","address":"stellingmolen 29","city":"Maassluis","operatorName":"EQUANS","maxPowerKw":0,"isMegawatt":false,"status":"AVAILABLE","source":"ndw"}},{"type":"Feature","geometry":{"type":"Point","coordinates":[4.244991,51.935724]},"properties":{"type":"charge","layer":"passenger","locationId":"a9811f2a-04ab-11ee-812a-42010aa40fc0","name":"EQUANS SGZH 2.0 89459871","address":"Onderling 4","city":"Maassluis","operatorName":"EQUANS","maxPowerKw":0,"isMegawatt":false,"status":"AVAILABLE","source":"ndw"}},{"type":"Feature","geometry":{"type":"Point","coordinates":[4.26062,51.91596]},"properties":{"type":"charge","layer":"passenger","locationId":"f085380c-4e71-11e8-8bd9-42010a840002","name":"EQUANS SGZH 2.0 89035921","address":"Tooroplaan 15","city":"Maassluis","operatorName":"EQUANS","maxPowerKw":0,"isMegawatt":false,"status":"AVAILABLE","source":"ndw"}},{"type":"Feature","geometry":{"type":"Point","coordinates":[4.260809,51.91796]},"properties":{"type":"charge","layer":"passenger","locationId":"8e1b9ae8-3d41-11ee-b482-42010aa40fc0","name":"EQUANS SGZH 2.0 89914509","address":"Mesdaglaan 2","city":"Maassluis","operatorName":"EQUANS","maxPowerKw":0,"isMegawatt":false,"status":"AVAILABLE","source":"ndw"}},{"type":"Feature","geometry":{"type":"Point","coordinates":[4.229834,51.935448]},"properties":{"type":"charge","layer":"passenger","locationId":"159e53e6-99fb-11ee-a60f-42010aa40fc0","name":"EQUANS SGZH 2.0 Burg. van de Brandelerlaan 2 b","address":"Burg. van de Brandelerlaan 2 b","city":"Maassluis","operatorName":"EQUANS","maxPowerKw":0,"isMegawatt":false,"status":"AVAILABLE","source":"ndw"}},{"type":"Feature","geometry":{"type":"Point","coordinates":[4.230268,51.934157]},"properties":{"type":"charge","layer":"passenger","locationId":"16331502-b3c0-11ed-a834-42010aa40fc0","name":"EQUANS SGZH 2.0 89462854","address":"Burgemeester Schwartzlaan 7","city":"Maassluis","operatorName":"EQUANS","maxPowerKw":0,"isMegawatt":false,"status":"AVAILABLE","source":"ndw"}},{"type":"Feature","geometry":{"type":"Point","coordinates":[4.22977,51.93366]},"properties":{"type":"charge","layer":"passenger","locationId":"3efcc3a8-6cc2-11f0-ace9-42010aa400b8","name":"EQUANS SGZH 2.0 Dr. Jan Schoutenlaan 328","address":"Dr. Jan Schoutenlaan 328","city":"Maassluis","operatorName":"EQUANS","maxPowerKw":0,"isMegawatt":false,"status":"AVAILABLE","source":"ndw"}},{"type":"Feature","geometry":{"type":"Point","coordinates":[4.25397,51.92831]},"properties":{"type":"charge","layer":"passenger","locationId":"8ded657e-ee3e-11ef-8bd2-42010aa400b8","name":"EQUANS SGZH 2.0 Elzendal 1","address":"Elzendal 1","city":"Maassluis","operatorName":"EQUANS","maxPowerKw":0,"isMegawatt":false,"status":"AVAILABLE","source":"ndw"}},{"type":"Feature","geometry":{"type":"Point","coordinates":[4.22872,51.94299]},"properties":{"type":"charge","layer":"passenger","locationId":"3ebfb830-4e72-11e8-b23d-42010a840002","name":"EQUANS SGZH 2.0 89035931","address":"Windmolen 1TH","city":"Maassluis","operatorName":"EQUANS","maxPowerKw":0,"isMegawatt":false,"status":"AVAILABLE","source":"ndw"}},{"type":"Feature","geometry":{"type":"Point","coordinates":[4.234451,51.926177]},"properties":{"type":"charge","layer":"passenger","locationId":"43dd7c50-c084-11ee-b4f7-42010aa40fc0","name":"EQUANS SGZH 2.0 Het Lage Licht 121","address":"Het Lage Licht 121","city":"Maassluis","operatorName":"EQUANS","maxPowerKw":0,"isMegawatt":false,"status":"AVAILABLE","source":"ndw"}},{"type":"Feature","geometry":{"type":"Point","coordinates":[4.249008,51.917296]},"properties":{"type":"charge","layer":"passenger","locationId":"56f32d1e-a274-11ed-8d3e-42010aa40fc0","name":"EQUANS SGZH 2.0 89370471","address":"Burg. De Jonghkade 9","city":"Maassluis","operatorName":"EQUANS","maxPowerKw":0,"isMegawatt":false,"status":"AVAILABLE","source":"ndw"}},{"type":"Feature","geometry":{"type":"Point","coordinates":[4.230118,51.932425]},"properties":{"type":"charge","layer":"passenger","locationId":"90f7094e-442f-11ec-8dd6-42010a840003","name":"EQUANS SGZH 2.0 89145575","address":"Korhoenstraat 25","city":"Maassluis","operatorName":"EQUANS","maxPowerKw":0,"isMegawatt":false,"status":"AVAILABLE","source":"ndw"}},{"type":"Feature","geometry":{"type":"Point","coordinates":[4.228114,51.933318]},"properties":{"type":"charge","layer":"passenger","locationId":"ba10d148-23ea-11ed-b32e-42010aa40fc0","name":"EQUANS SGZH 2.0 89254207","address":"Arie Boumanstraat 3","city":"Maassluis","operatorName":"EQUANS","maxPowerKw":0,"isMegawatt":false,"status":"AVAILABLE","source":"ndw"}},{"type":"Feature","geometry":{"type":"Point","coordinates":[4.242851,51.92775]},"properties":{"type":"charge","layer":"passenger","locationId":"058744b4-3dda-11ed-9977-42010aa40fc0","name":"EQUANS SGZH 2.0 Schubertlaan 814 Botter 2","address":"Schubertlaan 814","city":"Maassluis","operatorName":"EQUANS","maxPowerKw":0,"isMegawatt":false,"status":"AVAILABLE","source":"ndw"}},{"type":"Feature","geometry":{"type":"Point","coordinates":[4.23963,51.92226]},"properties":{"type":"charge","layer":"passenger","locationId":"4d67bd4a-e017-11ef-9839-42010aa400b8","name":"EQUANS SGZH 2.0 Bruinvisch 11","address":"Bruinvisch 11","city":"Maassluis","operatorName":"EQUANS","maxPowerKw":0,"isMegawatt":false,"status":"AVAILABLE","source":"ndw"}},{"type":"Feature","geometry":{"type":"Point","coordinates":[4.232651,51.934516]},"properties":{"type":"charge","layer":"passenger","locationId":"d2cdcf26-2fb4-11ed-9a29-42010aa40fc0","name":"EQUANS SGZH 2.0 89273918","address":"Buizerdstraat 115","city":"Maassluis","operatorName":"EQUANS","maxPowerKw":0,"isMegawatt":false,"status":"AVAILABLE","source":"ndw"}},{"type":"Feature","geometry":{"type":"Point","coordinates":[4.224907,51.933947]},"properties":{"type":"charge","layer":"passenger","locationId":"e13ff34e-9f7b-11ee-bc24-42010aa40fc0","name":"EQUANS SGZH 2.0 Job van der Zeelaan 32","address":"Job van der Zeelaan 32","city":"Maassluis","operatorName":"EQUANS","maxPowerKw":0,"isMegawatt":false,"status":"AVAILABLE","source":"ndw"}},{"type":"Feature","geometry":{"type":"Point","coordinates":[4.230989,51.934977]},"properties":{"type":"charge","layer":"passenger","locationId":"f6f0730e-a1c0-11ec-beb8-42010a840003","name":"EQUANS SGZH 2.0 89188777","address":"Burg. Dommisseplantsoen 2b","city":"Maassluis","operatorName":"EQUANS","maxPowerKw":0,"isMegawatt":false,"status":"AVAILABLE","source":"ndw"}},{"type":"Feature","geometry":{"type":"Point","coordinates":[4.268925,51.91856]},"properties":{"type":"charge","layer":"passenger","locationId":"e38de374-28a1-11ed-ac49-42010aa40fc0","name":"EQUANS SGZH 2.0 89273879","address":"Van Scorelstraat 86","city":"Maassluis","operatorName":"EQUANS","maxPowerKw":0,"isMegawatt":false,"status":"AVAILABLE","source":"ndw"}},{"type":"Feature","geometry":{"type":"Point","coordinates":[4.25618,51.916523]},"properties":{"type":"charge","layer":"passenger","locationId":"157cc17c-99fb-11ee-8af6-42010aa40fc0","name":"EQUANS SGZH 2.0 Frederik Hendrikstraat 47","address":"Frederik Hendrikstraat 47","city":"Maassluis","operatorName":"EQUANS","maxPowerKw":0,"isMegawatt":false,"status":"AVAILABLE","source":"ndw"}},{"type":"Feature","geometry":{"type":"Point","coordinates":[4.25379,51.93014]},"properties":{"type":"charge","layer":"passenger","locationId":"4618e55c-5c43-11f0-a4e2-42010aa400b8","name":"EQUANS SGZH 2.0 Wegedoorn 20","address":"Wegedoorn 20","city":"Maassluis","operatorName":"EQUANS","maxPowerKw":0,"isMegawatt":false,"status":"AVAILABLE","source":"ndw"}},{"type":"Feature","geometry":{"type":"Point","coordinates":[4.23331,51.936047]},"properties":{"type":"charge","layer":"passenger","locationId":"6140018a-b96a-11ee-8222-42010aa40fc0","name":"EQUANS SGZH 2.0 Burg. Overvoordelaan 34","address":"Burg. Overvoordelaan 34","city":"Maassluis","operatorName":"EQUANS","maxPowerKw":0,"isMegawatt":false,"status":"AVAILABLE","source":"ndw"}},{"type":"Feature","geometry":{"type":"Point","coordinates":[4.242561,51.930244]},"properties":{"type":"charge","layer":"passenger","locationId":"803fd0e2-1a13-11ef-8f9a-42010aa400b8","name":"EQUANS SGZH 2.0 De Vloot 289","address":"De Vloot 289","city":"Maassluis","operatorName":"EQUANS","maxPowerKw":0,"isMegawatt":false,"status":"AVAILABLE","source":"ndw"}},{"type":"Feature","geometry":{"type":"Point","coordinates":[4.241805,51.921284]},"properties":{"type":"charge","layer":"passenger","locationId":"8e37961c-3d41-11ee-9c9b-42010aa40fc0","name":"EQUANS SGZH 2.0 89914510","address":"Houten Baak 1","city":"Maassluis","operatorName":"EQUANS","maxPowerKw":0,"isMegawatt":false,"status":"AVAILABLE","source":"ndw"}},{"type":"Feature","geometry":{"type":"Point","coordinates":[4.260347,51.918463]},"properties":{"type":"charge","layer":"passenger","locationId":"afb80d06-5ee2-11ec-be8b-42010a840003","name":"EQUANS SGZH 2.0 89153847","address":"Vincent van Goghlaan 229","city":"Maassluis","operatorName":"EQUANS","maxPowerKw":0,"isMegawatt":false,"status":"AVAILABLE","source":"ndw"}},{"type":"Feature","geometry":{"type":"Point","coordinates":[4.265464,51.913073]},"properties":{"type":"charge","layer":"passenger","locationId":"3946264c-af06-11ed-b37f-42010aa40fc0","name":"EQUANS SGZH 2.0 89439567","address":"Vlaardingsedijk 9","city":"Maassluis","operatorName":"EQUANS","maxPowerKw":0,"isMegawatt":false,"status":"AVAILABLE","source":"ndw"}},{"type":"Feature","geometry":{"type":"Point","coordinates":[4.261619,51.920362]},"properties":{"type":"charge","layer":"passenger","locationId":"411584b2-c5fd-11ee-a73c-42010aa40fc0","name":"EQUANS SGZH 2.0 Vondellaan 39","address":"Vondellaan 39","city":"Maassluis","operatorName":"EQUANS","maxPowerKw":0,"isMegawatt":false,"status":"AVAILABLE","source":"ndw"}},{"type":"Feature","geometry":{"type":"Point","coordinates":[4.230755,51.939648]},"properties":{"type":"charge","layer":"passenger","locationId":"61c47f16-66b7-11ed-9283-42010aa40fc0","name":"EQUANS SGZH 2.0 89307336","address":"Stellingmolen 50","city":"Maassluis","operatorName":"EQUANS","maxPowerKw":0,"isMegawatt":false,"status":"AVAILABLE","source":"ndw"}},{"type":"Feature","geometry":{"type":"Point","coordinates":[4.249782,51.919494]},"properties":{"type":"charge","layer":"passenger","locationId":"6b278e90-fdc9-11ee-a345-42010aa400b8","name":"EQUANS SGZH 2.0 Govert van Wijnkade 18 C","address":"Govert van Wijnkade 18 C","city":"Maassluis","operatorName":"EQUANS","maxPowerKw":0,"isMegawatt":false,"status":"AVAILABLE","source":"ndw"}},{"type":"Feature","geometry":{"type":"Point","coordinates":[4.247673,51.916084]},"properties":{"type":"charge","layer":"passenger","locationId":"8bbdb614-6581-11ef-9dc0-42010aa400b8","name":"EQUANS SGZH 2.0 Burg. De Jonghkade 30 A","address":"Burg. De Jonghkade 30 A","city":"maassluis","operatorName":"EQUANS","maxPowerKw":0,"isMegawatt":false,"status":"AVAILABLE","source":"ndw"}},{"type":"Feature","geometry":{"type":"Point","coordinates":[4.243081,51.936119]},"properties":{"type":"charge","layer":"passenger","locationId":"abe88e0c-9613-11ee-ae47-42010aa40fc0","name":"EQUANS SGZH 2.0 Onderling 41","address":"Onderling 41","city":"Maassluis","operatorName":"EQUANS","maxPowerKw":0,"isMegawatt":false,"status":"CHARGING","source":"ndw"}},{"type":"Feature","geometry":{"type":"Point","coordinates":[4.258543,51.920819]},"properties":{"type":"charge","layer":"passenger","locationId":"40f83c9a-c5fd-11ee-a5e3-42010aa40fc0","name":"EQUANS SGZH 2.0 P.C. Hooftlaan 302","address":"P.C. Hooftlaan 302","city":"Maassluis","operatorName":"EQUANS","maxPowerKw":0,"isMegawatt":false,"status":"AVAILABLE","source":"ndw"}},{"type":"Feature","geometry":{"type":"Point","coordinates":[4.219875,51.935866]},"properties":{"type":"charge","layer":"passenger","locationId":"9d5fc548-69dd-11ed-b13a-42010aa40fc0","name":"EQUANS SGZH 2.0 89355422","address":"Dr. Albert Schweitzerdreef 5","city":"Maassluis","operatorName":"EQUANS","maxPowerKw":0,"isMegawatt":false,"status":"AVAILABLE","source":"ndw"}},{"type":"Feature","geometry":{"type":"Point","coordinates":[4.227419,51.940881]},"properties":{"type":"charge","layer":"passenger","locationId":"032a7ab4-ccf2-11ec-814c-42010a840003","name":"EQUANS SGZH 2.0 Pelmolen 11","address":"Pelmolen 11","city":"Maassluis","operatorName":"EQUANS","maxPowerKw":0,"isMegawatt":false,"status":"AVAILABLE","source":"ndw"}},{"type":"Feature","geometry":{"type":"Point","coordinates":[4.24509,51.93494]},"properties":{"type":"charge","layer":"passenger","locationId":"12dc0792-ddbc-11ef-8661-42010aa400b8","name":"EQUANS SGZH 2.0 Twijg 22","address":"Twijg 22","city":"Maassluis","operatorName":"EQUANS","maxPowerKw":0,"isMegawatt":false,"status":"AVAILABLE","source":"ndw"}},{"type":"Feature","geometry":{"type":"Point","coordinates":[4.229017,51.941283]},"properties":{"type":"charge","layer":"passenger","locationId":"155d73bc-99fb-11ee-8efc-42010aa40fc0","name":"EQUANS SGZH 2.0 Oliemolen 7","address":"Oliemolen 7","city":"Maassluis","operatorName":"EQUANS","maxPowerKw":0,"isMegawatt":false,"status":"AVAILABLE","source":"ndw"}},{"type":"Feature","geometry":{"type":"Point","coordinates":[4.223556,51.938104]},"properties":{"type":"charge","layer":"passenger","locationId":"b1eff802-f5eb-11ee-b4f0-42010aa400b8","name":"EQUANS SGZH 2.0 Echtpaar Curiedreef 20","address":"Echtpaar Curiedreef 20","city":"Maassluis","operatorName":"EQUANS","maxPowerKw":0,"isMegawatt":false,"status":"AVAILABLE","source":"ndw"}},{"type":"Feature","geometry":{"type":"Point","coordinates":[4.239599,51.930754]},"properties":{"type":"charge","layer":"passenger","locationId":"cae52e4c-0fad-11ee-a7a4-42010aa40fc0","name":"EQUANS SGZH 2.0 89828167","address":"Schollevaarstraat 48","city":"Maassluis","operatorName":"EQUANS","maxPowerKw":0,"isMegawatt":false,"status":"AVAILABLE","source":"ndw"}},{"type":"Feature","geometry":{"type":"Point","coordinates":[4.22907,51.933984]},"properties":{"type":"charge","layer":"passenger","locationId":"d668eeaa-fcd2-11ec-82f4-42010aa40fc0","name":"EQUANS SGZH 2.0 89254262","address":"Dr. Jan Schoutenlaan 304","city":"Maassluis","operatorName":"EQUANS","maxPowerKw":0,"isMegawatt":false,"status":"AVAILABLE","source":"ndw"}},{"type":"Feature","geometry":{"type":"Point","coordinates":[4.225247,51.935104]},"properties":{"type":"charge","layer":"passenger","locationId":"050faf0e-a1c1-11ec-9d86-42010a840003","name":"EQUANS SGZH 2.0 89215130","address":"Asserdreef 61","city":"Maassluis","operatorName":"EQUANS","maxPowerKw":0,"isMegawatt":false,"status":"AVAILABLE","source":"ndw"}},{"type":"Feature","geometry":{"type":"Point","coordinates":[4.253799,51.916723]},"properties":{"type":"charge","layer":"passenger","locationId":"83a7518c-55fd-11ed-84b8-42010aa40fc0","name":"EQUANS SGZH 2.0 89329918","address":"Stationsweg 7","city":"Maassluis","operatorName":"EQUANS","maxPowerKw":0,"isMegawatt":false,"status":"AVAILABLE","source":"ndw"}},{"type":"Feature","geometry":{"type":"Point","coordinates":[4.235868,51.932198]},"properties":{"type":"charge","layer":"passenger","locationId":"92c8178c-a1c1-11ec-ac17-42010a840003","name":"EQUANS SGZH 2.0 89202998","address":"Nachtegaallaan 3","city":"Maassluis","operatorName":"EQUANS","maxPowerKw":0,"isMegawatt":false,"status":"AVAILABLE","source":"ndw"}},{"type":"Feature","geometry":{"type":"Point","coordinates":[4.265412,51.917585]},"properties":{"type":"charge","layer":"passenger","locationId":"9dca20b2-d83c-11ef-8080-42010aa400b8","name":"EQUANS SGZH 2.0 Rembrandtlaan 45","address":"Rembrandtlaan 45","city":"Maassluis","operatorName":"EQUANS","maxPowerKw":0,"isMegawatt":false,"status":"AVAILABLE","source":"ndw"}},{"type":"Feature","geometry":{"type":"Point","coordinates":[4.225088,51.937315]},"properties":{"type":"charge","layer":"passenger","locationId":"a8e9ce6a-7804-11ed-bb1b-42010aa40fc0","name":"EQUANS SGZH 2.0 89362792","address":"Dunantdreef 118","city":"Maassluis","operatorName":"EQUANS","maxPowerKw":0,"isMegawatt":false,"status":"AVAILABLE","source":"ndw"}},{"type":"Feature","geometry":{"type":"Point","coordinates":[4.243081,51.936119]},"properties":{"type":"charge","layer":"passenger","locationId":"90116547","name":"EQUANS SGZH 2.0 Onderling 41","address":"Onderling 41","city":"Maassluis","operatorName":"EQUANS","maxPowerKw":0,"isMegawatt":false,"status":"AVAILABLE","source":"ndw"}},{"type":"Feature","geometry":{"type":"Point","coordinates":[4.241351,51.920925]},"properties":{"type":"charge","layer":"passenger","locationId":"NLLOC012520","name":"NL, Jacob van Heemskercklaan 2, 3144DK, Maassluis","address":"Jacob van Heemskercklaan 2","city":"Maassluis","operatorName":"Allego","maxPowerKw":0,"isMegawatt":false,"status":"AVAILABLE","source":"ndw"}},{"type":"Feature","geometry":{"type":"Point","coordinates":[4.228079,51.937776]},"properties":{"type":"charge","layer":"passenger","locationId":"89602005","name":"EQUANS SGZH 2.0 Westeinde 17","address":"Westeinde 17","city":"Maassluis","operatorName":"EQUANS","maxPowerKw":0,"isMegawatt":false,"status":"AVAILABLE","source":"ndw"}},{"type":"Feature","geometry":{"type":"Point","coordinates":[4.244991,51.935724]},"properties":{"type":"charge","layer":"passenger","locationId":"89459871","name":"EQUANS SGZH 2.0 89459871","address":"Onderling 4","city":"Maassluis","operatorName":"EQUANS","maxPowerKw":0,"isMegawatt":false,"status":"CHARGING","source":"ndw"}},{"type":"Feature","geometry":{"type":"Point","coordinates":[4.260347,51.918463]},"properties":{"type":"charge","layer":"passenger","locationId":"89153847","name":"EQUANS SGZH 2.0 89153847","address":"Vincent van Goghlaan 229","city":"Maassluis","operatorName":"EQUANS","maxPowerKw":0,"isMegawatt":false,"status":"AVAILABLE","source":"ndw"}},{"type":"Feature","geometry":{"type":"Point","coordinates":[4.233842,51.933124]},"properties":{"type":"charge","layer":"passenger","locationId":"NLLOC003686","name":"NLD, Maassluis, Bosuilstraat 8","address":"Bosuilstraat 8","city":"Maassluis","operatorName":"Allego","maxPowerKw":0,"isMegawatt":false,"status":"AVAILABLE","source":"ndw"}},{"type":"Feature","geometry":{"type":"Point","coordinates":[4.22579,51.939835]},"properties":{"type":"charge","layer":"passenger","locationId":"NLLOC004684","name":"NLD Trasmolen 15 3146 TE Maassluis","address":"Trasmolen 15","city":"Maassluis","operatorName":"Allego","maxPowerKw":0,"isMegawatt":false,"status":"AVAILABLE","source":"ndw"}},{"type":"Feature","geometry":{"type":"Point","coordinates":[4.249008,51.917296]},"properties":{"type":"charge","layer":"passenger","locationId":"89370471","name":"EQUANS SGZH 2.0 89370471","address":"Burg. De Jonghkade 9","city":"Maassluis","operatorName":"EQUANS","maxPowerKw":0,"isMegawatt":false,"status":"AVAILABLE","source":"ndw"}},{"type":"Feature","geometry":{"type":"Point","coordinates":[4.243,51.91863]},"properties":{"type":"charge","layer":"passenger","locationId":"EC0B1152-9DFC-416F-91DF-BEA59A06B6D4","name":"Eneco eMobility Noordzee 10 Maassluis","address":"Noordzee 10","city":"Maassluis","operatorName":"Eneco","maxPowerKw":22,"isMegawatt":false,"status":"AVAILABLE","source":"ndw"}},{"type":"Feature","geometry":{"type":"Point","coordinates":[4.251853,51.923787]},"properties":{"type":"charge","layer":"passenger","locationId":"NLLOC004883","name":"NLD Scheerderij 1 3142 JB Maassluis","address":"Scheerderij 1","city":"Maassluis","operatorName":"Allego","maxPowerKw":0,"isMegawatt":false,"status":"AVAILABLE","source":"ndw"}},{"type":"Feature","geometry":{"type":"Point","coordinates":[4.252717,51.926201]},"properties":{"type":"charge","layer":"passenger","locationId":"NLLOC004859","name":"NLD, Seringenstraat 2 3142NW Maassluis","address":"Seringenstraat 2","city":"Maassluis","operatorName":"Allego","maxPowerKw":0,"isMegawatt":false,"status":"AVAILABLE","source":"ndw"}},{"type":"Feature","geometry":{"type":"Point","coordinates":[4.255306,51.924095]},"properties":{"type":"charge","layer":"passenger","locationId":"NLLOC002594","name":"NLD, Maassluis, Marelstraat 69","address":"Marelstraat 69","city":"Maassluis","operatorName":"Allego","maxPowerKw":0,"isMegawatt":false,"status":"AVAILABLE","source":"ndw"}},{"type":"Feature","geometry":{"type":"Point","coordinates":[4.260832,51.918818]},"properties":{"type":"charge","layer":"passenger","locationId":"8372271F-7C7D-4019-8C9C-C8F02F330E36","name":"Eneco eMobility Albert Heijn - Mesdaglaan 199","address":"Mesdaglaan 199","city":"Maassluis","operatorName":"Eneco","maxPowerKw":150,"isMegawatt":false,"status":"AVAILABLE","source":"ndw"}},{"type":"Feature","geometry":{"type":"Point","coordinates":[4.230901,51.941828]},"properties":{"type":"charge","layer":"passenger","locationId":"NLLOC008841","name":"Kalandermolen 52, 3146 SL Maassluis","address":"Kalandermolen 52","city":"Maassluis","operatorName":"Allego","maxPowerKw":0,"isMegawatt":false,"status":"AVAILABLE","source":"ndw"}},{"type":"Feature","geometry":{"type":"Point","coordinates":[4.2463,51.92918]},"properties":{"type":"charge","layer":"passenger","locationId":"90937116","name":"EQUANS SGZH 2.0 Richard Hollaan 107","address":"Richard Hollaan 107","city":"Maassluis","operatorName":"EQUANS","maxPowerKw":0,"isMegawatt":false,"status":"AVAILABLE","source":"ndw"}},{"type":"Feature","geometry":{"type":"Point","coordinates":[4.225088,51.937315]},"properties":{"type":"charge","layer":"passenger","locationId":"89362792","name":"EQUANS SGZH 2.0 89362792","address":"Dunantdreef 118","city":"Maassluis","operatorName":"EQUANS","maxPowerKw":0,"isMegawatt":false,"status":"AVAILABLE","source":"ndw"}},{"type":"Feature","geometry":{"type":"Point","coordinates":[4.229017,51.941283]},"properties":{"type":"charge","layer":"passenger","locationId":"90122376","name":"EQUANS SGZH 2.0 Oliemolen 7","address":"Oliemolen 7","city":"Maassluis","operatorName":"EQUANS","maxPowerKw":0,"isMegawatt":false,"status":"AVAILABLE","source":"ndw"}},{"type":"Feature","geometry":{"type":"Point","coordinates":[4.24835,51.92517]},"properties":{"type":"charge","layer":"passenger","locationId":"89035925","name":"EQUANS SGZH 2.0 89035925","address":"Heldringstraat 101","city":"Maassluis","operatorName":"EQUANS","maxPowerKw":0,"isMegawatt":false,"status":"AVAILABLE","source":"ndw"}},{"type":"Feature","geometry":{"type":"Point","coordinates":[4.241931,51.922746]},"properties":{"type":"charge","layer":"passenger","locationId":"NLLOC002136","name":"NLD, Maassluis, Industrieweg 100","address":"Industrieweg 100","city":"Maassluis","operatorName":"Allego","maxPowerKw":0,"isMegawatt":false,"status":"AVAILABLE","source":"ndw"}},{"type":"Feature","geometry":{"type":"Point","coordinates":[4.221899,51.936875]},"properties":{"type":"charge","layer":"passenger","locationId":"4cafa752-a8bd-11ed-ac81-42010aa40fc0","name":"EQUANS SGZH 2.0 89396944","address":"Zeemandreef 60","city":"Maassluis","operatorName":"EQUANS","maxPowerKw":0,"isMegawatt":false,"status":"AVAILABLE","source":"ndw"}},{"type":"Feature","geometry":{"type":"Point","coordinates":[4.254566,51.922607]},"properties":{"type":"charge","layer":"passenger","locationId":"8e536810-3d41-11ee-b993-42010aa40fc0","name":"EQUANS SGZH 2.0 89914511","address":"Cornelis van der Kolfstraat 105","city":"Maassluis","operatorName":"EQUANS","maxPowerKw":0,"isMegawatt":false,"status":"AVAILABLE","source":"ndw"}},{"type":"Feature","geometry":{"type":"Point","coordinates":[4.25872,51.91842]},"properties":{"type":"charge","layer":"passenger","locationId":"c680561e-b804-11ef-99ca-42010aa400b8","name":"EQUANS SGZH 2.0 Vincent van Goghlaan 43","address":"Vincent van Goghlaan 43","city":"Maassluis","operatorName":"EQUANS","maxPowerKw":0,"isMegawatt":false,"status":"AVAILABLE","source":"ndw"}},{"type":"Feature","geometry":{"type":"Point","coordinates":[4.243909,51.923319]},"properties":{"type":"charge","layer":"passenger","locationId":"cb26c732-f689-11ec-b308-42010aa40fc0","name":"EQUANS SGZH 2.0 89238510","address":"P.J. Troelstraweg 149","city":"Maassluis","operatorName":"EQUANS","maxPowerKw":0,"isMegawatt":false,"status":"CHARGING","source":"ndw"}},{"type":"Feature","geometry":{"type":"Point","coordinates":[4.262396,51.923723]},"properties":{"type":"charge","layer":"passenger","locationId":"007d986a-e3ad-11ec-825f-42010aa40fc0","name":"EQUANS SGZH 2.0 89153846","address":"Van Alphenstraat 1","city":"Maassluis","operatorName":"EQUANS","maxPowerKw":0,"isMegawatt":false,"status":"AVAILABLE","source":"ndw"}},{"type":"Feature","geometry":{"type":"Point","coordinates":[4.24297,51.938899]},"properties":{"type":"charge","layer":"passenger","locationId":"02fe1e44-6c94-11ef-9fa0-42010aa400b8","name":"EQUANS SGZH 2.0 Pluis 2","address":"Pluis 2","city":"Maassluis","operatorName":"EQUANS","maxPowerKw":0,"isMegawatt":false,"status":"AVAILABLE","source":"ndw"}},{"type":"Feature","geometry":{"type":"Point","coordinates":[4.260515,51.925348]},"properties":{"type":"charge","layer":"passenger","locationId":"0ad22de6-c469-11ee-8826-42010aa40fc0","name":"EQUANS SGZH 2.0 Lijnbaan 69","address":"Lijnbaan 69","city":"Maassluis","operatorName":"EQUANS","maxPowerKw":0,"isMegawatt":false,"status":"AVAILABLE","source":"ndw"}},{"type":"Feature","geometry":{"type":"Point","coordinates":[4.242455,51.938457]},"properties":{"type":"charge","layer":"passenger","locationId":"8b8bfaf4-d4bc-11ed-94b5-42010aa40fc0","name":"EQUANS SGZH 2.0 89488012","address":"Verreweg 137","city":"Maassluis","operatorName":"EQUANS","maxPowerKw":0,"isMegawatt":false,"status":"AVAILABLE","source":"ndw"}},{"type":"Feature","geometry":{"type":"Point","coordinates":[4.25056,51.929009]},"properties":{"type":"charge","layer":"passenger","locationId":"f83afe9c-42ee-11ef-9a09-42010aa400b8","name":"EQUANS SGZH 2.0 Berkendal 67","address":"Berkendal 67","city":"Maassluis","operatorName":"EQUANS","maxPowerKw":0,"isMegawatt":false,"status":"AVAILABLE","source":"ndw"}},{"type":"Feature","geometry":{"type":"Point","coordinates":[4.2571,51.92287]},"properties":{"type":"charge","layer":"passenger","locationId":"90883829","name":"EQUANS SGZH 2.0 Groen van Prinstererkade 2","address":"Groen van Prinstererkade 2","city":"Maassluis","operatorName":"EQUANS","maxPowerKw":0,"isMegawatt":false,"status":"AVAILABLE","source":"ndw"}},{"type":"Feature","geometry":{"type":"Point","coordinates":[4.229082,51.931088]},"properties":{"type":"charge","layer":"passenger","locationId":"NLLOC005646","name":"NLD Merellaan 168 3145 XH Maassluis","address":"Merellaan 168","city":"Maassluis","operatorName":"Allego","maxPowerKw":0,"isMegawatt":false,"status":"AVAILABLE","source":"ndw"}},{"type":"Feature","geometry":{"type":"Point","coordinates":[4.2643,51.9224]},"properties":{"type":"charge","layer":"passenger","locationId":"7110bee2-5c43-11f0-93d6-42010aa400b8","name":"EQUANS SGZH 2.0 Staringstraat 23","address":"Staringstraat 23","city":"Maassluis","operatorName":"EQUANS","maxPowerKw":0,"isMegawatt":false,"status":"AVAILABLE","source":"ndw"}},{"type":"Feature","geometry":{"type":"Point","coordinates":[4.25285,51.9211]},"properties":{"type":"charge","layer":"passenger","locationId":"b70c896e-f486-11ef-9469-42010aa400b8","name":"EQUANS SGZH 2.0 Haven 7","address":"Haven 7","city":"Maassluis","operatorName":"EQUANS","maxPowerKw":0,"isMegawatt":false,"status":"AVAILABLE","source":"ndw"}},{"type":"Feature","geometry":{"type":"Point","coordinates":[4.224245,51.935658]},"properties":{"type":"charge","layer":"passenger","locationId":"204447ae-8d95-11ef-a168-42010aa400b8","name":"EQUANS SGZH 2.0 Einthovendreef 70","address":"Einthovendreef 70","city":"Maassluis","operatorName":"EQUANS","maxPowerKw":0,"isMegawatt":false,"status":"AVAILABLE","source":"ndw"}},{"type":"Feature","geometry":{"type":"Point","coordinates":[4.24187,51.934571]},"properties":{"type":"charge","layer":"passenger","locationId":"8d38624c-57f8-11ee-b1b6-42010aa40fc0","name":"EQUANS SGZH 2.0 89942873","address":"Eiland 17","city":"Maassluis","operatorName":"EQUANS","maxPowerKw":0,"isMegawatt":false,"status":"AVAILABLE","source":"ndw"}},{"type":"Feature","geometry":{"type":"Point","coordinates":[4.230755,51.939648]},"properties":{"type":"charge","layer":"passenger","locationId":"89307336","name":"EQUANS SGZH 2.0 89307336","address":"Stellingmolen 50","city":"Maassluis","operatorName":"EQUANS","maxPowerKw":0,"isMegawatt":false,"status":"AVAILABLE","source":"ndw"}},{"type":"Feature","geometry":{"type":"Point","coordinates":[4.246265,51.924021]},"properties":{"type":"charge","layer":"passenger","locationId":"8a0adea4-8814-11ef-a889-42010aa400b8","name":"EQUANS SGZH 2.0 A.E. Maasstraat 25","address":"A.E. Maasstraat 25","city":"Maassluis","operatorName":"EQUANS","maxPowerKw":0,"isMegawatt":false,"status":"AVAILABLE","source":"ndw"}},{"type":"Feature","geometry":{"type":"Point","coordinates":[4.228204,51.938931]},"properties":{"type":"charge","layer":"passenger","locationId":"89035930","name":"EQUANS SGZH 2.0 89035930","address":"Stadsmolen 30","city":"Maassluis","operatorName":"EQUANS","maxPowerKw":0,"isMegawatt":false,"status":"AVAILABLE","source":"ndw"}},{"type":"Feature","geometry":{"type":"Point","coordinates":[4.22011,51.938008]},"properties":{"type":"charge","layer":"passenger","locationId":"89145574","name":"EQUANS SGZH 2.0 89145574","address":"Lorentzdreef 13","city":"Maassluis","operatorName":"EQUANS","maxPowerKw":0,"isMegawatt":false,"status":"AVAILABLE","source":"ndw"}},{"type":"Feature","geometry":{"type":"Point","coordinates":[4.24297,51.938899]},"properties":{"type":"charge","layer":"passenger","locationId":"90365802","name":"EQUANS SGZH 2.0 Pluis 2","address":"Pluis 2","city":"Maassluis","operatorName":"EQUANS","maxPowerKw":0,"isMegawatt":false,"status":"AVAILABLE","source":"ndw"}},{"type":"Feature","geometry":{"type":"Point","coordinates":[4.221899,51.936875]},"properties":{"type":"charge","layer":"passenger","locationId":"89396944","name":"EQUANS SGZH 2.0 89396944","address":"Zeemandreef 60","city":"Maassluis","operatorName":"EQUANS","maxPowerKw":0,"isMegawatt":false,"status":"AVAILABLE","source":"ndw"}},{"type":"Feature","geometry":{"type":"Point","coordinates":[4.266716,51.918964]},"properties":{"type":"charge","layer":"passenger","locationId":"cb061eea-0fad-11ee-a0c4-42010aa40fc0","name":"EQUANS SGZH 2.0 89828172","address":"Ruysdaelstraat 5 B","city":"Maassluis","operatorName":"EQUANS","maxPowerKw":0,"isMegawatt":false,"status":"AVAILABLE","source":"ndw"}},{"type":"Feature","geometry":{"type":"Point","coordinates":[4.223758,51.939468]},"properties":{"type":"charge","layer":"passenger","locationId":"89455026","name":"EQUANS SGZH 2.0 89455026","address":"Churchilldreef 19","city":"Maassluis","operatorName":"EQUANS","maxPowerKw":0,"isMegawatt":false,"status":"AVAILABLE","source":"ndw"}},{"type":"Feature","geometry":{"type":"Point","coordinates":[4.242075,51.93061]},"properties":{"type":"charge","layer":"passenger","locationId":"89942986","name":"EQUANS SGZH 2.0 89942986","address":"De Vloot 211","city":"Maassluis","operatorName":"EQUANS","maxPowerKw":0,"isMegawatt":false,"status":"AVAILABLE","source":"ndw"}},{"type":"Feature","geometry":{"type":"Point","coordinates":[4.26789,51.908741]},"properties":{"type":"charge","layer":"passenger","locationId":"90226377","name":"EQUANS SGZH 2.0 Hooge Zeedijk 100","address":"Hooge Zeedijk 100","city":"Maassluis","operatorName":"EQUANS","maxPowerKw":0,"isMegawatt":false,"status":"AVAILABLE","source":"ndw"}},{"type":"Feature","geometry":{"type":"Point","coordinates":[4.261619,51.920362]},"properties":{"type":"charge","layer":"passenger","locationId":"90172060","name":"EQUANS SGZH 2.0 Vondellaan 39","address":"Vondellaan 39","city":"Maassluis","operatorName":"EQUANS","maxPowerKw":0,"isMegawatt":false,"status":"AVAILABLE","source":"ndw"}},{"type":"Feature","geometry":{"type":"Point","coordinates":[4.247819,51.928261]},"properties":{"type":"charge","layer":"passenger","locationId":"90925060","name":"EQUANS SGZH 2.0 Henriëtte Bosmanslaan 31","address":"Henriëtte Bosmanslaan 31","city":"Maassluis","operatorName":"EQUANS","maxPowerKw":0,"isMegawatt":false,"status":"AVAILABLE","source":"ndw"}},{"type":"Feature","geometry":{"type":"Point","coordinates":[4.251503,51.921632]},"properties":{"type":"charge","layer":"passenger","locationId":"NLLOC001420","name":"NLD, Maassluis, Ankerstraat 2","address":"Ankerstraat 2","city":"Maassluis","operatorName":"Allego","maxPowerKw":0,"isMegawatt":false,"status":"AVAILABLE","source":"ndw"}},{"type":"Feature","geometry":{"type":"Point","coordinates":[4.245937,51.922894]},"properties":{"type":"charge","layer":"passenger","locationId":"NLLOC007764","name":"NL, Talmastraat 50, 3144 CV, Maassluis","address":"Talmastraat 50","city":"Maassluis","operatorName":"Allego","maxPowerKw":0,"isMegawatt":false,"status":"AVAILABLE","source":"ndw"}},{"type":"Feature","geometry":{"type":"Point","coordinates":[4.238151,51.920508]},"properties":{"type":"charge","layer":"passenger","locationId":"NLLOC014754","name":"NL, Het Hoge Licht 135, 3144DN, Maassluis","address":"Het Hoge Licht 135","city":"Maassluis","operatorName":"Allego","maxPowerKw":0,"isMegawatt":false,"status":"AVAILABLE","source":"ndw"}},{"type":"Feature","geometry":{"type":"Point","coordinates":[4.257592,51.922387]},"properties":{"type":"charge","layer":"passenger","locationId":"89286232","name":"EQUANS SGZH 2.0 89286232","address":"P.C. Hooftlaan 38","city":"Maassluis","operatorName":"EQUANS","maxPowerKw":0,"isMegawatt":false,"status":"AVAILABLE","source":"ndw"}},{"type":"Feature","geometry":{"type":"Point","coordinates":[4.254566,51.922607]},"properties":{"type":"charge","layer":"passenger","locationId":"89914511","name":"EQUANS SGZH 2.0 89914511","address":"Cornelis van der Kolfstraat 105","city":"Maassluis","operatorName":"EQUANS","maxPowerKw":0,"isMegawatt":false,"status":"AVAILABLE","source":"ndw"}},{"type":"Feature","geometry":{"type":"Point","coordinates":[4.26612,51.920771]},"properties":{"type":"charge","layer":"passenger","locationId":"NLLOC003731","name":"NLD, Maassluis, Vermeerlaan 2","address":"Vermeerlaan 2","city":"Maassluis","operatorName":"Allego","maxPowerKw":0,"isMegawatt":false,"status":"AVAILABLE","source":"ndw"}},{"type":"Feature","geometry":{"type":"Point","coordinates":[4.23331,51.936047]},"properties":{"type":"charge","layer":"passenger","locationId":"90159912","name":"EQUANS SGZH 2.0 Burg. Overvoordelaan 34","address":"Burg. Overvoordelaan 34","city":"Maassluis","operatorName":"EQUANS","maxPowerKw":0,"isMegawatt":false,"status":"CHARGING","source":"ndw"}},{"type":"Feature","geometry":{"type":"Point","coordinates":[4.22872,51.94299]},"properties":{"type":"charge","layer":"passenger","locationId":"89035931","name":"EQUANS SGZH 2.0 89035931","address":"Windmolen 1TH","city":"Maassluis","operatorName":"EQUANS","maxPowerKw":0,"isMegawatt":false,"status":"AVAILABLE","source":"ndw"}},{"type":"Feature","geometry":{"type":"Point","coordinates":[4.248824,51.915385]},"properties":{"type":"charge","layer":"passenger","locationId":"89254171","name":"EQUANS SGZH 2.0 89254171","address":"De la Reystraat 29","city":"Maassluis","operatorName":"EQUANS","maxPowerKw":0,"isMegawatt":false,"status":"AVAILABLE","source":"ndw"}},{"type":"Feature","geometry":{"type":"Point","coordinates":[4.22907,51.933984]},"properties":{"type":"charge","layer":"passenger","locationId":"89254262","name":"EQUANS SGZH 2.0 89254262","address":"Dr. Jan Schoutenlaan 304","city":"Maassluis","operatorName":"EQUANS","maxPowerKw":0,"isMegawatt":false,"status":"AVAILABLE","source":"ndw"}},{"type":"Feature","geometry":{"type":"Point","coordinates":[4.240668,51.92471]},"properties":{"type":"charge","layer":"passenger","locationId":"NLLOC007688","name":"NL, Verdistraat 11, 3144KH, Maassluis","address":"Verdistraat 11","city":"Maassluis","operatorName":"Allego","maxPowerKw":0,"isMegawatt":false,"status":"AVAILABLE","source":"ndw"}},{"type":"Feature","geometry":{"type":"Point","coordinates":[4.254179,51.924563]},"properties":{"type":"charge","layer":"passenger","locationId":"89942877","name":"EQUANS SGZH 2.0 89942877","address":"Scheerderij 37","city":"Maassluis","operatorName":"EQUANS","maxPowerKw":0,"isMegawatt":false,"status":"AVAILABLE","source":"ndw"}},{"type":"Feature","geometry":{"type":"Point","coordinates":[4.231683,51.929079]},"properties":{"type":"charge","layer":"passenger","locationId":"NLLOC013579","name":"NL, Merellaan 447, 3145 ER Maassluis","address":"Merellaan 447","city":"Maassluis","operatorName":"Allego","maxPowerKw":0,"isMegawatt":false,"status":"AVAILABLE","source":"ndw"}},{"type":"Feature","geometry":{"type":"Point","coordinates":[4.238566,51.922089]},"properties":{"type":"charge","layer":"passenger","locationId":"NLLOC003528","name":"NLD, Maassluis, Vuurbaak 2","address":"Vuurbaak 2","city":"Maassluis","operatorName":"Allego","maxPowerKw":0,"isMegawatt":false,"status":"AVAILABLE","source":"ndw"}},{"type":"Feature","geometry":{"type":"Point","coordinates":[4.242561,51.930244]},"properties":{"type":"charge","layer":"passenger","locationId":"90256902","name":"EQUANS SGZH 2.0 De Vloot 289","address":"De Vloot 289","city":"Maassluis","operatorName":"EQUANS","maxPowerKw":0,"isMegawatt":false,"status":"AVAILABLE","source":"ndw"}},{"type":"Feature","geometry":{"type":"Point","coordinates":[4.223556,51.938104]},"properties":{"type":"charge","layer":"passenger","locationId":"90226395","name":"EQUANS SGZH 2.0 Echtpaar Curiedreef 20","address":"Echtpaar Curiedreef 20","city":"Maassluis","operatorName":"EQUANS","maxPowerKw":0,"isMegawatt":false,"status":"AVAILABLE","source":"ndw"}},{"type":"Feature","geometry":{"type":"Point","coordinates":[4.246477,51.928577]},"properties":{"type":"charge","layer":"passenger","locationId":"NLLOC003906","name":"NLD, Willem Pijperplein 89 3144BP Maassluis","address":"Willem Pijperplein 89","city":"Maassluis","operatorName":"Allego","maxPowerKw":0,"isMegawatt":false,"status":"AVAILABLE","source":"ndw"}},{"type":"Feature","geometry":{"type":"Point","coordinates":[4.243909,51.923319]},"properties":{"type":"charge","layer":"passenger","locationId":"89238510","name":"EQUANS SGZH 2.0 89238510","address":"P.J. Troelstraweg 149","city":"Maassluis","operatorName":"EQUANS","maxPowerKw":0,"isMegawatt":false,"status":"AVAILABLE","source":"ndw"}},{"type":"Feature","geometry":{"type":"Point","coordinates":[4.238369,51.931387]},"properties":{"type":"charge","layer":"passenger","locationId":"NLLOC003575","name":"NLD, Maassluis, Zwaluwstraat 15","address":"Zwaluwstraat 15","city":"Maassluis","operatorName":"Allego","maxPowerKw":0,"isMegawatt":false,"status":"AVAILABLE","source":"ndw"}},{"type":"Feature","geometry":{"type":"Point","coordinates":[4.25261,51.9186]},"properties":{"type":"charge","layer":"passenger","locationId":"90909801","name":"EQUANS SGZH 2.0 M.H. Trompstraat 28","address":"M.H. Trompstraat 28","city":"Maassluis","operatorName":"EQUANS","maxPowerKw":0,"isMegawatt":false,"status":"AVAILABLE","source":"ndw"}},{"type":"Feature","geometry":{"type":"Point","coordinates":[4.237069,51.923571]},"properties":{"type":"charge","layer":"passenger","locationId":"NLLOC012238","name":"NL, Jacob van Heemskercklaan 72, 3144 DK, Maassluis","address":"Jacob van Heemskercklaan 72","city":"Maassluis","operatorName":"Allego","maxPowerKw":0,"isMegawatt":false,"status":"AVAILABLE","source":"ndw"}},{"type":"Feature","geometry":{"type":"Point","coordinates":[4.225247,51.935104]},"properties":{"type":"charge","layer":"passenger","locationId":"89215130","name":"EQUANS SGZH 2.0 89215130","address":"Asserdreef 61","city":"Maassluis","operatorName":"EQUANS","maxPowerKw":0,"isMegawatt":false,"status":"AVAILABLE","source":"ndw"}},{"type":"Feature","geometry":{"type":"Point","coordinates":[4.25618,51.916523]},"properties":{"type":"charge","layer":"passenger","locationId":"90122378","name":"EQUANS SGZH 2.0 Frederik Hendrikstraat 47","address":"Frederik Hendrikstraat 47","city":"Maassluis","operatorName":"EQUANS","maxPowerKw":0,"isMegawatt":false,"status":"AVAILABLE","source":"ndw"}},{"type":"Feature","geometry":{"type":"Point","coordinates":[4.264922,51.922392]},"properties":{"type":"charge","layer":"passenger","locationId":"NLLOC002249","name":"NLD, Maassluis, Wipperspark 70","address":"Wipperspark 70","city":"Maassluis","operatorName":"Allego","maxPowerKw":0,"isMegawatt":false,"status":"AVAILABLE","source":"ndw"}},{"type":"Feature","geometry":{"type":"Point","coordinates":[4.22329,51.93439]},"properties":{"type":"charge","layer":"passenger","locationId":"91045950","name":"EQUANS SGZH 2.0 Asserdreef 1","address":"Asserdreef 1","city":"Maassluis","operatorName":"EQUANS","maxPowerKw":0,"isMegawatt":false,"status":"AVAILABLE","source":"ndw"}},{"type":"Feature","geometry":{"type":"Point","coordinates":[4.266413,51.918181]},"properties":{"type":"charge","layer":"passenger","locationId":"0c7449d6-639f-11ec-9c40-42010a840003","name":"EQUANS SGZH 2.0 89146523","address":"Jan Steenstraat 30","city":"Maassluis","operatorName":"EQUANS","maxPowerKw":0,"isMegawatt":false,"status":"CHARGING","source":"ndw"}},{"type":"Feature","geometry":{"type":"Point","coordinates":[4.223758,51.939468]},"properties":{"type":"charge","layer":"passenger","locationId":"69620530-c509-11ed-8b61-42010aa40fc0","name":"EQUANS SGZH 2.0 89455026","address":"Churchilldreef 19","city":"Maassluis","operatorName":"EQUANS","maxPowerKw":0,"isMegawatt":false,"status":"AVAILABLE","source":"ndw"}},{"type":"Feature","geometry":{"type":"Point","coordinates":[4.227313,51.93483]},"properties":{"type":"charge","layer":"passenger","locationId":"NLLOC003403","name":"NLD, Maassluis, Doctor Jan Schoutenlaan 256","address":"Doctor Jan Schoutenlaan 256","city":"Maassluis","operatorName":"Allego","maxPowerKw":0,"isMegawatt":false,"status":"AVAILABLE","source":"ndw"}},{"type":"Feature","geometry":{"type":"Point","coordinates":[4.25606,51.920558]},"properties":{"type":"charge","layer":"passenger","locationId":"89354075","name":"EQUANS SGZH 2.0 89354075","address":"Patijnestraat 18","city":"Maassluis","operatorName":"EQUANS","maxPowerKw":0,"isMegawatt":false,"status":"AVAILABLE","source":"ndw"}},{"type":"Feature","geometry":{"type":"Point","coordinates":[4.263585,51.920001]},"properties":{"type":"charge","layer":"passenger","locationId":"89329834","name":"EQUANS SGZH 2.0 89329834","address":"Govert Flinckplein 1","city":"Maassluis","operatorName":"EQUANS","maxPowerKw":0,"isMegawatt":false,"status":"AVAILABLE","source":"ndw"}},{"type":"Feature","geometry":{"type":"Point","coordinates":[4.242455,51.938457]},"properties":{"type":"charge","layer":"passenger","locationId":"89488012","name":"EQUANS SGZH 2.0 89488012","address":"Verreweg 137","city":"Maassluis","operatorName":"EQUANS","maxPowerKw":0,"isMegawatt":false,"status":"AVAILABLE","source":"ndw"}},{"type":"Feature","geometry":{"type":"Point","coordinates":[4.25379,51.93014]},"properties":{"type":"charge","layer":"passenger","locationId":"91012725","name":"EQUANS SGZH 2.0 Wegedoorn 20","address":"Wegedoorn 20","city":"Maassluis","operatorName":"EQUANS","maxPowerKw":0,"isMegawatt":false,"status":"AVAILABLE","source":"ndw"}},{"type":"Feature","geometry":{"type":"Point","coordinates":[4.262461,51.92562]},"properties":{"type":"charge","layer":"passenger","locationId":"NLLOC005095","name":"NLD Lijnbaan 122 3142 BM Maassluis","address":"Lijnbaan 124","city":"Maassluis","operatorName":"Allego","maxPowerKw":0,"isMegawatt":false,"status":"AVAILABLE","source":"ndw"}},{"type":"Feature","geometry":{"type":"Point","coordinates":[4.241805,51.921284]},"properties":{"type":"charge","layer":"passenger","locationId":"89914510","name":"EQUANS SGZH 2.0 89914510","address":"Houten Baak 1","city":"Maassluis","operatorName":"EQUANS","maxPowerKw":0,"isMegawatt":false,"status":"AVAILABLE","source":"ndw"}},{"type":"Feature","geometry":{"type":"Point","coordinates":[4.240479,51.929883]},"properties":{"type":"charge","layer":"passenger","locationId":"NLLOC007998","name":"NL, Boeier 21, 3144GA Maassluis","address":"Boeier 21","city":"Maassluis","operatorName":"Allego","maxPowerKw":0,"isMegawatt":false,"status":"AVAILABLE","source":"ndw"}},{"type":"Feature","geometry":{"type":"Point","coordinates":[4.22818,51.93719]},"properties":{"type":"charge","layer":"passenger","locationId":"89035928","name":"EQUANS SGZH 2.0 89035928","address":"Dokter Jan Schoutenlaan 12","city":"Maassluis","operatorName":"EQUANS","maxPowerKw":0,"isMegawatt":false,"status":"CHARGING","source":"ndw"}},{"type":"Feature","geometry":{"type":"Point","coordinates":[4.266716,51.918964]},"properties":{"type":"charge","layer":"passenger","locationId":"89828172","name":"EQUANS SGZH 2.0 89828172","address":"Ruysdaelstraat 5 B","city":"Maassluis","operatorName":"EQUANS","maxPowerKw":0,"isMegawatt":false,"status":"AVAILABLE","source":"ndw"}},{"type":"Feature","geometry":{"type":"Point","coordinates":[4.228891,51.938094]},"properties":{"type":"charge","layer":"passenger","locationId":"NLLOC002591","name":"NLD, Maassluis, Getijmolen 26","address":"Getijmolen 26","city":"Maassluis","operatorName":"Allego","maxPowerKw":0,"isMegawatt":false,"status":"AVAILABLE","source":"ndw"}},{"type":"Feature","geometry":{"type":"Point","coordinates":[4.24253,51.93777]},