{"type":"FeatureCollection","metadata":{"gemeente":"Nieuwegein","slug":"nieuwegein","code":"GM0356","generated_at":"2026-06-02T13:19:22.438Z","total_passenger":389,"total_freight":5,"bounds":[5.062511241844615,51.99745194616231,5.130992896634691,52.06222227800728],"operators":["Allego","ChargePoint","E-Flux by Road","EQUANS","Eneco","Fastned","IONITY","Laadnet","Lidl","Mijninstallatiepartner","Opcharge","Pluq","PowerGo","Q-Park Netherlands","Smappee","Spirii","Tanx","TotalEnergies","Ubitricity","Vattenfall InCharge","bp pulse","e-RS"]},"features":[{"type":"Feature","geometry":{"type":"Point","coordinates":[5.121492,52.021664]},"properties":{"type":"charge","layer":"passenger","locationId":"2a8831a2-9ddc-11ee-8d83-42010aa40fc0","name":"FOURCE BV INUNDATIEDOK 2","address":"29 Inundatiedok","city":"Nieuwegein","operatorName":"ChargePoint","maxPowerKw":22,"isMegawatt":false,"status":"UNAVAILABLE","source":"ndw"}},{"type":"Feature","geometry":{"type":"Point","coordinates":[5.095971,52.043981]},"properties":{"type":"charge","layer":"passenger","locationId":"NLLOC002425","name":"NLD, Harmonielaan 2, 3438 EB Nieuwegein","address":"Harmonielaan 2","city":"Nieuwegein","operatorName":"Allego","maxPowerKw":0,"isMegawatt":false,"status":"AVAILABLE","source":"ndw"}},{"type":"Feature","geometry":{"type":"Point","coordinates":[5.096043,52.016253]},"properties":{"type":"charge","layer":"passenger","locationId":"NLLOC003864","name":"NLD, Laarderschans 34 3432EC Nieuwegein","address":"Laarderschans 34","city":"Nieuwegein","operatorName":"Allego","maxPowerKw":0,"isMegawatt":false,"status":"AVAILABLE","source":"ndw"}},{"type":"Feature","geometry":{"type":"Point","coordinates":[5.083372,52.053173]},"properties":{"type":"charge","layer":"passenger","locationId":"ba481bfa-0baf-11ee-9368-42010aa40fc0","name":"Jumbo 5111 Nieuwegein WC Galecop (PowerGo)","address":"Winkelcentrum Galecop 7","city":"Nieuwegein","operatorName":"PowerGo","maxPowerKw":0,"isMegawatt":false,"status":"AVAILABLE","source":"ndw"}},{"type":"Feature","geometry":{"type":"Point","coordinates":[5.083372,52.053173]},"properties":{"type":"charge","layer":"passenger","locationId":"ba481bfa-0baf-11ee-9368-42010aa40fc0","name":"Jumbo 5111 Nieuwegein WC Galecop (PowerGo)","address":"Winkelcentrum Galecop 7","city":"Nieuwegein","operatorName":"PowerGo","maxPowerKw":0,"isMegawatt":false,"status":"AVAILABLE","source":"ndw"}},{"type":"Feature","geometry":{"type":"Point","coordinates":[5.0783,52.03526]},"properties":{"type":"charge","layer":"passenger","locationId":"93a96b1d3bcdb26e95afcb5c5756353c","name":"Richterslaan 62","address":"Richterslaan 62","city":"Nieuwegein","operatorName":"Vattenfall InCharge","maxPowerKw":11,"isMegawatt":false,"status":"CHARGING","source":"ndw"}},{"type":"Feature","geometry":{"type":"Point","coordinates":[5.11743,52.0493]},"properties":{"type":"charge","layer":"passenger","locationId":"24519b08-1e2c-42c3-b197-be1ae3fcd396","name":"Ravenswade","address":"Ravenswade 1","city":"Nieuwegein","operatorName":"Vattenfall InCharge","maxPowerKw":50,"isMegawatt":false,"status":"AVAILABLE","source":"ndw"}},{"type":"Feature","geometry":{"type":"Point","coordinates":[5.071856,52.036304]},"properties":{"type":"charge","layer":"passenger","locationId":"b9fd5fd4-0baf-11ee-9f3b-42010aa40fc0","name":"Jumbo 3144 Nieuwegein Walnootgaarde (PowerGo)","address":"Walnootgaarde 4a","city":"Nieuwegein","operatorName":"PowerGo","maxPowerKw":0,"isMegawatt":false,"status":"AVAILABLE","source":"ndw"}},{"type":"Feature","geometry":{"type":"Point","coordinates":[5.097513,52.004613]},"properties":{"type":"charge","layer":"passenger","locationId":"NLLOC000591","name":"NLD, Nieuwegein , Gildeborglaan 10","address":"Gildeborglaan 10","city":"Nieuwegein","operatorName":"Allego","maxPowerKw":0,"isMegawatt":false,"status":"AVAILABLE","source":"ndw"}},{"type":"Feature","geometry":{"type":"Point","coordinates":[5.108183,52.030007]},"properties":{"type":"charge","layer":"passenger","locationId":"27918294-e0c1-11f0-8230-42010aa400b8","name":"Eneco eMobility BMN Bouwmaterialen - Nieuwegein","address":"Celsiusbaan 10","city":"Nieuwegein","operatorName":"Eneco","maxPowerKw":150,"isMegawatt":false,"status":"AVAILABLE","source":"ndw"}},{"type":"Feature","geometry":{"type":"Point","coordinates":[5.09167,52.01567]},"properties":{"type":"charge","layer":"passenger","locationId":"a41033a2-4f3c-11e8-8a9b-42010a840002","name":"Shell Recharge NL Lierseschans 8 Nieuwegein","address":"Lierseschans 8","city":"Nieuwegein","operatorName":"Ubitricity","maxPowerKw":11,"isMegawatt":false,"status":"AVAILABLE","source":"ndw"}},{"type":"Feature","geometry":{"type":"Point","coordinates":[5.09822,52.05053]},"properties":{"type":"charge","layer":"passenger","locationId":"a4171d0c-4f3c-11e8-9868-42010a840002","name":"Shell Recharge NL Heidehoeve 14 Nieuwegein","address":"Heidehoeve 14","city":"Nieuwegein","operatorName":"Ubitricity","maxPowerKw":11,"isMegawatt":false,"status":"CHARGING","source":"ndw"}},{"type":"Feature","geometry":{"type":"Point","coordinates":[5.075011,52.054324]},"properties":{"type":"charge","layer":"passenger","locationId":"NLLOC000704","name":"NLD, Herman Teirlinckhove 1 3437BL Nieuwegein","address":"Herman Teirlinckhove 1","city":"Nieuwegein","operatorName":"Allego","maxPowerKw":0,"isMegawatt":false,"status":"AVAILABLE","source":"ndw"}},{"type":"Feature","geometry":{"type":"Point","coordinates":[5.102,52.04018]},"properties":{"type":"charge","layer":"passenger","locationId":"83af4f68-d547-11ec-adb1-42010a840003","name":"Shell Recharge NL Newtonbaan 7 Nieuwegein","address":"Newtonbaan 7","city":"Nieuwegein","operatorName":"Ubitricity","maxPowerKw":11,"isMegawatt":false,"status":"AVAILABLE","source":"ndw"}},{"type":"Feature","geometry":{"type":"Point","coordinates":[5.073893,52.021496]},"properties":{"type":"charge","layer":"passenger","locationId":"8c419938-f78a-11f0-ba9e-42010aa400b8","name":"NIEUWEGEIN - Buizerdlaan","address":"Buizerdlaan","city":"Nieuwegein","operatorName":"Lidl","maxPowerKw":22,"isMegawatt":false,"status":"UNAVAILABLE","source":"ndw"}},{"type":"Feature","geometry":{"type":"Point","coordinates":[5.108183,52.030007]},"properties":{"type":"charge","layer":"passenger","locationId":"00ED445C-FAE6-4222-82EB-0A0C4D7655DC","name":"Eneco eMobility BMN Bouwmaterialen - Nieuwegein","address":"Celsiusbaan 10","city":"Nieuwegein","operatorName":"Eneco","maxPowerKw":150,"isMegawatt":false,"status":"AVAILABLE","source":"ndw"}},{"type":"Feature","geometry":{"type":"Point","coordinates":[5.0808,52.04926]},"properties":{"type":"charge","layer":"passenger","locationId":"9901b6aa-3505-11f0-8808-42010aa400b8","name":"Shell Recharge NL Aert de Gelderhage 52, Nieuwegein, [AN null]","address":"Aert de Gelderhage 52","city":"Nieuwegein","operatorName":"Ubitricity","maxPowerKw":22,"isMegawatt":false,"status":"AVAILABLE","source":"ndw"}},{"type":"Feature","geometry":{"type":"Point","coordinates":[5.118319,52.021862]},"properties":{"type":"charge","layer":"passenger","locationId":"cc00312e-d5a4-11ee-a50b-42010aa40fc0","name":"FOURCE BV INUNDATIEDOK 4","address":"29 Inundatiedok","city":"Nieuwegein","operatorName":"ChargePoint","maxPowerKw":22,"isMegawatt":false,"status":"UNAVAILABLE","source":"ndw"}},{"type":"Feature","geometry":{"type":"Point","coordinates":[5.073893,52.021496]},"properties":{"type":"charge","layer":"passenger","locationId":"29dffd2a-e5ed-4dc2-a9fa-9ecd73125f93","name":"NIEUWEGEIN - Buizerdlaan","address":"Buizerdlaan","city":"Nieuwegein","operatorName":"Lidl","maxPowerKw":22,"isMegawatt":false,"status":"UNAVAILABLE","source":"ndw"}},{"type":"Feature","geometry":{"type":"Point","coordinates":[5.072286,52.042583]},"properties":{"type":"charge","layer":"passenger","locationId":"NLLOC013493","name":"NL, Elandweide 41, 3437CM Nieuwegein","address":"Elandweide 41","city":"Nieuwegein","operatorName":"Allego","maxPowerKw":0,"isMegawatt":false,"status":"AVAILABLE","source":"ndw"}},{"type":"Feature","geometry":{"type":"Point","coordinates":[5.089355,52.046762]},"properties":{"type":"charge","layer":"passenger","locationId":"NLLOC000750","name":"NL, Symfonielaan 1, 3438 EW, Nieuwegein","address":"Symfonielaan 1","city":"Nieuwegein","operatorName":"Allego","maxPowerKw":0,"isMegawatt":false,"status":"AVAILABLE","source":"ndw"}},{"type":"Feature","geometry":{"type":"Point","coordinates":[5.084157,52.004053]},"properties":{"type":"charge","layer":"passenger","locationId":"24ac8958-1be0-11f0-9f0e-42010aa400b8","name":"Shell Recharge NL Middelmonde 73, Nieuwegein, [AN null]","address":"Middelmonde 73","city":"Nieuwegein","operatorName":"Ubitricity","maxPowerKw":22,"isMegawatt":false,"status":"AVAILABLE","source":"ndw"}},{"type":"Feature","geometry":{"type":"Point","coordinates":[5.08018,52.00698]},"properties":{"type":"charge","layer":"passenger","locationId":"a31cd48c-4f3c-11e8-b529-42010a840002","name":"Shell Recharge NL Zonnebloemstraat 70 Nieuwegein","address":"Zonnebloemstraat 70","city":"Nieuwegein","operatorName":"Ubitricity","maxPowerKw":11,"isMegawatt":false,"status":"AVAILABLE","source":"ndw"}},{"type":"Feature","geometry":{"type":"Point","coordinates":[5.08379,52.04131]},"properties":{"type":"charge","layer":"passenger","locationId":"a41e02e8-4f3c-11e8-82f2-42010a840002","name":"Shell Recharge NL Harplaan 7 Nieuwegein","address":"Harplaan 7","city":"Nieuwegein","operatorName":"Ubitricity","maxPowerKw":11,"isMegawatt":false,"status":"CHARGING","source":"ndw"}},{"type":"Feature","geometry":{"type":"Point","coordinates":[5.0936,52.01916]},"properties":{"type":"charge","layer":"passenger","locationId":"a44bc8d6-4f3c-11e8-a7bd-42010a840002","name":"Shell Recharge NL Bedumerschans 43 Nieuwegein","address":"Bedumerschans 43","city":"Nieuwegein","operatorName":"Ubitricity","maxPowerKw":11,"isMegawatt":false,"status":"AVAILABLE","source":"ndw"}},{"type":"Feature","geometry":{"type":"Point","coordinates":[5.081567,52.024834]},"properties":{"type":"charge","layer":"passenger","locationId":"9B666D2D-0CBD-4B0A-8798-8A74D7992174","name":"Q-Park Nieuwegein St Antonius Ziekenhuis","address":"Koekoekslaan 1","city":"Nieuwegein","operatorName":"Q-Park Netherlands","maxPowerKw":11,"isMegawatt":false,"status":"AVAILABLE","source":"ndw"}},{"type":"Feature","geometry":{"type":"Point","coordinates":[5.08332,52.0299]},"properties":{"type":"charge","layer":"passenger","locationId":"5ba413d6-4f3c-11e8-87c3-42010a840002","name":"NLD, Nieuwegein, Nypelsplantsoen 140","address":"Nypelsplantsoen 140","city":"Nieuwegein","operatorName":"Allego","maxPowerKw":0,"isMegawatt":false,"status":"CHARGING","source":"ndw"}},{"type":"Feature","geometry":{"type":"Point","coordinates":[5.096495,52.026439]},"properties":{"type":"charge","layer":"passenger","locationId":"66d0c94a-ff60-11e9-9e73-42010a840003","name":"NLD, Wormerveste 3 3432AC Nieuwegein","address":"Wormerveste 3","city":"Nieuwegein","operatorName":"Allego","maxPowerKw":0,"isMegawatt":false,"status":"AVAILABLE","source":"ndw"}},{"type":"Feature","geometry":{"type":"Point","coordinates":[5.0833721,52.0531731]},"properties":{"type":"charge","layer":"passenger","locationId":"15043","name":"Jumbo 5111 Nieuwegein WC Galecop (PowerGo)","address":"Winkelcentrum Galecop 7","city":"Nieuwegein","operatorName":"PowerGo","maxPowerKw":0,"isMegawatt":false,"status":"AVAILABLE","source":"ndw"}},{"type":"Feature","geometry":{"type":"Point","coordinates":[5.098876,52.029407]},"properties":{"type":"charge","layer":"passenger","locationId":"4021c5efbcf749abac743b224cde7fdf","name":"Marconibaan 5 Nieuwegein","address":"Marconibaan 5","city":"Nieuwegein","operatorName":"Opcharge","maxPowerKw":22,"isMegawatt":false,"status":"AVAILABLE","source":"ndw"}},{"type":"Feature","geometry":{"type":"Point","coordinates":[5.118151,52.050606]},"properties":{"type":"charge","layer":"passenger","locationId":"546FAE78-2C7D-4C4A-9850-10923CF6E9CC","name":"Eneco eMobility Laagraven Investment B.V. - Nieuwegein","address":"Ravenswade 2","city":"Nieuwegein","operatorName":"Eneco","maxPowerKw":11,"isMegawatt":false,"status":"AVAILABLE","source":"ndw"}},{"type":"Feature","geometry":{"type":"Point","coordinates":[5.093377,52.037156]},"properties":{"type":"charge","layer":"passenger","locationId":"29472576-cc14-11ee-887b-42010aa40fc0","name":"NLD, Kerkstraat 11 3431CS Nieuwegein","address":"Kerkstraat 11","city":"Nieuwegein","operatorName":"Allego","maxPowerKw":0,"isMegawatt":false,"status":"AVAILABLE","source":"ndw"}},{"type":"Feature","geometry":{"type":"Point","coordinates":[5.0718556,52.0363045]},"properties":{"type":"charge","layer":"passenger","locationId":"15041","name":"Jumbo 3144 Nieuwegein Walnootgaarde (PowerGo)","address":"Walnootgaarde 4a","city":"Nieuwegein","operatorName":"PowerGo","maxPowerKw":0,"isMegawatt":false,"status":"AVAILABLE","source":"ndw"}},{"type":"Feature","geometry":{"type":"Point","coordinates":[5.092958,52.023293]},"properties":{"type":"charge","layer":"passenger","locationId":"fb682c71-539c-4871-87c9-1bcc6303d825","name":"Zwolseveste","address":"Zwolseveste 151","city":"Nieuwegein","operatorName":"Vattenfall InCharge","maxPowerKw":11,"isMegawatt":false,"status":"AVAILABLE","source":"ndw"}},{"type":"Feature","geometry":{"type":"Point","coordinates":[5.073468,52.04693]},"properties":{"type":"charge","layer":"passenger","locationId":"5cebc0a4-4f3c-11e8-8a50-42010a840002","name":"NLD, Nieuwegein, Tapirweide 19","address":"Tapirweide 19","city":"Nieuwegein","operatorName":"Allego","maxPowerKw":0,"isMegawatt":false,"status":"AVAILABLE","source":"ndw"}},{"type":"Feature","geometry":{"type":"Point","coordinates":[5.095647,52.018986]},"properties":{"type":"charge","layer":"passenger","locationId":"a880b630-9bee-11eb-9b42-42010a840003","name":"NL, Deventerschans 17, 3432CP, Nieuwegein","address":"Deventerschans 17","city":"Nieuwegein","operatorName":"Allego","maxPowerKw":0,"isMegawatt":false,"status":"AVAILABLE","source":"ndw"}},{"type":"Feature","geometry":{"type":"Point","coordinates":[5.069247,52.045421]},"properties":{"type":"charge","layer":"passenger","locationId":"a9486fd6-e0d4-11e8-9c57-42010a840002","name":"NLD, Nieuwegein, Pauwoogweide 49 3437VW Nieuwegein","address":"Pauwoogweide 49","city":"Nieuwegein","operatorName":"Allego","maxPowerKw":0,"isMegawatt":false,"status":"AVAILABLE","source":"ndw"}},{"type":"Feature","geometry":{"type":"Point","coordinates":[5.087337,52.031553]},"properties":{"type":"charge","layer":"passenger","locationId":"e7ba4c66-7890-11eb-9133-42010a840033","name":"NL, Kruyderlaan 32, 3431 BN Nieuwegein","address":"Kruyderlaan 32","city":"Nieuwegein","operatorName":"Allego","maxPowerKw":0,"isMegawatt":false,"status":"AVAILABLE","source":"ndw"}},{"type":"Feature","geometry":{"type":"Point","coordinates":[5.075873,52.027722]},"properties":{"type":"charge","layer":"passenger","locationId":"57c21aa8-cc1c-11e8-8327-42010a840002","name":"NLD, Goudvink 50, 3435 RK Nieuwegein","address":"Goudvink 50","city":"Nieuwegein","operatorName":"Allego","maxPowerKw":0,"isMegawatt":false,"status":"CHARGING","source":"ndw"}},{"type":"Feature","geometry":{"type":"Point","coordinates":[5.093214,52.029183]},"properties":{"type":"charge","layer":"passenger","locationId":"f0a72b5a-b4d7-11ea-b799-42010a840003","name":"NL, Meentwal 9, 3432 GL, Nieuwegein","address":"Meentwal 9","city":"Nieuwegein","operatorName":"Allego","maxPowerKw":0,"isMegawatt":false,"status":"CHARGING","source":"ndw"}},{"type":"Feature","geometry":{"type":"Point","coordinates":[5.073134,52.052303]},"properties":{"type":"charge","layer":"passenger","locationId":"e8ffd8cf-4603-42df-bf38-bb23085c0b21","name":"TNLP015261","address":"Jan van der Heydenhage 1","city":"Nieuwegein","operatorName":"TotalEnergies","maxPowerKw":17,"isMegawatt":false,"status":"AVAILABLE","source":"ndw"}},{"type":"Feature","geometry":{"type":"Point","coordinates":[5.098801,52.033391]},"properties":{"type":"charge","layer":"passenger","locationId":"6560baa7c2413f001cdb3ffd","name":"Conclusion Nieuwegein","address":"Edisonbaan 15","city":"Nieuwegein","operatorName":"E-Flux by Road","maxPowerKw":22,"isMegawatt":false,"status":"AVAILABLE","source":"ndw"}},{"type":"Feature","geometry":{"type":"Point","coordinates":[5.122276,52.049847]},"properties":{"type":"charge","layer":"passenger","locationId":"0f08983c-f72c-11e9-ae2c-42010a840fed","name":"Fastned Ravensewetering","address":"Ravensewetering","city":"Nieuwegein","operatorName":"Fastned","maxPowerKw":175,"isMegawatt":false,"status":"CHARGING","source":"ndw"}},{"type":"Feature","geometry":{"type":"Point","coordinates":[5.080011,52.040873]},"properties":{"type":"charge","layer":"passenger","locationId":"NLLOC001691","name":"NLD, Nieuwegein, Sonatelaan 83","address":"Sonatelaan 83","city":"Nieuwegein","operatorName":"Allego","maxPowerKw":0,"isMegawatt":false,"status":"AVAILABLE","source":"ndw"}},{"type":"Feature","geometry":{"type":"Point","coordinates":[5.087936,52.047669]},"properties":{"type":"charge","layer":"passenger","locationId":"630f6bf12de14b6742a347e5","name":"DWI - Lader 4 McDonald's zijde","address":"Symfonielaan 1","city":"Nieuwegein","operatorName":"E-Flux by Road","maxPowerKw":22,"isMegawatt":false,"status":"AVAILABLE","source":"ndw"}},{"type":"Feature","geometry":{"type":"Point","coordinates":[5.09696,52.01942]},"properties":{"type":"charge","layer":"passenger","locationId":"a3d20a5a-4f3c-11e8-9030-42010a840002","name":"Shell Recharge NL Diemerschans 40 Nieuwegein","address":"Diemerschans 40","city":"Nieuwegein","operatorName":"Ubitricity","maxPowerKw":11,"isMegawatt":false,"status":"AVAILABLE","source":"ndw"}},{"type":"Feature","geometry":{"type":"Point","coordinates":[5.11747,52.047872]},"properties":{"type":"charge","layer":"passenger","locationId":"NLLOC027940","name":"Allego - Hornbach Nieuwegein A12","address":"Veldwade 3","city":"Nieuwegein","operatorName":"Allego","maxPowerKw":0,"isMegawatt":false,"status":"AVAILABLE","source":"ndw"}},{"type":"Feature","geometry":{"type":"Point","coordinates":[5.118151,52.050606]},"properties":{"type":"charge","layer":"passenger","locationId":"8f77d668-e0cd-11f0-bd92-42010aa400b8","name":"Eneco eMobility Laagraven Investment B.V. - Nieuwegein","address":"Ravenswade 2","city":"Nieuwegein","operatorName":"Eneco","maxPowerKw":11,"isMegawatt":false,"status":"AVAILABLE","source":"ndw"}},{"type":"Feature","geometry":{"type":"Point","coordinates":[5.094534,52.051348]},"properties":{"type":"charge","layer":"passenger","locationId":"4b7c9bfe-d589-11ec-8a4b-42010a840003","name":"NL, Veldhoeve 90, 3438 LM Nieuwegein","address":"Veldhoeve 90","city":"Nieuwegein","operatorName":"Allego","maxPowerKw":0,"isMegawatt":false,"status":"AVAILABLE","source":"ndw"}},{"type":"Feature","geometry":{"type":"Point","coordinates":[5.070092,52.036473]},"properties":{"type":"charge","layer":"passenger","locationId":"76e947ce-5b7d-11eb-a974-42010a840003","name":"NL, Martinusgaarde 1, 3436 RC Nieuwegein","address":"Martinusgaarde 1","city":"Nieuwegein","operatorName":"Allego","maxPowerKw":0,"isMegawatt":false,"status":"AVAILABLE","source":"ndw"}},{"type":"Feature","geometry":{"type":"Point","coordinates":[5.091877,52.027038]},"properties":{"type":"charge","layer":"passenger","locationId":"8411d3bc-4f3c-11e8-82eb-42010a840002","name":"NLD, Nieuwegein, Brinkwal 3","address":"Brinkwal 3","city":"Nieuwegein","operatorName":"Allego","maxPowerKw":0,"isMegawatt":false,"status":"AVAILABLE","source":"ndw"}},{"type":"Feature","geometry":{"type":"Point","coordinates":[5.077825,52.024932]},"properties":{"type":"charge","layer":"passenger","locationId":"b53cf2dc-beb3-11ed-8680-42010aa40fc0","name":"NL, Braamsluiper 7, 3435 BA Nieuwegein","address":"Braamsluiper 7","city":"Nieuwegein","operatorName":"Allego","maxPowerKw":0,"isMegawatt":false,"status":"CHARGING","source":"ndw"}},{"type":"Feature","geometry":{"type":"Point","coordinates":[5.095386,52.048609]},"properties":{"type":"charge","layer":"passenger","locationId":"dba4068e-5fd2-11e9-8e16-42010a840003","name":"NLD, Gemeente Nieuwegein, Middelhoeve 35 3438MG Nieuwegein","address":"Middelhoeve 35","city":"Nieuwegein","operatorName":"Allego","maxPowerKw":0,"isMegawatt":false,"status":"AVAILABLE","source":"ndw"}},{"type":"Feature","geometry":{"type":"Point","coordinates":[5.074359,52.050871]},"properties":{"type":"charge","layer":"passenger","locationId":"e810b9e8-3c0e-11eb-8df9-42010a840003","name":"NL, Ferdinand Bolhage 62, 3437 NH, Nieuwegein","address":"Ferdinand Bolhage 62","city":"Nieuwegein","operatorName":"Allego","maxPowerKw":0,"isMegawatt":false,"status":"AVAILABLE","source":"ndw"}},{"type":"Feature","geometry":{"type":"Point","coordinates":[5.068402,52.01641]},"properties":{"type":"charge","layer":"passenger","locationId":"bfc57314-f125-11ee-98fc-42010aa400b8","name":"Circle K Nieuwegein inz Oudegein","address":"Rijksweg A2","city":"Nieuwegein","operatorName":"Spirii","maxPowerKw":0,"isMegawatt":false,"status":"AVAILABLE","source":"ndw"}},{"type":"Feature","geometry":{"type":"Point","coordinates":[5.12092,52.02159]},"properties":{"type":"charge","layer":"passenger","locationId":"10d8ffaa-9f6e-11ee-9b5c-42010aa40fc0","name":"FOURCE BV INUNDATIEDOK 3","address":"29 Inundatiedok","city":"Nieuwegein","operatorName":"ChargePoint","maxPowerKw":22,"isMegawatt":false,"status":"UNAVAILABLE","source":"ndw"}},{"type":"Feature","geometry":{"type":"Point","coordinates":[5.08035,52.00294]},"properties":{"type":"charge","layer":"passenger","locationId":"1463","name":"Shell Recharge NL Benedenmonde 51","address":"Benedenmonde 51","city":"Nieuwegein","operatorName":"Ubitricity","maxPowerKw":11,"isMegawatt":false,"status":"AVAILABLE","source":"ndw"}},{"type":"Feature","geometry":{"type":"Point","coordinates":[5.100091,52.040386]},"properties":{"type":"charge","layer":"passenger","locationId":"NLLOC000686","name":"Newtonbaan 1 3439NK Nieuwegein","address":"Newtonbaan 1","city":"Nieuwegein","operatorName":"Allego","maxPowerKw":0,"isMegawatt":false,"status":"AVAILABLE","source":"ndw"}},{"type":"Feature","geometry":{"type":"Point","coordinates":[5.122464,52.01121]},"properties":{"type":"charge","layer":"passenger","locationId":"NLLOC003275","name":"Allego - Hotel-Restaurant Hajé Nieuwegein A27","address":"Waterliniedok 1","city":"Nieuwegein","operatorName":"Allego","maxPowerKw":0,"isMegawatt":false,"status":"AVAILABLE","source":"ndw"}},{"type":"Feature","geometry":{"type":"Point","coordinates":[5.078529,52.025098]},"properties":{"type":"charge","layer":"passenger","locationId":"7bf40a95-714c-45b4-86fc-5e4c29f133f0","name":"TNLP034310","address":"Koekoekslaan 14","city":"Nieuwegein","operatorName":"TotalEnergies","maxPowerKw":14,"isMegawatt":false,"status":"AVAILABLE","source":"ndw"}},{"type":"Feature","geometry":{"type":"Point","coordinates":[5.102947,52.034786]},"properties":{"type":"charge","layer":"passenger","locationId":"a6e5e98cced245f7b1947fd96cc6d3c9","name":"Nieuwegein Wattbaan Catella MLOEA","address":" Wattbaan 31","city":"Nieuwegein","operatorName":"Opcharge","maxPowerKw":22,"isMegawatt":false,"status":"AVAILABLE","source":"ndw"}},{"type":"Feature","geometry":{"type":"Point","coordinates":[5.081418,52.02291]},"properties":{"type":"charge","layer":"passenger","locationId":"NLLOC001177","name":"NLD, Nieuwegein, Sneeuwgans 23","address":"Sneeuwgans 23","city":"Nieuwegein","operatorName":"Allego","maxPowerKw":0,"isMegawatt":false,"status":"AVAILABLE","source":"ndw"}},{"type":"Feature","geometry":{"type":"Point","coordinates":[5.07831,52.0358]},"properties":{"type":"charge","layer":"passenger","locationId":"7bb40d3a-5e7a-11ef-85dd-42010aa400b8","name":"Shell Recharge NL Richterslaan 60 Nieuwegein","address":"Richterslaan 60","city":"Nieuwegein","operatorName":"Ubitricity","maxPowerKw":11,"isMegawatt":false,"status":"CHARGING","source":"ndw"}},{"type":"Feature","geometry":{"type":"Point","coordinates":[5.0959927,52.0208387]},"properties":{"type":"charge","layer":"passenger","locationId":"1024","name":"Shell Recharge NL Nijkerkerschans 38","address":"Nijkerkerschans 38","city":"Nieuwegein","operatorName":"Ubitricity","maxPowerKw":22,"isMegawatt":false,"status":"AVAILABLE","source":"ndw"}},{"type":"Feature","geometry":{"type":"Point","coordinates":[5.071856,52.036304]},"properties":{"type":"charge","layer":"passenger","locationId":"b9fd5fd4-0baf-11ee-9f3b-42010aa40fc0","name":"Jumbo 3144 Nieuwegein Walnootgaarde (PowerGo)","address":"Walnootgaarde 4a","city":"Nieuwegein","operatorName":"PowerGo","maxPowerKw":0,"isMegawatt":false,"status":"AVAILABLE","source":"ndw"}},{"type":"Feature","geometry":{"type":"Point","coordinates":[5.081567,52.024834]},"properties":{"type":"charge","layer":"passenger","locationId":"f0d75166-005b-11f0-b2ea-42010aa400b8","name":"Q-Park Nieuwegein St Antonius Ziekenhuis","address":"Koekoekslaan 1","city":"Nieuwegein","operatorName":"Q-Park Netherlands","maxPowerKw":11,"isMegawatt":false,"status":"AVAILABLE","source":"ndw"}},{"type":"Feature","geometry":{"type":"Point","coordinates":[5.101043,52.019874]},"properties":{"type":"charge","layer":"passenger","locationId":"8d7dfbd0-f95f-11f0-b4af-42010aa400b8","name":"Eneco eMobility Wittenberg Nieuwegein","address":"Betuwehaven 1","city":"Nieuwegein","operatorName":"Eneco","maxPowerKw":22,"isMegawatt":false,"status":"AVAILABLE","source":"ndw"}},{"type":"Feature","geometry":{"type":"Point","coordinates":[5.097054,52.042336]},"properties":{"type":"charge","layer":"passenger","locationId":"NLLOC000796","name":"NLD, Nieuwegein, Symfonielaan 26","address":"Symfonielaan 26","city":"Nieuwegein","operatorName":"Allego","maxPowerKw":0,"isMegawatt":false,"status":"AVAILABLE","source":"ndw"}},{"type":"Feature","geometry":{"type":"Point","coordinates":[5.121019,52.013823]},"properties":{"type":"charge","layer":"passenger","locationId":"9fb25038-5e3e-11f0-8152-42010aa400b8","name":"bp pulse De Kroon #02","address":"Rijksweg A27","city":"Nieuwegein","operatorName":"bp pulse","maxPowerKw":150,"isMegawatt":false,"status":"UNAVAILABLE","source":"ndw"}},{"type":"Feature","geometry":{"type":"Point","coordinates":[5.077977,52.041589]},"properties":{"type":"charge","layer":"passenger","locationId":"NLLOC016378","name":"NL, Florijnburg 49, 3437ST, Nieuwegein","address":"Florijnburg 49","city":"Nieuwegein","operatorName":"Allego","maxPowerKw":0,"isMegawatt":false,"status":"AVAILABLE","source":"ndw"}},{"type":"Feature","geometry":{"type":"Point","coordinates":[5.086987,52.047581]},"properties":{"type":"charge","layer":"passenger","locationId":"0257ac37-42c5-4aac-ab77-5c1636b93814","name":"Symfonielaan 3","address":"Symfonielaan 3","city":"Nieuwegein","operatorName":"Vattenfall InCharge","maxPowerKw":50,"isMegawatt":false,"status":"AVAILABLE","source":"ndw"}},{"type":"Feature","geometry":{"type":"Point","coordinates":[5.090926,52.013539]},"properties":{"type":"charge","layer":"passenger","locationId":"NLLOC004228","name":"NLD, Graaf Dudosingel 12 3434RB Nieuwegein","address":"Graaf Dudosingel 12","city":"Nieuwegein","operatorName":"Allego","maxPowerKw":0,"isMegawatt":false,"status":"AVAILABLE","source":"ndw"}},{"type":"Feature","geometry":{"type":"Point","coordinates":[5.10407,52.03077]},"properties":{"type":"charge","layer":"passenger","locationId":"6B74A451-6073-4F64-A978-201B3FD0E447","name":"Eneco eMobility Nefkens Nieuwegein Parkerbaan","address":"Parkerbaan 12","city":"Nieuwegein","operatorName":"Eneco","maxPowerKw":11,"isMegawatt":false,"status":"AVAILABLE","source":"ndw"}},{"type":"Feature","geometry":{"type":"Point","coordinates":[5.0672,52.030492]},"properties":{"type":"charge","layer":"passenger","locationId":"NLLOC006803","name":"NL, Donkeregaarde 96, 3436 ZH, Nieuwegein","address":"Donkeregaarde 96","city":"Nieuwegein","operatorName":"Allego","maxPowerKw":0,"isMegawatt":false,"status":"AVAILABLE","source":"ndw"}},{"type":"Feature","geometry":{"type":"Point","coordinates":[5.090179,52.026109]},"properties":{"type":"charge","layer":"passenger","locationId":"NLLOC002726","name":"NLD, Schermwal 1, 3432 GW Nieuwegein","address":"Schermwal 1","city":"Nieuwegein","operatorName":"Allego","maxPowerKw":0,"isMegawatt":false,"status":"AVAILABLE","source":"ndw"}},{"type":"Feature","geometry":{"type":"Point","coordinates":[5.117162,52.05352]},"properties":{"type":"charge","layer":"passenger","locationId":"dfa42c09c299444fa11b","name":"Jumbo distributie centrum Nieuwegein ","address":"Ravenswade 14","city":"Nieuwegein","operatorName":"Mijninstallatiepartner","maxPowerKw":22,"isMegawatt":false,"status":"AVAILABLE","source":"ndw"}},{"type":"Feature","geometry":{"type":"Point","coordinates":[5.095993,52.020839]},"properties":{"type":"charge","layer":"passenger","locationId":"cb90c7ba-0c28-11f0-92a1-42010aa400b8","name":"Shell Recharge NL Nijkerkerschans 38, Nieuwegein, [AN null]","address":"Nijkerkerschans 38","city":"Nieuwegein","operatorName":"Ubitricity","maxPowerKw":22,"isMegawatt":false,"status":"AVAILABLE","source":"ndw"}},{"type":"Feature","geometry":{"type":"Point","coordinates":[5.080318,52.021052]},"properties":{"type":"charge","layer":"passenger","locationId":"NLLOC006822","name":"NL, Kuifduiker 14, 3435 DW, Nieuwegein","address":"Kuifduiker 14","city":"Nieuwegein","operatorName":"Allego","maxPowerKw":0,"isMegawatt":false,"status":"AVAILABLE","source":"ndw"}},{"type":"Feature","geometry":{"type":"Point","coordinates":[5.067658,52.026272]},"properties":{"type":"charge","layer":"passenger","locationId":"89836188","name":"EQUANS Fletcher Fletcher Hoofdkantoor","address":"Buizerdlaan 2","city":"Nieuwegein","operatorName":"EQUANS","maxPowerKw":0,"isMegawatt":false,"status":"AVAILABLE","source":"ndw"}},{"type":"Feature","geometry":{"type":"Point","coordinates":[5.075153,52.052299]},"properties":{"type":"charge","layer":"passenger","locationId":"59469f64-4f3c-11e8-bfa5-42010a840002","name":"NLD, Nieuwegein, Ferdinand Bolhage 8","address":"Ferdinand Bolhage 8","city":"Nieuwegein","operatorName":"Allego","maxPowerKw":0,"isMegawatt":false,"status":"AVAILABLE","source":"ndw"}},{"type":"Feature","geometry":{"type":"Point","coordinates":[5.100073,52.012204]},"properties":{"type":"charge","layer":"passenger","locationId":"7040213a-a0d7-11ed-98c9-42010aa40fc0","name":"NL, Houtwerf 2, 3433 DJ Nieuwegein","address":"Houtwerf 2","city":"Nieuwegein","operatorName":"Allego","maxPowerKw":0,"isMegawatt":false,"status":"AVAILABLE","source":"ndw"}},{"type":"Feature","geometry":{"type":"Point","coordinates":[5.073207,52.056594]},"properties":{"type":"charge","layer":"passenger","locationId":"7917f7ca-4f3c-11e8-8125-42010a840002","name":"NLD, Nieuwegein, Guido Gezellehove 36","address":"Guido Gezellehove 36","city":"Nieuwegein","operatorName":"Allego","maxPowerKw":0,"isMegawatt":false,"status":"AVAILABLE","source":"ndw"}},{"type":"Feature","geometry":{"type":"Point","coordinates":[5.083509,52.008023]},"properties":{"type":"charge","layer":"passenger","locationId":"7a4f82f2-5b7d-11eb-809c-42010a840003","name":"NL, Weegbree 13, 3434 ER Nieuwegein","address":"Weegbree 13","city":"Nieuwegein","operatorName":"Allego","maxPowerKw":0,"isMegawatt":false,"status":"AVAILABLE","source":"ndw"}},{"type":"Feature","geometry":{"type":"Point","coordinates":[5.084239,52.036207]},"properties":{"type":"charge","layer":"passenger","locationId":"9fb92a28-c33a-11eb-9027-42010a840003","name":"NL, van Herwijnenplantsoen, 223, 3431VG, Nieuwegein","address":"van Herwijnenplantsoen 223","city":"Nieuwegein","operatorName":"Allego","maxPowerKw":0,"isMegawatt":false,"status":"AVAILABLE","source":"ndw"}},{"type":"Feature","geometry":{"type":"Point","coordinates":[5.089639,52.008658]},"properties":{"type":"charge","layer":"passenger","locationId":"c1593904-82b0-11f0-84ae-42010aa400b8","name":"NLD, Eikstraat 14 3434TE Nieuwegein","address":"Eikstraat 14","city":"Nieuwegein","operatorName":"Allego","maxPowerKw":0,"isMegawatt":false,"status":"AVAILABLE","source":"ndw"}},{"type":"Feature","geometry":{"type":"Point","coordinates":[5.098506,52.006697]},"properties":{"type":"charge","layer":"passenger","locationId":"e1984ec0-5f3f-11ea-a75c-42010a840003","name":"NL, Wierselaan 67, 3433 ZR, Nieuwegein","address":"Wierselaan 67","city":"Nieuwegein","operatorName":"Allego","maxPowerKw":0,"isMegawatt":false,"status":"AVAILABLE","source":"ndw"}},{"type":"Feature","geometry":{"type":"Point","coordinates":[5.071012,52.033639]},"properties":{"type":"charge","layer":"passenger","locationId":"ee0ab660-ff38-11e8-85fa-42010a840002","name":"NLD, Gemeente Nieuwegein, Perzikgaarde 17 3436GJ Nieuwegein","address":"Perzikgaarde 17","city":"Nieuwegein","operatorName":"Allego","maxPowerKw":0,"isMegawatt":false,"status":"AVAILABLE","source":"ndw"}},{"type":"Feature","geometry":{"type":"Point","coordinates":[5.100091,52.040386]},"properties":{"type":"charge","layer":"passenger","locationId":"5aa2f628-4f3c-11e8-a1dc-42010a840002","name":"Newtonbaan 1 3439NK Nieuwegein","address":"Newtonbaan 1","city":"Nieuwegein","operatorName":"Allego","maxPowerKw":0,"isMegawatt":false,"status":"CHARGING","source":"ndw"}},{"type":"Feature","geometry":{"type":"Point","coordinates":[5.075305,52.034796]},"properties":{"type":"charge","layer":"passenger","locationId":"845d8e46-520f-11eb-8be5-42010a840003","name":"NL, Agaatdrift 24, 3436 BT, Nieuwegein","address":"Agaatdrift 24","city":"Nieuwegein","operatorName":"Allego","maxPowerKw":0,"isMegawatt":false,"status":"AVAILABLE","source":"ndw"}},{"type":"Feature","geometry":{"type":"Point","coordinates":[5.072286,52.042583]},"properties":{"type":"charge","layer":"passenger","locationId":"c445ef9e-060a-11ec-9534-42010a840003","name":"NL, Elandweide 41, 3437CM Nieuwegein","address":"Elandweide 41","city":"Nieuwegein","operatorName":"Allego","maxPowerKw":0,"isMegawatt":false,"status":"AVAILABLE","source":"ndw"}},{"type":"Feature","geometry":{"type":"Point","coordinates":[5.099142,52.009728]},"properties":{"type":"charge","layer":"passenger","locationId":"af21e9f2-ed7d-11ef-b7dd-42010aa400b8","name":"TNLP030485","address":"Duurstedelaan 12","city":"Nieuwegein","operatorName":"TotalEnergies","maxPowerKw":17,"isMegawatt":false,"status":"AVAILABLE","source":"ndw"}},{"type":"Feature","geometry":{"type":"Point","coordinates":[5.076819,52.024142]},"properties":{"type":"charge","layer":"passenger","locationId":"0ca3a288-f36f-11e8-ae72-42010a840002","name":"NLD, Barmsijs 24, 3435 BP Nieuwegein","address":"Barmsijs 24","city":"Nieuwegein","operatorName":"Allego","maxPowerKw":0,"isMegawatt":false,"status":"AVAILABLE","source":"ndw"}},{"type":"Feature","geometry":{"type":"Point","coordinates":[5.070801,52.020674]},"properties":{"type":"charge","layer":"passenger","locationId":"78e2958a-4f3c-11e8-b4df-42010a840002","name":"NLD, Nieuwegein, Sperwerlaan 37","address":"Sperwerlaan 37","city":"Nieuwegein","operatorName":"Allego","maxPowerKw":0,"isMegawatt":false,"status":"AVAILABLE","source":"ndw"}},{"type":"Feature","geometry":{"type":"Point","coordinates":[5.097244,52.013779]},"properties":{"type":"charge","layer":"passenger","locationId":"78f06bba-4f3c-11e8-9d57-42010a840002","name":"NLD, Nieuwegein, Gravin Adalaan 21","address":"Gravin Adalaan 21","city":"Nieuwegein","operatorName":"Allego","maxPowerKw":0,"isMegawatt":false,"status":"AVAILABLE","source":"ndw"}},{"type":"Feature","geometry":{"type":"Point","coordinates":[5.088477,52.048147]},"properties":{"type":"charge","layer":"passenger","locationId":"e7cd9b7e-51e3-11ea-b1e4-42010a840003","name":"NLD Iepenhoeve 1 3438 MR Nieuwegein","address":"Iepenhoeve 1","city":"NIeuwegein","operatorName":"Allego","maxPowerKw":0,"isMegawatt":false,"status":"CHARGING","source":"ndw"}},{"type":"Feature","geometry":{"type":"Point","coordinates":[5.074359,52.050871]},"properties":{"type":"charge","layer":"passenger","locationId":"NLLOC012184","name":"NL, Ferdinand Bolhage 62, 3437 NH, Nieuwegein","address":"Ferdinand Bolhage 62","city":"Nieuwegein","operatorName":"Allego","maxPowerKw":0,"isMegawatt":false,"status":"AVAILABLE","source":"ndw"}},{"type":"Feature","geometry":{"type":"Point","coordinates":[5.097069,52.010017]},"properties":{"type":"charge","layer":"passenger","locationId":"a4dcc76e-4f3c-11e8-b742-42010a840002","name":"Shell Recharge NL Prins Hendriklaan 10 Nieuwegein","address":"Prins Hendriklaan 10","city":"Nieuwegein","operatorName":"Ubitricity","maxPowerKw":11,"isMegawatt":false,"status":"AVAILABLE","source":"ndw"}},{"type":"Feature","geometry":{"type":"Point","coordinates":[5.091371,52.043827]},"properties":{"type":"charge","layer":"passenger","locationId":"7d70069ed0565a1a64f96ad0c2a3f3c6","name":"Orpheuslaan 104","address":"Orpheuslaan 104","city":"Nieuwegein","operatorName":"Vattenfall InCharge","maxPowerKw":11,"isMegawatt":false,"status":"AVAILABLE","source":"ndw"}},{"type":"Feature","geometry":{"type":"Point","coordinates":[5.099142,52.009728]},"properties":{"type":"charge","layer":"passenger","locationId":"275f5346-79be-4991-abc9-2c6d701d0f90","name":"TNLP030485","address":"Duurstedelaan 12","city":"Nieuwegein","operatorName":"TotalEnergies","maxPowerKw":17,"isMegawatt":false,"status":"AVAILABLE","source":"ndw"}},{"type":"Feature","geometry":{"type":"Point","coordinates":[5.122223,52.049874]},"properties":{"type":"charge","layer":"passenger","locationId":"50102","name":"Fastned Ravensewetering","address":"Ravensewetering 1","city":"Nieuwegein","operatorName":"Fastned","maxPowerKw":175,"isMegawatt":false,"status":"UNAVAILABLE","source":"ndw"}},{"type":"Feature","geometry":{"type":"Point","coordinates":[5.070309,52.032148]},"properties":{"type":"charge","layer":"passenger","locationId":"5902d4aa-4f3c-11e8-9695-42010a840002","name":"NLD, Nieuwegein, Aardbeigaarde 2","address":"Aardbeigaarde 2","city":"Nieuwegein","operatorName":"Allego","maxPowerKw":0,"isMegawatt":false,"status":"AVAILABLE","source":"ndw"}},{"type":"Feature","geometry":{"type":"Point","coordinates":[5.080228,52.018691]},"properties":{"type":"charge","layer":"passenger","locationId":"78c78cd6-4f3c-11e8-a2e8-42010a840002","name":"NLD, Nieuwegein, Parkhout 2","address":"Parkhout 2","city":"Nieuwegein","operatorName":"Allego","maxPowerKw":0,"isMegawatt":false,"status":"AVAILABLE","source":"ndw"}},{"type":"Feature","geometry":{"type":"Point","coordinates":[5.081618,52.009262]},"properties":{"type":"charge","layer":"passenger","locationId":"8bb6f790-d19c-11e8-b420-42010a840002","name":"NL, Lavendelhof 1, 3434XR, Nieuwegein","address":"Lavendelhof 1","city":"Nieuwegein","operatorName":"Allego","maxPowerKw":0,"isMegawatt":false,"status":"AVAILABLE","source":"ndw"}},{"type":"Feature","geometry":{"type":"Point","coordinates":[5.078375,52.052068]},"properties":{"type":"charge","layer":"passenger","locationId":"NLLOC013554","name":"NL, Jeroen Boschhage, 1, 3437KN, Nieuwegein","address":"Jeroen Boschhage 1","city":"Nieuwegein","operatorName":"Allego","maxPowerKw":0,"isMegawatt":false,"status":"AVAILABLE","source":"ndw"}},{"type":"Feature","geometry":{"type":"Point","coordinates":[5.100384,52.032838]},"properties":{"type":"charge","layer":"passenger","locationId":"95dbb330-97ad-11eb-bdd1-42010a84003a","name":"Eneco eMobility Nurse & Care BV","address":"Perkinsbaan 14","city":"Nieuwegein","operatorName":"Eneco","maxPowerKw":32,"isMegawatt":false,"status":"UNAVAILABLE","source":"ndw"}},{"type":"Feature","geometry":{"type":"Point","coordinates":[5.09093,52.0441]},"properties":{"type":"charge","layer":"passenger","locationId":"1593","name":"Shell Recharge NL Orpheuslaan 74","address":"Orpheuslaan 74","city":"Nieuwegein","operatorName":"Ubitricity","maxPowerKw":11,"isMegawatt":false,"status":"AVAILABLE","source":"ndw"}},{"type":"Feature","geometry":{"type":"Point","coordinates":[5.09306,52.03534]},"properties":{"type":"charge","layer":"passenger","locationId":"1514","name":"Shell Recharge NL Herenstraat 53","address":"Herenstraat 53","city":"Nieuwegein","operatorName":"Ubitricity","maxPowerKw":11,"isMegawatt":false,"status":"AVAILABLE","source":"ndw"}},{"type":"Feature","geometry":{"type":"Point","coordinates":[5.080228,52.018691]},"properties":{"type":"charge","layer":"passenger","locationId":"NLLOC001032","name":"NLD, Nieuwegein, Parkhout 2","address":"Parkhout 2","city":"Nieuwegein","operatorName":"Allego","maxPowerKw":0,"isMegawatt":false,"status":"AVAILABLE","source":"ndw"}},{"type":"Feature","geometry":{"type":"Point","coordinates":[5.08035,52.00294]},"properties":{"type":"charge","layer":"passenger","locationId":"a409514a-4f3c-11e8-835c-42010a840002","name":"Shell Recharge NL Benedenmonde 51 Nieuwegein","address":"Benedenmonde 51","city":"Nieuwegein","operatorName":"Ubitricity","maxPowerKw":11,"isMegawatt":false,"status":"AVAILABLE","source":"ndw"}},{"type":"Feature","geometry":{"type":"Point","coordinates":[5.08527,52.04831]},"properties":{"type":"charge","layer":"passenger","locationId":"d6a4e8dc-ef15-11ef-b029-42010aa400b8","name":"Shell Recharge NL Frans Halshage 35, Nieuwegein, [AN null]","address":"Frans Halshage 35","city":"Nieuwegein","operatorName":"Ubitricity","maxPowerKw":11,"isMegawatt":false,"status":"AVAILABLE","source":"ndw"}},{"type":"Feature","geometry":{"type":"Point","coordinates":[5.078213,52.01468]},"properties":{"type":"charge","layer":"passenger","locationId":"690c756a944f0762f51d42de","name":"SK station","address":"Geinoord 3","city":"Nieuwegein","operatorName":"E-Flux by Road","maxPowerKw":22,"isMegawatt":false,"status":"AVAILABLE","source":"ndw"}},{"type":"Feature","geometry":{"type":"Point","coordinates":[5.09492,52.022185]},"properties":{"type":"charge","layer":"passenger","locationId":"NLLOC003510","name":"NLD, Horsterveste 1, 3432 RW, Nieuwegein","address":"Horsterveste 1","city":"Nieuwegein","operatorName":"Allego","maxPowerKw":0,"isMegawatt":false,"status":"AVAILABLE","source":"ndw"}},{"type":"Feature","geometry":{"type":"Point","coordinates":[5.07627,52.05047]},"properties":{"type":"charge","layer":"passenger","locationId":"a3cb53c2-4f3c-11e8-a247-42010a840002","name":"Shell Recharge NL Simon de Vliegerhage 108 Nieuwegein","address":"Simon de Vliegerhage 108","city":"Nieuwegein","operatorName":"Ubitricity","maxPowerKw":11,"isMegawatt":false,"status":"AVAILABLE","source":"ndw"}},{"type":"Feature","geometry":{"type":"Point","coordinates":[5.068315,52.016536]},"properties":{"type":"charge","layer":"passenger","locationId":"ac0c0f66-5e45-11f0-be91-42010aa400b8","name":"bp pulse De IJssel #01","address":"Rijksweg A2","city":"Nieuwegein","operatorName":"bp pulse","maxPowerKw":150,"isMegawatt":false,"status":"UNAVAILABLE","source":"ndw"}},{"type":"Feature","geometry":{"type":"Point","coordinates":[5.108183,52.030007]},"properties":{"type":"charge","layer":"passenger","locationId":"d1b49d18-fc33-11ec-980f-42010aa40fce","name":"Eneco eMobility BMN Bouwmaterialen - Nieuwegein","address":"Celsiusbaan 10","city":"Nieuwegein","operatorName":"Eneco","maxPowerKw":150,"isMegawatt":false,"status":"AVAILABLE","source":"ndw"}},{"type":"Feature","geometry":{"type":"Point","coordinates":[5.090424,52.027539]},"properties":{"type":"charge","layer":"passenger","locationId":"52451e23-6cc1-4c2a-859e-7d48176e3335","name":"TNLP034276","address":"Meerwal 17","city":"Nieuwegein","operatorName":"TotalEnergies","maxPowerKw":14,"isMegawatt":false,"status":"CHARGING","source":"ndw"}},{"type":"Feature","geometry":{"type":"Point","coordinates":[5.08808,52.028]},"properties":{"type":"charge","layer":"passenger","locationId":"9ca9b4f4-3bdd-11eb-bb00-42010a840003","name":"Shell Recharge NL Krijtwal 9 Nieuwegein","address":"Krijtwal 9","city":"Nieuwegein","operatorName":"Ubitricity","maxPowerKw":11,"isMegawatt":false,"status":"CHARGING","source":"ndw"}},{"type":"Feature","geometry":{"type":"Point","coordinates":[5.09093,52.0441]},"properties":{"type":"charge","layer":"passenger","locationId":"a3a70652-4f3c-11e8-89b3-42010a840002","name":"Shell Recharge NL Orpheuslaan 74 Nieuwegein","address":"Orpheuslaan 74","city":"Nieuwegein","operatorName":"Ubitricity","maxPowerKw":11,"isMegawatt":false,"status":"AVAILABLE","source":"ndw"}},{"type":"Feature","geometry":{"type":"Point","coordinates":[5.09306,52.03534]},"properties":{"type":"charge","layer":"passenger","locationId":"a4703f22-4f3c-11e8-9ff4-42010a840002","name":"Shell Recharge NL Herenstraat 53 Nieuwegein","address":"Herenstraat 53","city":"Nieuwegein","operatorName":"Ubitricity","maxPowerKw":11,"isMegawatt":false,"status":"AVAILABLE","source":"ndw"}},{"type":"Feature","geometry":{"type":"Point","coordinates":[5.095269,52.040499]},"properties":{"type":"charge","layer":"passenger","locationId":"1d18015c-418f-11eb-814d-42010a840003","name":"NL, Meester J.M.M. Hamersstraat 87, 3438 BV Nieuwegein","address":"Meester J.M.M. Hamersstraat 87","city":"Nieuwegein","operatorName":"Allego","maxPowerKw":0,"isMegawatt":false,"status":"AVAILABLE","source":"ndw"}},{"type":"Feature","geometry":{"type":"Point","coordinates":[5.094897,52.038934]},"properties":{"type":"charge","layer":"passenger","locationId":"23c1efb6-782f-11e9-b98a-42010a840003","name":"NLD, Gemeente Nieuwegein, Mgr. G.W. van Heukelumstraat 1 10 3438BS Nieuwegein","address":"Mgr. G.W. van Heukelumstraat 1 10","city":"Nieuwegein","operatorName":"Allego","maxPowerKw":0,"isMegawatt":false,"status":"AVAILABLE","source":"ndw"}},{"type":"Feature","geometry":{"type":"Point","coordinates":[5.111267,52.050752]},"properties":{"type":"charge","layer":"passenger","locationId":"923603","name":"Holimex","address":"de liesbosch 8b","city":"nieuwegein","operatorName":"Smappee","maxPowerKw":22,"isMegawatt":false,"status":"AVAILABLE","source":"ndw"}},{"type":"Feature","geometry":{"type":"Point","coordinates":[5.102,52.04018]},"properties":{"type":"charge","layer":"passenger","locationId":"1582","name":"Shell Recharge NL Newtonbaan 7","address":"Newtonbaan 7","city":"Nieuwegein","operatorName":"Ubitricity","maxPowerKw":11,"isMegawatt":false,"status":"CHARGING","source":"ndw"}},{"type":"Feature","geometry":{"type":"Point","coordinates":[5.080011,52.040873]},"properties":{"type":"charge","layer":"passenger","locationId":"894d9ce4-4f3c-11e8-a98b-42010a840002","name":"NLD, Nieuwegein, Sonatelaan 83","address":"Sonatelaan 83","city":"Nieuwegein","operatorName":"Allego","maxPowerKw":0,"isMegawatt":false,"status":"AVAILABLE","source":"ndw"}},{"type":"Feature","geometry":{"type":"Point","coordinates":[5.090507,52.003628]},"properties":{"type":"charge","layer":"passenger","locationId":"b7150258-841d-11ea-94aa-42010a840003","name":"NL, Ankermonde 2, 3434 GC, Nieuwegein","address":"Ankermonde 2","city":"Nieuwegein","operatorName":"Allego","maxPowerKw":0,"isMegawatt":false,"status":"AVAILABLE","source":"ndw"}},{"type":"Feature","geometry":{"type":"Point","coordinates":[5.09492,52.022185]},"properties":{"type":"charge","layer":"passenger","locationId":"ce10a17a-3c83-11e9-b188-42010a840003","name":"NLD, Horsterveste 1, 3432 RW, Nieuwegein","address":"Horsterveste 1","city":"Nieuwegein","operatorName":"Allego","maxPowerKw":0,"isMegawatt":false,"status":"AVAILABLE","source":"ndw"}},{"type":"Feature","geometry":{"type":"Point","coordinates":[5.075305,52.034796]},"properties":{"type":"charge","layer":"passenger","locationId":"NLLOC006778","name":"NL, Agaatdrift 24, 3436 BT, Nieuwegein","address":"Agaatdrift 24","city":"Nieuwegein","operatorName":"Allego","maxPowerKw":0,"isMegawatt":false,"status":"AVAILABLE","source":"ndw"}},{"type":"Feature","geometry":{"type":"Point","coordinates":[5.072882,52.018115]},"properties":{"type":"charge","layer":"passenger","locationId":"9d6d0bb4-47ac-11ea-9c58-42010a840003","name":"NL, Stormvogel 39, 3435 XK, Nieuwegein","address":"Stormvogel 39","city":"Nieuwegein","operatorName":"Allego","maxPowerKw":0,"isMegawatt":false,"status":"AVAILABLE","source":"ndw"}},{"type":"Feature","geometry":{"type":"Point","coordinates":[5.11747,52.047872]},"properties":{"type":"charge","layer":"passenger","locationId":"a74e00de-b95c-11f0-9689-42010aa400b8","name":"Allego - Hornbach Nieuwegein A12","address":"Veldwade 3","city":"Nieuwegein","operatorName":"Allego","maxPowerKw":0,"isMegawatt":false,"status":"AVAILABLE","source":"ndw"}},{"type":"Feature","geometry":{"type":"Point","coordinates":[5.097469,52.043538]},"properties":{"type":"charge","layer":"passenger","locationId":"bb634718-f1dc-11e8-9a33-42010a840002","name":"NLD, Harmonielaan 68, 3438 EC Nieuwegein","address":"Harmonielaan 68","city":"Nieuwegein","operatorName":"Allego","maxPowerKw":0,"isMegawatt":false,"status":"AVAILABLE","source":"ndw"}},{"type":"Feature","geometry":{"type":"Point","coordinates":[5.085179,52.045252]},"properties":{"type":"charge","layer":"passenger","locationId":"e319c2c2-f2a5-11e8-9412-42010a840002","name":"NLD, Tubalaan 13, 3438 RT Nieuwegein","address":"Tubalaan 13","city":"Nieuwegein","operatorName":"Allego","maxPowerKw":0,"isMegawatt":false,"status":"AVAILABLE","source":"ndw"}},{"type":"Feature","geometry":{"type":"Point","coordinates":[5.077286,52.029802]},"properties":{"type":"charge","layer":"passenger","locationId":"NLLOC004992","name":"NLD, Ruiterstede 86 3431XN Nieuwegein","address":"Ruiterstede 86","city":"Nieuwegein","operatorName":"Allego","maxPowerKw":0,"isMegawatt":false,"status":"AVAILABLE","source":"ndw"}},{"type":"Feature","geometry":{"type":"Point","coordinates":[5.08808,52.028]},"properties":{"type":"charge","layer":"passenger","locationId":"1549","name":"Shell Recharge NL Krijtwal 9","address":"Krijtwal 9","city":"Nieuwegein","operatorName":"Ubitricity","maxPowerKw":11,"isMegawatt":false,"status":"AVAILABLE","source":"ndw"}},{"type":"Feature","geometry":{"type":"Point","coordinates":[5.083773,52.053653]},"properties":{"type":"charge","layer":"passenger","locationId":"NLLOC003251","name":"NLD, Thorbeckepark 200, 3437 JT Nieuwegein","address":"Thorbeckepark 200","city":"Nieuwegein","operatorName":"Allego","maxPowerKw":0,"isMegawatt":false,"status":"AVAILABLE","source":"ndw"}},{"type":"Feature","geometry":{"type":"Point","coordinates":[5.122464,52.01121]},"properties":{"type":"charge","layer":"passenger","locationId":"50e6ad44-2427-11e9-9c71-42010a840003","name":"Allego - Hotel-Restaurant Hajé Nieuwegein A27","address":"Waterliniedok 1","city":"Nieuwegein","operatorName":"Allego","maxPowerKw":0,"isMegawatt":false,"status":"AVAILABLE","source":"ndw"}},{"type":"Feature","geometry":{"type":"Point","coordinates":[5.08455,52.037302]},"properties":{"type":"charge","layer":"passenger","locationId":"5ec49660-162a-11ea-8d96-42010a840003","name":"NLD Mondriaanlaan 11, 3431 GA Nieuwegein","address":"Mondriaanlaan 11","city":"Nieuwegein","operatorName":"Allego","maxPowerKw":0,"isMegawatt":false,"status":"AVAILABLE","source":"ndw"}},{"type":"Feature","geometry":{"type":"Point","coordinates":[5.088542,52.027722]},"properties":{"type":"charge","layer":"passenger","locationId":"787dbc32-4f3c-11e8-b3d1-42010a840002","name":"NLD, Nieuwegein, Krijtwal 17","address":"Krijtwal 17","city":"Nieuwegein","operatorName":"Allego","maxPowerKw":0,"isMegawatt":false,"status":"AVAILABLE","source":"ndw"}},{"type":"Feature","geometry":{"type":"Point","coordinates":[5.068732,52.047985]},"properties":{"type":"charge","layer":"passenger","locationId":"966d3940-3f33-11eb-b26b-42010a840003","name":"NL, Landmansweide 32, 3437 DC Nieuwegein","address":"Landmansweide 32","city":"Nieuwegein","operatorName":"Allego","maxPowerKw":0,"isMegawatt":false,"status":"AVAILABLE","source":"ndw"}},{"type":"Feature","geometry":{"type":"Point","coordinates":[5.078375,52.052068]},"properties":{"type":"charge","layer":"passenger","locationId":"986af9a2-2c8c-11ec-afac-42010a840003","name":"NL, Jeroen Boschhage, 1, 3437KN, Nieuwegein","address":"Jeroen Boschhage 1","city":"Nieuwegein","operatorName":"Allego","maxPowerKw":0,"isMegawatt":false,"status":"AVAILABLE","source":"ndw"}},{"type":"Feature","geometry":{"type":"Point","coordinates":[5.093306,52.057234]},"properties":{"type":"charge","layer":"passenger","locationId":"d698aee0-2c8c-11ec-bbf5-42010a840003","name":"NL, Sportpark Galecop P2 , 10, 3438HX, Nieuwegein","address":"Sportpark Galecop P2","city":"Nieuwegein","operatorName":"Allego","maxPowerKw":0,"isMegawatt":false,"status":"AVAILABLE","source":"ndw"}},{"type":"Feature","geometry":{"type":"Point","coordinates":[5.096043,52.016253]},"properties":{"type":"charge","layer":"passenger","locationId":"e2f25eba-6877-11e9-8eb0-42010a840003","name":"NLD, Laarderschans 34 3432EC Nieuwegein","address":"Laarderschans 34","city":"Nieuwegein","operatorName":"Allego","maxPowerKw":0,"isMegawatt":false,"status":"AVAILABLE","source":"ndw"}},{"type":"Feature","geometry":{"type":"Point","coordinates":[5.087276,52.050347]},"properties":{"type":"charge","layer":"passenger","locationId":"NLLOC022244","name":"NL, Rembrandthage 13, 3438 JH Nieuwegein","address":"Rembrandthage 13","city":"Nieuwegein","operatorName":"Allego","maxPowerKw":0,"isMegawatt":false,"status":"AVAILABLE","source":"ndw"}},{"type":"Feature","geometry":{"type":"Point","coordinates":[5.0973397,52.0234452]},"properties":{"type":"charge","layer":"passenger","locationId":"2353","name":"Shell Recharge NL Soesterveste 4","address":"Soesterveste 4","city":"Nieuwegein","operatorName":"Ubitricity","maxPowerKw":22,"isMegawatt":false,"status":"AVAILABLE","source":"ndw"}},{"type":"Feature","geometry":{"type":"Point","coordinates":[5.093197,52.014411]},"properties":{"type":"charge","layer":"passenger","locationId":"58b11d1c-b7b1-11e8-ad8a-42010a840002","name":"NLD, Graaf Balthasarlaan 17, 3434 DN Nieuwegein","address":"Graaf Balthasarlaan 17","city":"Nieuwegein","operatorName":"Allego","maxPowerKw":0,"isMegawatt":false,"status":"CHARGING","source":"ndw"}},{"type":"Feature","geometry":{"type":"Point","coordinates":[5.082232,52.056131]},"properties":{"type":"charge","layer":"passenger","locationId":"59f3a06a-4f3c-11e8-a4d2-42010a840002","name":"NLD, Nieuwegein, Bertus Aafjeshove 71","address":"Bertus Aafjeshove 71","city":"Nieuwegein","operatorName":"Allego","maxPowerKw":0,"isMegawatt":false,"status":"AVAILABLE","source":"ndw"}},{"type":"Feature","geometry":{"type":"Point","coordinates":[5.086705,52.008943]},"properties":{"type":"charge","layer":"passenger","locationId":"5c038508-f501-11e8-8efe-42010a840002","name":"NLD, Gemeente Nieuwegein, Korenbloemstraat 2 3434EB Nieuwegein","address":"Korenbloemstraat 2","city":"Nieuwegein","operatorName":"Allego","maxPowerKw":0,"isMegawatt":false,"status":"AVAILABLE","source":"ndw"}},{"type":"Feature","geometry":{"type":"Point","coordinates":[5.088018,52.044986]},"properties":{"type":"charge","layer":"passenger","locationId":"7a545a20-4f3c-11e8-8eb4-42010a840002","name":"NLD, Nieuwegein, Carillonlaan 42","address":"Carillonlaan 42","city":"Nieuwegein","operatorName":"Allego","maxPowerKw":0,"isMegawatt":false,"status":"AVAILABLE","source":"ndw"}},{"type":"Feature","geometry":{"type":"Point","coordinates":[5.08981,52.01493]},"properties":{"type":"charge","layer":"passenger","locationId":"d0a67fd8-fbff-11ec-a269-42010aa40fc0","name":"NL, Graaf Rupertlaan 19, 3434RE, Nieuwegein","address":"Graaf Rupertlaan 19","city":"Nieuwegein","operatorName":"Allego","maxPowerKw":0,"isMegawatt":false,"status":"AVAILABLE","source":"ndw"}},{"type":"Feature","geometry":{"type":"Point","coordinates":[5.095567,52.003862]},"properties":{"type":"charge","layer":"passenger","locationId":"NLLOC001425","name":"NLD, Raadhuisplein 9 3433ZA Nieuwegein","address":"Raadhuisplein 9","city":"Nieuwegein","operatorName":"Allego","maxPowerKw":0,"isMegawatt":false,"status":"AVAILABLE","source":"ndw"}},{"type":"Feature","geometry":{"type":"Point","coordinates":[5.121492,52.021664]},"properties":{"type":"charge","layer":"passenger","locationId":"NLCPIL7237705","name":"FOURCE BV INUNDATIEDOK 2","address":"29 Inundatiedok","city":"Nieuwegein","operatorName":"ChargePoint","maxPowerKw":22,"isMegawatt":false,"status":"AVAILABLE","source":"ndw"}},{"type":"Feature","geometry":{"type":"Point","coordinates":[5.093377,52.037156]},"properties":{"type":"charge","layer":"passenger","locationId":"NLLOC004218","name":"NLD, Kerkstraat 11 3431CS Nieuwegein","address":"Kerkstraat 11","city":"Nieuwegein","operatorName":"Allego","maxPowerKw":0,"isMegawatt":false,"status":"AVAILABLE","source":"ndw"}},{"type":"Feature","geometry":{"type":"Point","coordinates":[5.067276,52.045363]},"properties":{"type":"charge","layer":"passenger","locationId":"1f23e7f8-b556-11e8-84a1-42010a840002","name":"NLD, Vuurvliegweide 1 3437 VT Nieuwegein","address":"Vuurvliegweide 1","city":"Nieuwegein","operatorName":"Allego","maxPowerKw":0,"isMegawatt":false,"status":"AVAILABLE","source":"ndw"}},{"type":"Feature","geometry":{"type":"Point","coordinates":[5.10036,52.034508]},"properties":{"type":"charge","layer":"passenger","locationId":"4198f8d6-ac71-11eb-b51e-42010a840003","name":"NL, Hof van Plettenburg 52, 3439 MW, Nieuwegein","address":"Hof van Plettenburg 52","city":"Nieuwegein","operatorName":"Allego","maxPowerKw":0,"isMegawatt":false,"status":"CHARGING","source":"ndw"}},{"type":"Feature","geometry":{"type":"Point","coordinates":[5.075011,52.054324]},"properties":{"type":"charge","layer":"passenger","locationId":"5af6a520-4f3c-11e8-a771-42010a840002","name":"NLD, Herman Teirlinckhove 1 3437BL Nieuwegein","address":"Herman Teirlinckhove 1","city":"Nieuwegein","operatorName":"Allego","maxPowerKw":0,"isMegawatt":false,"status":"AVAILABLE","source":"ndw"}},{"type":"Feature","geometry":{"type":"Point","coordinates":[5.08379,52.034641]},"properties":{"type":"charge","layer":"passenger","locationId":"69111e82-c6eb-11ea-8ebe-42010a840003","name":"NL, van Herwijnenplantsoen 225, 3431 VH, Nieuwegein","address":"van Herwijnenplantsoen 225","city":"Nieuwegein","operatorName":"Allego","maxPowerKw":0,"isMegawatt":false,"status":"AVAILABLE","source":"ndw"}},{"type":"Feature","geometry":{"type":"Point","coordinates":[5.081894,52.032911]},"properties":{"type":"charge","layer":"passenger","locationId":"954ce6e2-dbfb-11e9-add3-42010a840003","name":"NLD, Israëlslaan 43 3431AT Nieuwegein","address":"Israëlslaan 43","city":"Nieuwegein","operatorName":"Allego","maxPowerKw":0,"isMegawatt":false,"status":"CHARGING","source":"ndw"}},{"type":"Feature","geometry":{"type":"Point","coordinates":[5.094499,52.038257]},"properties":{"type":"charge","layer":"passenger","locationId":"NLLOC006758","name":"NL, Mgr. G.W. van Heukelumstraat 1 3, 3438 BS, Nieuwegein","address":"Mgr. G.W. van Heukelumstraat 1 3","city":"Nieuwegein","operatorName":"Allego","maxPowerKw":0,"isMegawatt":false,"status":"AVAILABLE","source":"ndw"}},{"type":"Feature","geometry":{"type":"Point","coordinates":[5.088185,52.047675]},"properties":{"type":"charge","layer":"passenger","locationId":"630f6b15d1b9d856ec3f9247","name":"DWI - Lader 2","address":"Symfonielaan 1","city":"Nieuwegein","operatorName":"E-Flux by Road","maxPowerKw":22,"isMegawatt":false,"status":"CHARGING","source":"ndw"}},{"type":"Feature","geometry":{"type":"Point","coordinates":[5.100898,52.011888]},"properties":{"type":"charge","layer":"passenger","locationId":"19403fe0-14d2-11e9-b3c0-42010a840003","name":"NLD, Hunzewerf 14, 3433 BT Nieuwegein","address":"Hunzewerf 14","city":"Nieuwegein","operatorName":"Allego","maxPowerKw":0,"isMegawatt":false,"status":"AVAILABLE","source":"ndw"}},{"type":"Feature","geometry":{"type":"Point","coordinates":[5.118319,52.021862]},"properties":{"type":"charge","layer":"passenger","locationId":"NLCPIL7238025","name":"FOURCE BV INUNDATIEDOK 4","address":"29 Inundatiedok","city":"Nieuwegein","operatorName":"ChargePoint","maxPowerKw":22,"isMegawatt":false,"status":"UNAVAILABLE","source":"ndw"}},{"type":"Feature","geometry":{"type":"Point","coordinates":[5.090265,52.037323]},"properties":{"type":"charge","layer":"passenger","locationId":"5b9cc07c-4f3c-11e8-994f-42010a840002","name":"NL, Drilleveld 18, 3431ET, Nieuwegein","address":"Drilleveld 18","city":"Nieuwegein","operatorName":"Allego","maxPowerKw":0,"isMegawatt":false,"status":"AVAILABLE","source":"ndw"}},{"type":"Feature","geometry":{"type":"Point","coordinates":[5.077286,52.029802]},"properties":{"type":"charge","layer":"passenger","locationId":"77cf6240-e4a0-11e9-b294-42010a840003","name":"NLD, Ruiterstede 86 3431XN Nieuwegein","address":"Ruiterstede 86","city":"Nieuwegein","operatorName":"Allego","maxPowerKw":0,"isMegawatt":false,"status":"AVAILABLE","source":"ndw"}},{"type":"Feature","geometry":{"type":"Point","coordinates":[5.090926,52.013539]},"properties":{"type":"charge","layer":"passenger","locationId":"f8ffd2b0-8978-11e9-9d50-42010a840003","name":"NLD, Graaf Dudosingel 12 3434RB Nieuwegein","address":"Graaf Dudosingel 12","city":"Nieuwegein","operatorName":"Allego","maxPowerKw":0,"isMegawatt":false,"status":"AVAILABLE","source":"ndw"}},{"type":"Feature","geometry":{"type":"Point","coordinates":[5.094499,52.038257]},"properties":{"type":"charge","layer":"passenger","locationId":"3dcd3f0a-f15a-11ea-964e-42010a840033","name":"NL, Mgr. G.W. van Heukelumstraat 1 3, 3438 BS, Nieuwegein","address":"Mgr. G.W. van Heukelumstraat 1 3","city":"Nieuwegein","operatorName":"Allego","maxPowerKw":0,"isMegawatt":false,"status":"AVAILABLE","source":"ndw"}},{"type":"Feature","geometry":{"type":"Point","coordinates":[5.078512,52.026718]},"properties":{"type":"charge","layer":"passenger","locationId":"NLLOC011052","name":"NL, Rietgors 12, 3435 CB, Nieuwegein","address":"Rietgors 12","city":"Nieuwegein","operatorName":"Allego","maxPowerKw":0,"isMegawatt":false,"status":"AVAILABLE","source":"ndw"}},{"type":"Feature","geometry":{"type":"Point","coordinates":[5.084309,52.026981]},"properties":{"type":"charge","layer":"passenger","locationId":"NLLOC002041","name":"NLD, Nieuwegein, Nachtwachtstede 1","address":"Nachtwachtstede 1","city":"Nieuwegein","operatorName":"Allego","maxPowerKw":0,"isMegawatt":false,"status":"UNAVAILABLE","source":"ndw"}},{"type":"Feature","geometry":{"type":"Point","coordinates":[5.099802,52.019196]},"properties":{"type":"charge","layer":"passenger","locationId":"67d02b97c75a7d54b7b98dcc","name":"Salverda Nieuwegein","address":"Twentehaven 4","city":"Nieuwegein","operatorName":"E-Flux by Road","maxPowerKw":11,"isMegawatt":false,"status":"UNAVAILABLE","source":"ndw"}},{"type":"Feature","geometry":{"type":"Point","coordinates":[5.085526,52.044774]},"properties":{"type":"charge","layer":"passenger","locationId":"21023388-0181-11ed-bafc-42010aa40fc0","name":"NL, Tubalaan 2, 3438 RT Nieuwegein","address":"Tubalaan 2","city":"Nieuwegein","operatorName":"Allego","maxPowerKw":0,"isMegawatt":false,"status":"AVAILABLE","source":"ndw"}},{"type":"Feature","geometry":{"type":"Point","coordinates":[5.067472,52.032036]},"properties":{"type":"charge","layer":"passenger","locationId":"267c3786-7378-11e9-baeb-42010a840003","name":"NLD, Avondgaarde 43 3436ZK Nieuwegein","address":"Avondgaarde 43","city":"Nieuwegein","operatorName":"Allego","maxPowerKw":0,"isMegawatt":false,"status":"AVAILABLE","source":"ndw"}},{"type":"Feature","geometry":{"type":"Point","coordinates":[5.096037,52.038948]},"properties":{"type":"charge","layer":"passenger","locationId":"5c11202a-4f3c-11e8-a922-42010a840002","name":"NLD, Nieuwegein, Utrechtsestraatweg 4","address":"Utrechtsestraatweg 4","city":"Nieuwegein","operatorName":"Allego","maxPowerKw":0,"isMegawatt":false,"status":"AVAILABLE","source":"ndw"}},{"type":"Feature","geometry":{"type":"Point","coordinates":[5.086116,52.036083]},"properties":{"type":"charge","layer":"passenger","locationId":"78ad0d70-4f3c-11e8-afe8-42010a840002","name":"NLD, Nieuwegein, Professor Dr. Claylaan 10","address":"Professor Dr. Claylaan 10","city":"Nieuwegein","operatorName":"Allego","maxPowerKw":0,"isMegawatt":false,"status":"AVAILABLE","source":"ndw"}},{"type":"Feature","geometry":{"type":"Point","coordinates":[5.077977,52.041589]},"properties":{"type":"charge","layer":"passenger","locationId":"8d572bb2-2c8c-11ec-860c-42010a840003","name":"NL, Florijnburg 49, 3437ST, Nieuwegein","address":"Florijnburg 49","city":"Nieuwegein","operatorName":"Allego","maxPowerKw":0,"isMegawatt":false,"status":"AVAILABLE","source":"ndw"}},{"type":"Feature","geometry":{"type":"Point","coordinates":[5.098151,52.011352]},"properties":{"type":"charge","layer":"passenger","locationId":"e89181de-4f3c-11e8-a97e-42010a840002","name":"NLD, Zandoever 1, 3433 DA Nieuwegein","address":"Zandoever 1","city":"Nieuwegein","operatorName":"Allego","maxPowerKw":0,"isMegawatt":false,"status":"AVAILABLE","source":"ndw"}},{"type":"Feature","geometry":{"type":"Point","coordinates":[5.07409,52.032561]},"properties":{"type":"charge","layer":"passenger","locationId":"NLLOC006384","name":"NL, Briljantdrift 1, 3436 BB, Nieuwegein","address":"Briljantdrift 1","city":"Nieuwegein","operatorName":"Allego","maxPowerKw":0,"isMegawatt":false,"status":"AVAILABLE","source":"ndw"}},{"type":"Feature","geometry":{"type":"Point","coordinates":[5.088477,52.048147]},"properties":{"type":"charge","layer":"passenger","locationId":"NLLOC005242","name":"NLD Iepenhoeve 1 3438 MR Nieuwegein","address":"Iepenhoeve 1","city":"NIeuwegein","operatorName":"Allego","maxPowerKw":0,"isMegawatt":false,"status":"AVAILABLE","source":"ndw"}},{"type":"Feature","geometry":{"type":"Point","coordinates":[5.069153,52.041529]},"properties":{"type":"charge","layer":"passenger","locationId":"NLLOC006780","name":"NL, Vlinderweide 3, 3437 VG, Nieuwegein","address":"Vlinderweide 3","city":"Nieuwegein","operatorName":"Allego","maxPowerKw":0,"isMegawatt":false,"status":"AVAILABLE","source":"ndw"}},{"type":"Feature","geometry":{"type":"Point","coordinates":[5.071322,52.02679]},"properties":{"type":"charge","layer":"passenger","locationId":"26c3e76e-b4d8-11ea-8539-42010a840003","name":"NL, Pimpelmees 1, 3435 RC, Nieuwegein","address":"Pimpelmees 1","city":"Nieuwegein","operatorName":"Allego","maxPowerKw":0,"isMegawatt":false,"status":"AVAILABLE","source":"ndw"}},{"type":"Feature","geometry":{"type":"Point","coordinates":[5.090612,52.040615]},"properties":{"type":"charge","layer":"passenger","locationId":"2dbc87c6-0436-11eb-8be0-42010a840033","name":"NL, Bartokstraat 26, 3438 XE, Nieuwegein","address":"Bartokstraat 26","city":"Nieuwegein","operatorName":"Allego","maxPowerKw":0,"isMegawatt":false,"status":"CHARGING","source":"ndw"}},{"type":"Feature","geometry":{"type":"Point","coordinates":[5.071842,52.051277]},"properties":{"type":"charge","layer":"passenger","locationId":"46e2e128-eea4-11ec-b940-42010aa40fc0","name":"NL, Lucas van Leydenhage 12, 3437NS, Nieuwegein","address":"Lucas van Leydenhage 12","city":"Nieuwegein","operatorName":"Allego","maxPowerKw":0,"isMegawatt":false,"status":"AVAILABLE","source":"ndw"}},{"type":"Feature","geometry":{"type":"Point","coordinates":[5.067942,52.022374]},"properties":{"type":"charge","layer":"passenger","locationId":"612e54ba-dbef-11ee-8ac0-42010aa400b8","name":"NL, Steenarend 4, 3435 GW Nieuwegein","address":"Steenarend 4","city":"Nieuwegein","operatorName":"Allego","maxPowerKw":0,"isMegawatt":false,"status":"AVAILABLE","source":"ndw"}},{"type":"Feature","geometry":{"type":"Point","coordinates":[5.078607,52.045538]},"properties":{"type":"charge","layer":"passenger","locationId":"7b19d976-4f3c-11e8-8137-42010a840002","name":"NLD, Nieuwegein, Apolloburg 21","address":"Apolloburg 21","city":"Nieuwegein","operatorName":"Allego","maxPowerKw":0,"isMegawatt":false,"status":"AVAILABLE","source":"ndw"}},{"type":"Feature","geometry":{"type":"Point","coordinates":[5.078705,52.021764]},"properties":{"type":"charge","layer":"passenger","locationId":"b7ec299a-578f-11eb-afa9-42010a840003","name":"NL, Bosruiter 26, 3435 EM Nieuwegein","address":"Bosruiter 26","city":"Nieuwegein","operatorName":"Allego","maxPowerKw":0,"isMegawatt":false,"status":"AVAILABLE","source":"ndw"}},{"type":"Feature","geometry":{"type":"Point","coordinates":[5.080318,52.021052]},"properties":{"type":"charge","layer":"passenger","locationId":"cdc38116-39b5-11eb-837e-42010a840003","name":"NL, Kuifduiker 14, 3435 DW, Nieuwegein","address":"Kuifduiker 14","city":"Nieuwegein","operatorName":"Allego","maxPowerKw":0,"isMegawatt":false,"status":"AVAILABLE","source":"ndw"}},{"type":"Feature","geometry":{"type":"Point","coordinates":[5.069153,52.041529]},"properties":{"type":"charge","layer":"passenger","locationId":"146797c0-9e4b-11eb-92d1-42010a840003","name":"NL, Vlinderweide 3, 3437 VG, Nieuwegein","address":"Vlinderweide 3","city":"Nieuwegein","operatorName":"Allego","maxPowerKw":0,"isMegawatt":false,"status":"AVAILABLE","source":"ndw"}},{"type":"Feature","geometry":{"type":"Point","coordinates":[5.069717,52.043259]},"properties":{"type":"charge","layer":"passenger","locationId":"5a394eb2-4f3c-11e8-b4c4-42010a840002","name":"NLD, Nieuwegein, Gazelleweide 9","address":"Gazelleweide 9","city":"Nieuwegein","operatorName":"Allego","maxPowerKw":0,"isMegawatt":false,"status":"AVAILABLE","source":"ndw"}},{"type":"Feature","geometry":{"type":"Point","coordinates":[5.086078,52.004254]},"properties":{"type":"charge","layer":"passenger","locationId":"def7377e-f2a5-11e8-ad25-42010a840002","name":"NLD, Nijemonde 103, 3434 AZ Nieuwegein","address":"Nijemonde 103","city":"Nieuwegein","operatorName":"Allego","maxPowerKw":0,"isMegawatt":false,"status":"AVAILABLE","source":"ndw"}},{"type":"Feature","geometry":{"type":"Point","coordinates":[5.087276,52.050347]},"properties":{"type":"charge","layer":"passenger","locationId":"e79d80ee-3aaa-11ed-8357-42010aa40fc0","name":"NL, Rembrandthage 13, 3438 JH Nieuwegein","address":"Rembrandthage 13","city":"Nieuwegein","operatorName":"Allego","maxPowerKw":0,"isMegawatt":false,"status":"AVAILABLE","source":"ndw"}},{"type":"Feature","geometry":{"type":"Point","coordinates":[5.077487,52.005431]},"properties":{"type":"charge","layer":"passenger","locationId":"0284be8a-c663-11f0-b63e-42010aa400b8","name":"TNLP009959","address":"Anemoonstraat 60","city":"Nieuwegein","operatorName":"TotalEnergies","maxPowerKw":17,"isMegawatt":false,"status":"AVAILABLE","source":"ndw"}},{"type":"Feature","geometry":{"type":"Point","coordinates":[5.072582,52.054519]},"properties":{"type":"charge","layer":"passenger","locationId":"3e0973ce-4b59-11ee-a3f4-42010aa40fc0","name":"NLD, Herman Teirlinckhove 7 3437BL Nieuwegein","address":"Herman Teirlinckhove 7","city":"Nieuwegein","operatorName":"Allego","maxPowerKw":0,"isMegawatt":false,"status":"AVAILABLE","source":"ndw"}},{"type":"Feature","geometry":{"type":"Point","coordinates":[5.090179,52.026109]},"properties":{"type":"charge","layer":"passenger","locationId":"589ac7a6-b7b1-11e8-bb72-42010a840002","name":"NLD, Schermwal 1, 3432 GW Nieuwegein","address":"Schermwal 1","city":"Nieuwegein","operatorName":"Allego","maxPowerKw":0,"isMegawatt":false,"status":"AVAILABLE","source":"ndw"}},{"type":"Feature","geometry":{"type":"Point","coordinates":[5.089982,52.042207]},"properties":{"type":"charge","layer":"passenger","locationId":"5ad3624a-4f3c-11e8-bf5c-42010a840002","name":"NLD, Nieuwegein, Rigolettoplantsoen 16","address":"Rigolettoplantsoen 16","city":"Nieuwegein","operatorName":"Allego","maxPowerKw":0,"isMegawatt":false,"status":"AVAILABLE","source":"ndw"}},{"type":"Feature","geometry":{"type":"Point","coordinates":[5.07437,52.035367]},"properties":{"type":"charge","layer":"passenger","locationId":"75be52ca-54d3-11e9-87b7-42010a840003","name":"NLD, Gemeente Nieuwegein, Burchtdrift 3 3436TA Nieuwegein","address":"Burchtdrift 3","city":"Nieuwegein","operatorName":"Allego","maxPowerKw":0,"isMegawatt":false,"status":"AVAILABLE","source":"ndw"}},{"type":"Feature","geometry":{"type":"Point","coordinates":[5.090806,52.018741]},"properties":{"type":"charge","layer":"passenger","locationId":"97e5125c-0040-11f0-8f44-42010aa400b8","name":"NL, Muiderschans 2, 3432 XM Nieuwegein","address":"Muiderschans 2","city":"Nieuwegein","operatorName":"Allego","maxPowerKw":0,"isMegawatt":false,"status":"AVAILABLE","source":"ndw"}},{"type":"Feature","geometry":{"type":"Point","coordinates":[5.076975,52.056588]},"properties":{"type":"charge","layer":"passenger","locationId":"bd93406c-4f3c-11e8-98be-42010a840002","name":"NLD, Herman de Manhove 90, Nieuwegein","address":"Herman de Manhove 90","city":"Nieuwegein","operatorName":"Allego","maxPowerKw":0,"isMegawatt":false,"status":"CHARGING","source":"ndw"}},{"type":"Feature","geometry":{"type":"Point","coordinates":[5.073717,52.036903]},"properties":{"type":"charge","layer":"passenger","locationId":"797b43de-4f3c-11e8-82d5-42010a840002","name":"NLD, Nieuwegein, Kasteeldrift 31","address":"Kasteeldrift 31","city":"Nieuwegein","operatorName":"Allego","maxPowerKw":0,"isMegawatt":false,"status":"AVAILABLE","source":"ndw"}},{"type":"Feature","geometry":{"type":"Point","coordinates":[5.088162,52.052932]},"properties":{"type":"charge","layer":"passenger","locationId":"9bd10172-d196-11ec-b4e2-42010a840003","name":"NL, Herman Heijermanshove 38, 3438HD, Nieuwegein","address":"Herman Heijermanshove 38","city":"Nieuwegein","operatorName":"Allego","maxPowerKw":0,"isMegawatt":false,"status":"AVAILABLE","source":"ndw"}},{"type":"Feature","geometry":{"type":"Point","coordinates":[5.07409,52.032561]},"properties":{"type":"charge","layer":"passenger","locationId":"13112524-2f80-11eb-b849-42010a840003","name":"NL, Briljantdrift 1, 3436 BB, Nieuwegein","address":"Briljantdrift 1","city":"Nieuwegein","operatorName":"Allego","maxPowerKw":0,"isMegawatt":false,"status":"AVAILABLE","source":"ndw"}},{"type":"Feature","geometry":{"type":"Point","coordinates":[5.086573,52.05209]},"properties":{"type":"charge","layer":"passenger","locationId":"59345354-1173-11ea-bdae-42010a840003","name":"NLD, Thorbeckepark 100 3438WG Nieuwegein","address":"Thorbeckepark 100","city":"Nieuwegein","operatorName":"Allego","maxPowerKw":0,"isMegawatt":false,"status":"AVAILABLE","source":"ndw"}},{"type":"Feature","geometry":{"type":"Point","coordinates":[5.094138,52.00999]},"properties":{"type":"charge","layer":"passenger","locationId":"5a7f68ac-4f3c-11e8-a996-42010a840002","name":"NLD, Nieuwegein, Handelskade 31","address":"Handelskade 31","city":"Nieuwegein","operatorName":"Allego","maxPowerKw":0,"isMegawatt":false,"status":"AVAILABLE","source":"ndw"}},{"type":"Feature","geometry":{"type":"Point","coordinates":[5.088357,52.007077]},"properties":{"type":"charge","layer":"passenger","locationId":"ae27a296-c8f7-11e8-aa8e-42010a840002","name":"NLD, Eikstraat 96, 3434 TH, Nieuwegein","address":"Eikstraat 96","city":"Nieuwegein","operatorName":"Allego","maxPowerKw":0,"isMegawatt":false,"status":"AVAILABLE","source":"ndw"}},{"type":"Feature","geometry":{"type":"Point","coordinates":[5.093226,52.040914]},"properties":{"type":"charge","layer":"passenger","locationId":"ba2b6e98-13a6-11e9-9089-42010a840003","name":"NLD, Beethovenstraat 22, 3438 BR Nieuwegein","address":"Beethovenstraat 22","city":"Nieuwegein","operatorName":"Allego","maxPowerKw":0,"isMegawatt":false,"status":"AVAILABLE","source":"ndw"}},{"type":"Feature","geometry":{"type":"Point","coordinates":[5.097681,52.009874]},"properties":{"type":"charge","layer":"passenger","locationId":"ed915916-65b4-11eb-a479-42010a840003","name":"NL, Zandoever 13, 3433 DA Nieuwegein","address":"Zandoever 13","city":"Nieuwegein","operatorName":"Allego","maxPowerKw":0,"isMegawatt":false,"status":"AVAILABLE","source":"ndw"}},{"type":"Feature","geometry":{"type":"Point","coordinates":[5.071088,52.036443]},"properties":{"type":"charge","layer":"passenger","locationId":"5100fe18-1d6a-11eb-8bfc-42010a840003","name":"NL, Walnootgaarde 52, 3436 JD, Nieuwegein","address":"Walnootgaarde 52","city":"Nieuwegein","operatorName":"Allego","maxPowerKw":0,"isMegawatt":false,"status":"AVAILABLE","source":"ndw"}},{"type":"Feature","geometry":{"type":"Point","coordinates":[5.078512,52.026718]},"properties":{"type":"charge","layer":"passenger","locationId":"8ec0a43e-3b46-11eb-937e-42010a840003","name":"NL, Rietgors 12, 3435 CB, Nieuwegein","address":"Rietgors 12","city":"Nieuwegein","operatorName":"Allego","maxPowerKw":0,"isMegawatt":false,"status":"CHARGING","source":"ndw"}},{"type":"Feature","geometry":{"type":"Point","coordinates":[5.083773,52.053653]},"properties":{"type":"charge","layer":"passenger","locationId":"ba377a12-13a6-11e9-9a4f-42010a840003","name":"NLD, Thorbeckepark 200, 3437 JT Nieuwegein","address":"Thorbeckepark 200","city":"Nieuwegein","operatorName":"Allego","maxPowerKw":0,"isMegawatt":false,"status":"AVAILABLE","source":"ndw"}},{"type":"Feature","geometry":{"type":"Point","coordinates":[5.10723,52.016818]},"properties":{"type":"charge","layer":"passenger","locationId":"a5731d44-09c6-11f0-88a6-42010aa400b8","name":"TNLP030173","address":"Emile Hullebroeckstraat 2","city":"Utrecht","operatorName":"TotalEnergies","maxPowerKw":17,"isMegawatt":false,"status":"AVAILABLE","source":"ndw"}},{"type":"Feature","geometry":{"type":"Point","coordinates":[5.0672,52.030492]},"properties":{"type":"charge","layer":"passenger","locationId":"33b65b94-3437-11eb-a0d4-42010a840003","name":"NL, Donkeregaarde 96, 3436 ZH, Nieuwegein","address":"Donkeregaarde 96","city":"Nieuwegein","operatorName":"Allego","maxPowerKw":0,"isMegawatt":false,"status":"AVAILABLE","source":"ndw"}},{"type":"Feature","geometry":{"type":"Point","coordinates":[5.07591,52.037798]},"properties":{"type":"charge","layer":"passenger","locationId":"5fc5d612-2899-11ed-922c-42010aa40fc0","name":"NL, Citadeldrift 66, 3436CP Nieuwegein","address":"Citadeldreef 66","city":"Nieuwegein","operatorName":"Allego","maxPowerKw":0,"isMegawatt":false,"status":"AVAILABLE","source":"ndw"}},{"type":"Feature","geometry":{"type":"Point","coordinates":[5.074193,52.034333]},"properties":{"type":"charge","layer":"passenger","locationId":"e78ece6e-3aaa-11ed-8540-42010aa40fc0","name":"NL, Toermalijndrift 1, 3436 BX Nieuwegein","address":"Toermalijndrift 1","city":"Nieuwegein","operatorName":"Allego","maxPowerKw":0,"isMegawatt":false,"status":"AVAILABLE","source":"ndw"}},{"type":"Feature","geometry":{"type":"Point","coordinates":[5.101743,52.046879]},"properties":{"type":"charge","layer":"passenger","locationId":"05c72078-9e4b-11eb-94be-42010a840003","name":"NL, Dr. Nolensstraat 7 3438 AZ Nieuwegein","address":"Dr. Nolensstraat 7","city":"Nieuwegein","operatorName":"Allego","maxPowerKw":0,"isMegawatt":false,"status":"AVAILABLE","source":"ndw"}},{"type":"Feature","geometry":{"type":"Point","coordinates":[5.085385,52.02692]},"properties":{"type":"charge","layer":"passenger","locationId":"5e993f3a-4f3c-11e8-8b2e-42010a840002","name":"NLD, Nieuwegein, Tinnegieterstede 1","address":"Tinnegieterstede 1","city":"Nieuwegein","operatorName":"Allego","maxPowerKw":0,"isMegawatt":false,"status":"AVAILABLE","source":"ndw"}},{"type":"Feature","geometry":{"type":"Point","coordinates":[5.081418,52.02291]},"properties":{"type":"charge","layer":"passenger","locationId":"79665f5a-4f3c-11e8-8566-42010a840002","name":"NLD, Nieuwegein, Sneeuwgans 23","address":"Sneeuwgans 23","city":"Nieuwegein","operatorName":"Allego","maxPowerKw":0,"isMegawatt":false,"status":"AVAILABLE","source":"ndw"}},{"type":"Feature","geometry":{"type":"Point","coordinates":[5.071739,52.025118]},"properties":{"type":"charge","layer":"passenger","locationId":"875e2b64-a15a-11ec-b46d-42010a840003","name":"NL, Bergfluiter, 15, 3435at, Nieuwegein","address":"Bergfluiter 15","city":"Nieuwegein","operatorName":"Allego","maxPowerKw":0,"isMegawatt":false,"status":"AVAILABLE","source":"ndw"}},{"type":"Feature","geometry":{"type":"Point","coordinates":[5.071337,52.056781]},"properties":{"type":"charge","layer":"passenger","locationId":"ff8fb786-1d69-11eb-8a80-42010a840003","name":"NL, Guido Gezellehove 68, 3437 BD, Nieuwegein","address":"Guido Gezellehove 68","city":"Nieuwegein","operatorName":"Allego","maxPowerKw":0,"isMegawatt":false,"status":"AVAILABLE","source":"ndw"}},{"type":"Feature","geometry":{"type":"Point","coordinates":[5.097069,52.010017]},"properties":{"type":"charge","layer":"passenger","locationId":"1613","name":"Shell Recharge NL Prins Hendriklaan 10","address":"Prins Hendriklaan 10","city":"Nieuwegein","operatorName":"Ubitricity","maxPowerKw":11,"isMegawatt":false,"status":"CHARGING","source":"ndw"}},{"type":"Feature","geometry":{"type":"Point","coordinates":[5.08314,52.0275]},"properties":{"type":"charge","layer":"passenger","locationId":"5bdcc6e0-4f3c-11e8-92d8-42010a840002","name":"NLD, Nieuwegein, Zoomstede 18","address":"Zoomstede 18","city":"Nieuwegein","operatorName":"Allego","maxPowerKw":0,"isMegawatt":false,"status":"CHARGING","source":"ndw"}},{"type":"Feature","geometry":{"type":"Point","coordinates":[5.096386,52.024049]},"properties":{"type":"charge","layer":"passenger","locationId":"63a5da68-b1f1-11eb-8a77-42010a840003","name":"NL, Naarderveste 12, 3432 RG, Nieuwegein","address":"Naarderveste 12","city":"Nieuwegein","operatorName":"Allego","maxPowerKw":0,"isMegawatt":false,"status":"AVAILABLE","source":"ndw"}},{"type":"Feature","geometry":{"type":"Point","coordinates":[5.089773,52.05317]},"properties":{"type":"charge","layer":"passenger","locationId":"cb223ac8-dbed-11ee-a8fb-42010aa400b8","name":"NL, Carel Vosmaerhove 5, 3438 HR, Nieuwegein","address":"Carel Vosmaerhove 5","city":"Nieuwegein","operatorName":"Allego","maxPowerKw":0,"isMegawatt":false,"status":"AVAILABLE","source":"ndw"}},{"type":"Feature","geometry":{"type":"Point","coordinates":[5.095971,52.043981]},"properties":{"type":"charge","layer":"passenger","locationId":"fb48af50-4f3c-11e8-8b4c-42010a840002","name":"NLD, Harmonielaan 2, 3438 EB Nieuwegein","address":"Harmonielaan 2","city":"Nieuwegein","operatorName":"Allego","maxPowerKw":0,"isMegawatt":false,"status":"AVAILABLE","source":"ndw"}},{"type":"Feature","geometry":{"type":"Point","coordinates":[5.09696,52.01942]},"properties":{"type":"charge","layer":"passenger","locationId":"1485","name":"Shell Recharge NL Diemerschans 40","address":"Diemerschans 40","city":"Nieuwegein","operatorName":"Ubitricity","maxPowerKw":11,"isMegawatt":false,"status":"AVAILABLE","source":"ndw"}},{"type":"Feature","geometry":{"type":"Point","coordinates":[5.075645,52.05655]},"properties":{"type":"charge","layer":"passenger","locationId":"18debc48-80d4-11e9-ae16-42010a840003","name":"NLD, Guido Gezellehove 2 3437BD Nieuwegein","address":"Guido Gezellehove 2","city":"Nieuwegein","operatorName":"Allego","maxPowerKw":0,"isMegawatt":false,"status":"AVAILABLE","source":"ndw"}},{"type":"Feature","geometry":{"type":"Point","coordinates":[5.071068,52.044686]},"properties":{"type":"charge","layer":"passenger","locationId":"0e3ef8f6-6009-11ea-ab13-42010a840003","name":"NL, Rendierweide 14, 3437 CZ, Nieuwegein","address":"Rendierweide 14","city":"Nieuwegein","operatorName":"Allego","maxPowerKw":0,"isMegawatt":false,"status":"AVAILABLE","source":"ndw"}},{"type":"Feature","geometry":{"type":"Point","coordinates":[5.088018,52.044986]},"properties":{"type":"charge","layer":"passenger","locationId":"NLLOC001305","name":"NLD, Nieuwegein, Carillonlaan 42","address":"Carillonlaan 42","city":"Nieuwegein","operatorName":"Allego","maxPowerKw":0,"isMegawatt":false,"status":"AVAILABLE","source":"ndw"}},{"type":"Feature","geometry":{"type":"Point","coordinates":[5.073474,52.021224]},"properties":{"type":"charge","layer":"passenger","locationId":"78e97814-4f3c-11e8-a32d-42010a840002","name":"NLD, Nieuwegein, Ringfazant 47","address":"Ringfazant 47","city":"Nieuwegein","operatorName":"Allego","maxPowerKw":0,"isMegawatt":false,"status":"AVAILABLE","source":"ndw"}},{"type":"Feature","geometry":{"type":"Point","coordinates":[5.102475,52.048517]},"properties":{"type":"charge","layer":"passenger","locationId":"ad883694-af94-11eb-824f-42010a840003","name":"NL, Dr. Schaepmanstraat 1, 3438 AW, Nieuwegein","address":"Dr. Schaepmanstraat 1","city":"Nieuwegein","operatorName":"Allego","maxPowerKw":0,"isMegawatt":false,"status":"AVAILABLE","source":"ndw"}},{"type":"Feature","geometry":{"type":"Point","coordinates":[5.087001,52.030389]},"properties":{"type":"charge","layer":"passenger","locationId":"cc501d38-cccb-11ee-b716-42010aa40fc0","name":"NLD, Kruyderlaan 27-1, 3431 BM Nieuwegein","address":"Kruyderlaan 27-1","city":"Nieuwegein","operatorName":"Allego","maxPowerKw":0,"isMegawatt":false,"status":"AVAILABLE","source":"ndw"}},{"type":"Feature","geometry":{"type":"Point","coordinates":[5.070612,52.053128]},"properties":{"type":"charge","layer":"passenger","locationId":"e7f0396a-dbee-11ee-8020-42010aa400b8","name":"NL, Pieter Aertsenhage 106, 3437 NW, Nieuwegein","address":"Pieter Aertsenhage 106","city":"Nieuwegein","operatorName":"Allego","maxPowerKw":0,"isMegawatt":false,"status":"AVAILABLE","source":"ndw"}},{"type":"Feature","geometry":{"type":"Point","coordinates":[5.098236,52.025884]},"properties":{"type":"charge","layer":"passenger","locationId":"fd166d3e-4cc4-11ec-ae53-42010a840003","name":"NL, Raalterveste 5, 3432AA, Nieuwegein","address":"Raalterveste 5","city":"Nieuwegein","operatorName":"Allego","maxPowerKw":0,"isMegawatt":false,"status":"AVAILABLE","source":"ndw"}},{"type":"Feature","geometry":{"type":"Point","coordinates":[5.098236,52.025884]},"properties":{"type":"charge","layer":"passenger","locationId":"NLLOC012314","name":"NL, Raalterveste 5, 3432AA, Nieuwegein","address":"Raalterveste 5","city":"Nieuwegein","operatorName":"Allego","maxPowerKw":0,"isMegawatt":false,"status":"AVAILABLE","source":"ndw"}},{"type":"Feature","geometry":{"type":"Point","coordinates":[5.084239,52.036207]},"properties":{"type":"charge","layer":"passenger","locationId":"NLLOC013927","name":"NL, van Herwijnenplantsoen, 223, 3431VG, Nieuwegein","address":"van Herwijnenplantsoen 223","city":"Nieuwegein","operatorName":"Allego","maxPowerKw":0,"isMegawatt":false,"status":"AVAILABLE","source":"ndw"}},{"type":"Feature","geometry":{"type":"Point","coordinates":[5.07437,52.035367]},"properties":{"type":"charge","layer":"passenger","locationId":"NLLOC003007","name":"NLD, Gemeente Nieuwegein, Burchtdrift 3 3436TA Nieuwegein","address":"Burchtdrift 3","city":"Nieuwegein","operatorName":"Allego","maxPowerKw":0,"isMegawatt":false,"status":"AVAILABLE","source":"ndw"}},{"type":"Feature","geometry":{"type":"Point","coordinates":[5.091877,52.027038]},"properties":{"type":"charge","layer":"passenger","locationId":"NLLOC001955","name":"NLD, Nieuwegein, Brinkwal 3","address":"Brinkwal 3","city":"Nieuwegein","operatorName":"Allego","maxPowerKw":0,"isMegawatt":false,"status":"AVAILABLE","source":"ndw"}},{"type":"Feature","geometry":{"type":"Point","coordinates":[5.091924,52.027328]},"properties":{"type":"charge","layer":"passenger","locationId":"01df4796-8059-11e8-8ed5-42010a840002","name":"NLD, Brinkwal 3 3432 GA Nieuwegein","address":"Brinkwal 3","city":"Nieuwegein","operatorName":"Allego","maxPowerKw":0,"isMegawatt":false,"status":"AVAILABLE","source":"ndw"}},{"type":"Feature","geometry":{"type":"Point","coordinates":[5.078942,52.054223]},"properties":{"type":"charge","layer":"passenger","locationId":"20d82052-0181-11ed-9964-42010aa40fc0","name":"NL, Hendrik Marsmanhove 2, 3437ZN, Nieuwegein","address":"Hendrik Marsmanhove 2","city":"Nieuwegein","operatorName":"Allego","maxPowerKw":0,"isMegawatt":false,"status":"AVAILABLE","source":"ndw"}},{"type":"Feature","geometry":{"type":"Point","coordinates":[5.099693,52.010593]},"properties":{"type":"charge","layer":"passenger","locationId":"5acc53ec-4f3c-11e8-a64a-42010a840002","name":"NLD, Nieuwegein, Reggestraat 1","address":"Reggestraat 1","city":"Nieuwegein","operatorName":"Allego","maxPowerKw":0,"isMegawatt":false,"status":"AVAILABLE","source":"ndw"}},{"type":"Feature","geometry":{"type":"Point","coordinates":[5.073877,52.049036]},"properties":{"type":"charge","layer":"passenger","locationId":"5bab1e06-4f3c-11e8-a8f1-42010a840002","name":"NLD, Nieuwegein, Hooiersweide 119","address":"Hooiersweide 119","city":"Nieuwegein","operatorName":"Allego","maxPowerKw":0,"isMegawatt":false,"status":"AVAILABLE","source":"ndw"}},{"type":"Feature","geometry":{"type":"Point","coordinates":[5.080965,52.045374]},"properties":{"type":"charge","layer":"passenger","locationId":"ef66bfec-4f3c-11e8-ba5e-42010a840002","name":"NLD, Mercuriusburg 7, 3437 GX, Nieuwegein","address":"Mercuriusburg 7","city":"Nieuwegein","operatorName":"Allego","maxPowerKw":0,"isMegawatt":false,"status":"AVAILABLE","source":"ndw"}},{"type":"Feature","geometry":{"type":"Point","coordinates":[5.079209,52.049817]},"properties":{"type":"charge","layer":"passenger","locationId":"f77a0b8a-4f3c-11e8-9add-42010a840002","name":"NLD, Jan van Scorelhage 56, 3437 KD, Nieuwegein","address":"Jan van Scorelhage 56","city":"Nieuwegein","operatorName":"Allego","maxPowerKw":0,"isMegawatt":false,"status":"AVAILABLE","source":"ndw"}},{"type":"Feature","geometry":{"type":"Point","coordinates":[5.091707,52.052938]},"properties":{"type":"charge","layer":"passenger","locationId":"0a11a6a2-ae05-11f0-a273-42010aa400b8","name":"TNLP034182","address":"Herman Gorterhove 34","city":"Nieuwegein","operatorName":"TotalEnergies","maxPowerKw":14,"isMegawatt":false,"status":"AVAILABLE","source":"ndw"}},{"type":"Feature","geometry":{"type":"Point","coordinates":[5.091965,52.055819]},"properties":{"type":"charge","layer":"passenger","locationId":"82cb0c60-cdd7-11e9-b915-42010a840003","name":"NLD, Nieuwegein, Sportpark Galecop 1","address":"Sportpark Galecop 1","city":"Nieuwegein","operatorName":"Allego","maxPowerKw":0,"isMegawatt":false,"status":"AVAILABLE","source":"ndw"}},{"type":"Feature","geometry":{"type":"Point","coordinates":[5.097513,52.004613]},"properties":{"type":"charge","layer":"passenger","locationId":"59ed0df4-4f3c-11e8-82e2-42010a840002","name":"NLD, Nieuwegein , Gildeborglaan 10","address":"Gildeborglaan 10","city":"Nieuwegein","operatorName":"Allego","maxPowerKw":0,"isMegawatt":false,"status":"AVAILABLE","source":"ndw"}},{"type":"Feature","geometry":{"type":"Point","coordinates":[5.077207,52.04536]},"properties":{"type":"charge","layer":"passenger","locationId":"83176624-9955-11ea-87d4-42010a840003","name":"NL, Otterweide 2, 3437 WG, Nieuwegein","address":"Otterweide 2","city":"Nieuwegein","operatorName":"Allego","maxPowerKw":0,"isMegawatt":false,"status":"AVAILABLE","source":"ndw"}},{"type":"Feature","geometry":{"type":"Point","coordinates":[5.084309,52.026981]},"properties":{"type":"charge","layer":"passenger","locationId":"8db93630-4f3c-11e8-b5a4-42010a840002","name":"NLD, Nieuwegein, Nachtwachtstede 1","address":"Nachtwachtstede 1","city":"Nieuwegein","operatorName":"Allego","maxPowerKw":0,"isMegawatt":false,"status":"UNAVAILABLE","source":"ndw"}},{"type":"Feature","geometry":{"type":"Point","coordinates":[5.079467,52.027153]},"properties":{"type":"charge","layer":"passenger","locationId":"3a6df24c-d097-11f0-95e4-42010aa400b8","name":"TNLP034316","address":"Geelgors 1","city":"Nieuwegein","operatorName":"TotalEnergies","maxPowerKw":14,"isMegawatt":false,"status":"CHARGING","source":"ndw"}},{"type":"Feature","geometry":{"type":"Point","coordinates":[5.095325,52.024881]},"properties":{"type":"charge","layer":"passenger","locationId":"5e499d6c-c765-11e8-8c08-42010a840002","name":"NLD, Biltseveste 52, 3432 AS, Nieuwegein","address":"Biltseveste 52","city":"Nieuwegein","operatorName":"Allego","maxPowerKw":0,"isMegawatt":false,"status":"AVAILABLE","source":"ndw"}},{"type":"Feature","geometry":{"type":"Point","coordinates":[5.076574,52.026207]},"properties":{"type":"charge","layer":"passenger","locationId":"7854d9c0-4f3c-11e8-9785-42010a840002","name":"NL, Zwartkopplein, 3, 3435BT, Nieuwegein","address":"Zwartkopplein 3","city":"Nieuwegein","operatorName":"Allego","maxPowerKw":0,"isMegawatt":false,"status":"AVAILABLE","source":"ndw"}},{"type":"Feature","geometry":{"type":"Point","coordinates":[5.076975,52.056588]},"properties":{"type":"charge","layer":"passenger","locationId":"NLLOC002283","name":"NLD, Herman de Manhove 90, Nieuwegein","address":"Herman de Manhove 90","city":"Nieuwegein","operatorName":"Allego","maxPowerKw":0,"isMegawatt":false,"status":"AVAILABLE","source":"ndw"}},{"type":"Feature","geometry":{"type":"Point","coordinates":[5.097054,52.042336]},"properties":{"type":"charge","layer":"passenger","locationId":"5f41f2d8-4f3c-11e8-ba1e-42010a840002","name":"NLD, Nieuwegein, Symfonielaan 26","address":"Symfonielaan 26","city":"Nieuwegein","operatorName":"Allego","maxPowerKw":0,"isMegawatt":false,"status":"AVAILABLE","source":"ndw"}},{"type":"Feature","geometry":{"type":"Point","coordinates":[5.067658,52.026272]},"properties":{"type":"charge","layer":"passenger","locationId":"f18c0962-2bf5-11ee-a216-42010aa40fc0","name":"EQUANS Fletcher Fletcher Hoofdkantoor","address":"Buizerdlaan 2","city":"Nieuwegein","operatorName":"EQUANS","maxPowerKw":0,"isMegawatt":false,"status":"CHARGING","source":"ndw"}},{"type":"Feature","geometry":{"type":"Point","coordinates":[5.076574,52.026207]},"properties":{"type":"charge","layer":"passenger","locationId":"NLLOC003001","name":"NL, Zwartkopplein, 3, 3435BT, Nieuwegein","address":"Zwartkopplein 3","city":"Nieuwegein","operatorName":"Allego","maxPowerKw":0,"isMegawatt":false,"status":"AVAILABLE","source":"ndw"}},{"type":"Feature","geometry":{"type":"Point","coordinates":[5.08332,52.0299]},"properties":{"type":"charge","layer":"passenger","locationId":"NLLOC000785","name":"NLD, Nieuwegein, Nypelsplantsoen 140","address":"Nypelsplantsoen 140","city":"Nieuwegein","operatorName":"Allego","maxPowerKw":0,"isMegawatt":false,"status":"AVAILABLE","source":"ndw"}},{"type":"Feature","geometry":{"type":"Point","coordinates":[5.089355,52.046762]},"properties":{"type":"charge","layer":"passenger","locationId":"5b7e9de0-4f3c-11e8-97b8-42010a840002","name":"NL, Symfonielaan 1, 3438 EW, Nieuwegein","address":"Symfonielaan 1","city":"Nieuwegein","operatorName":"Allego","maxPowerKw":0,"isMegawatt":false,"status":"AVAILABLE","source":"ndw"}},{"type":"Feature","geometry":{"type":"Point","coordinates":[5.095567,52.003862]},"properties":{"type":"charge","layer":"passenger","locationId":"921cf266-4f3c-11e8-9e68-42010a840002","name":"NLD, Raadhuisplein 9 3433ZA Nieuwegein","address":"Raadhuisplein 9","city":"Nieuwegein","operatorName":"Allego","maxPowerKw":0,"isMegawatt":false,"status":"AVAILABLE","source":"ndw"}},{"type":"Feature","geometry":{"type":"Point","coordinates":[5.092627,52.017042]},"properties":{"type":"charge","layer":"passenger","locationId":"ced45854-92e6-11e9-b3e1-42010a840003","name":"NLD, Havelterschans 18 3432TW Nieuwegein","address":"Havelterschans 18","city":"Nieuwegein","operatorName":"Allego","maxPowerKw":0,"isMegawatt":false,"status":"CHARGING","source":"ndw"}},{"type":"Feature","geometry":{"type":"Point","coordinates":[5.089982,52.042207]},"properties":{"type":"charge","layer":"passenger","locationId":"NLLOC000690","name":"NLD, Nieuwegein, Rigolettoplantsoen 16","address":"Rigolettoplantsoen 16","city":"Nieuwegein","operatorName":"Allego","maxPowerKw":0,"isMegawatt":false,"status":"AVAILABLE","source":"ndw"}},{"type":"Feature","geometry":{"type":"Point","coordinates":[5.102475,52.048517]},"properties":{"type":"charge","layer":"passenger","locationId":"NLLOC006465","name":"NL, Dr. Schaepmanstraat 1, 3438 AW, Nieuwegein","address":"Dr. Schaepmanstraat 1","city":"Nieuwegein","operatorName":"Allego","maxPowerKw":0,"isMegawatt":false,"status":"AVAILABLE","source":"ndw"}},{"type":"Feature","geometry":{"type":"Point","coordinates":[5.074446,52.041615]},"properties":{"type":"charge","layer":"passenger","locationId":"4cd9fb6d-f6d6-4c74-be83-d839e723bb66","name":"Vosseweide","address":"Vosseweide 56","city":"Nieuwegein","operatorName":"Vattenfall InCharge","maxPowerKw":11,"isMegawatt":false,"status":"AVAILABLE","source":"ndw"}},{"type":"Feature","geometry":{"type":"Point","coordinates":[5.086705,52.008943]},"properties":{"type":"charge","layer":"passenger","locationId":"NLLOC003065","name":"NLD, Gemeente Nieuwegein, Korenbloemstraat 2 3434EB Nieuwegein","address":"Korenbloemstraat 2","city":"Nieuwegein","operatorName":"Allego","maxPowerKw":0,"isMegawatt":false,"status":"AVAILABLE","source":"ndw"}},{"type":"Feature","geometry":{"type":"Point","coordinates":[5.075645,52.05655]},"properties":{"type":"charge","layer":"passenger","locationId":"NLLOC004151","name":"NLD, Guido Gezellehove 2 3437BD Nieuwegein","address":"Guido Gezellehove 2","city":"Nieuwegein","operatorName":"Allego","maxPowerKw":0,"isMegawatt":false,"status":"AVAILABLE","source":"ndw"}},{"type":"Feature","geometry":{"type":"Point","coordinates":[5.096386,52.024049]},"properties":{"type":"charge","layer":"passenger","locationId":"NLLOC006807","name":"NL, Naarderveste 12, 3432 RG, Nieuwegein","address":"Naarderveste 12","city":"Nieuwegein","operatorName":"Allego","maxPowerKw":0,"isMegawatt":false,"status":"AVAILABLE","source":"ndw"}},{"type":"Feature","geometry":{"type":"Point","coordinates":[5.08314,52.0275]},"properties":{"type":"charge","layer":"passenger","locationId":"NLLOC000857","name":"NLD, Nieuwegein, Zoomstede 18","address":"Zoomstede 18","city":"Nieuwegein","operatorName":"Allego","maxPowerKw":0,"isMegawatt":false,"status":"AVAILABLE","source":"ndw"}},{"type":"Feature","geometry":{"type":"Point","coordinates":[5.08455,52.037302]},"properties":{"type":"charge","layer":"passenger","locationId":"NLLOC005005","name":"NLD Mondriaanlaan 11, 3431 GA Nieuwegein","address":"Mondriaanlaan 11","city":"Nieuwegein","operatorName":"Allego","maxPowerKw":0,"isMegawatt":false,"status":"AVAILABLE","source":"ndw"}},{"type":"Feature","geometry":{"type":"Point","coordinates":[5.077825,52.024932]},"properties":{"type":"charge","layer":"passenger","locationId":"NLLOC017196","name":"NL, Braamsluiper 7, 3435 BA Nieuwegein","address":"Braamsluiper 7","city":"Nieuwegein","operatorName":"Allego","maxPowerKw":0,"isMegawatt":false,"status":"AVAILABLE","source":"ndw"}},{"type":"Feature","geometry":{"type":"Point","coordinates":[5.097721,52.035314]},"properties":{"type":"charge","layer":"passenger","locationId":"6138783fd1540036fbb196c4","name":"Edisonbaan 14 CMW fonds (D)","address":"Edisonbaan 14","city":"Nieuwegein","operatorName":"E-Flux by Road","maxPowerKw":22,"isMegawatt":false,"status":"UNAVAILABLE","source":"ndw"}},{"type":"Feature","geometry":{"type":"Point","coordinates":[5.0936,52.01916]},"properties":{"type":"charge","layer":"passenger","locationId":"1462","name":"Shell Recharge NL Bedumerschans 43","address":"Bedumerschans 43","city":"Nieuwegein","operatorName":"Ubitricity","maxPowerKw":11,"isMegawatt":false,"status":"AVAILABLE","source":"ndw"}},{"type":"Feature","geometry":{"type":"Point","coordinates":[5.069247,52.045421]},"properties":{"type":"charge","layer":"passenger","locationId":"NLLOC002924","name":"NLD, Nieuwegein, Pauwoogweide 49 3437VW Nieuwegein","address":"Pauwoogweide 49","city":"Nieuwegein","operatorName":"Allego","maxPowerKw":0,"isMegawatt":false,"status":"AVAILABLE","source":"ndw"}},{"type":"Feature","geometry":{"type":"Point","coordinates":[5.085179,52.045252]},"properties":{"type":"charge","layer":"passenger","locationId":"NLLOC003038","name":"NLD, Tubalaan 13, 3438 RT Nieuwegein","address":"Tubalaan 13","city":"Nieuwegein","operatorName":"Allego","maxPowerKw":0,"isMegawatt":false,"status":"AVAILABLE","source":"ndw"}},{"type":"Feature","geometry":{"type":"Point","coordinates":[5.079467,52.027153]},"properties":{"type":"charge","layer":"passenger","locationId":"d252c0fd-14fc-4022-98f6-8a2cac90fa4d","name":"TNLP034316","address":"Geelgors 1","city":"Nieuwegein","operatorName":"TotalEnergies","maxPowerKw":14,"isMegawatt":false,"status":"AVAILABLE","source":"ndw"}},{"type":"Feature","geometry":{"type":"Point","coordinates":[5.077893,52.039945]},"properties":{"type":"charge","layer":"passenger","locationId":"6298735f0ac18b39351ce771","name":"Dukatenburg Vastgoed B.V. (4)","address":"Dukatenburg 70","city":"Nieuwgein","operatorName":"E-Flux by Road","maxPowerKw":22,"isMegawatt":false,"status":"AVAILABLE","source":"ndw"}},{"type":"Feature","geometry":{"type":"Point","coordinates":[5.068402,52.01641]},"properties":{"type":"charge","layer":"passenger","locationId":"32412","name":"Circle K Nieuwegein inz Oudegein","address":"Rijksweg A2","city":"Nieuwegein","operatorName":"Spirii","maxPowerKw":0,"isMegawatt":false,"status":"AVAILABLE","source":"ndw"}},