{"type":"FeatureCollection","metadata":{"gemeente":"Nuenen, Gerwen en Nederwetten","slug":"nuenen-gerwen-en-nederwetten","code":"GM0820","generated_at":"2026-06-07T19:22:09.578Z","total_passenger":92,"total_freight":0,"bounds":[5.505524089276299,51.433674966912996,5.605201316301571,51.538075463096376],"operators":["Allego","DAEN Mobility","E-Flux by Road","Laadnet","Vattenfall InCharge"]},"features":[{"type":"Feature","geometry":{"type":"Point","coordinates":[5.532381,51.465338]},"properties":{"type":"charge","layer":"passenger","locationId":"923095","name":"DAE_NL_2000943","address":"Drieloper 11","city":"Nuenen","operatorName":"DAEN Mobility","maxPowerKw":11,"isMegawatt":false,"status":"AVAILABLE","source":"ndw","priceKwh":2}},{"type":"Feature","geometry":{"type":"Point","coordinates":[5.531983,51.465419]},"properties":{"type":"charge","layer":"passenger","locationId":"922620","name":"DAE-NL-2000025","address":"Drieloper 1","city":"Nuenen","operatorName":"DAEN Mobility","maxPowerKw":11,"isMegawatt":false,"status":"AVAILABLE","source":"ndw","priceKwh":1.5}},{"type":"Feature","geometry":{"type":"Point","coordinates":[5.571102,51.475179]},"properties":{"type":"charge","layer":"passenger","locationId":"3302fdea-6c1b-4697-be7d-62bacafb6b1c","name":"Laan ter Catten","address":"Laan ter Catten 112","city":"Nuenen","operatorName":"Vattenfall InCharge","maxPowerKw":11,"isMegawatt":false,"status":"AVAILABLE","source":"ndw"}},{"type":"Feature","geometry":{"type":"Point","coordinates":[5.531,51.466404]},"properties":{"type":"charge","layer":"passenger","locationId":"a1ce5497-b80a-458f-8082-79d29789a9a6","name":"Venakker","address":"Venakker 4","city":"Nuenen","operatorName":"Vattenfall InCharge","maxPowerKw":11,"isMegawatt":false,"status":"AVAILABLE","source":"ndw"}},{"type":"Feature","geometry":{"type":"Point","coordinates":[5.557789,51.470314]},"properties":{"type":"charge","layer":"passenger","locationId":"NLLOC017585","name":"NL, Vosseveld 1, 5673LR, Nuenen","address":"Vosseveld 1","city":"Nuenen","operatorName":"Allego","maxPowerKw":0,"isMegawatt":false,"status":"AVAILABLE","source":"ndw","priceKwh":0.511}},{"type":"Feature","geometry":{"type":"Point","coordinates":[5.570682,51.475949]},"properties":{"type":"charge","layer":"passenger","locationId":"a53b8d79-f610-4bbc-ad3a-bc493b8a1974","name":"Ten Worpe","address":"Ten Worpe 2","city":"Nuenen","operatorName":"Vattenfall InCharge","maxPowerKw":11,"isMegawatt":false,"status":"AVAILABLE","source":"ndw"}},{"type":"Feature","geometry":{"type":"Point","coordinates":[5.545154,51.475956]},"properties":{"type":"charge","layer":"passenger","locationId":"8699e410-81ea-11f0-ac4b-42010aa400b8","name":"NL, Weverstraat 52-A, 5671BD, Nuenen","address":"Weverstraat 52-A","city":"Nuenen","operatorName":"Allego","maxPowerKw":0,"isMegawatt":false,"status":"AVAILABLE","source":"ndw"}},{"type":"Feature","geometry":{"type":"Point","coordinates":[5.562965,51.473454]},"properties":{"type":"charge","layer":"passenger","locationId":"dcc222b0-802e-4b00-af45-eccbb78cbb36","name":"De Beekse Tuin","address":"De Beekse Tuin 13","city":"Nuenen","operatorName":"Vattenfall InCharge","maxPowerKw":11,"isMegawatt":false,"status":"CHARGING","source":"ndw"}},{"type":"Feature","geometry":{"type":"Point","coordinates":[5.551946,51.477526]},"properties":{"type":"charge","layer":"passenger","locationId":"457f79ed4b044083528f00a61ff89a4d","name":"Berg 44","address":"Berg 44","city":"Nuenen","operatorName":"Vattenfall InCharge","maxPowerKw":11,"isMegawatt":false,"status":"AVAILABLE","source":"ndw"}},{"type":"Feature","geometry":{"type":"Point","coordinates":[5.542533,51.478982]},"properties":{"type":"charge","layer":"passenger","locationId":"40d17502-04e4-445d-969b-19d62947b537","name":"Van Veldekestraat","address":"Van Veldekestraat 37","city":"Nuenen","operatorName":"Vattenfall InCharge","maxPowerKw":11,"isMegawatt":false,"status":"AVAILABLE","source":"ndw"}},{"type":"Feature","geometry":{"type":"Point","coordinates":[5.547666,51.470846]},"properties":{"type":"charge","layer":"passenger","locationId":"3a7540f7-ef93-4e67-9d2a-adee29b48c38","name":"Lindenhof","address":"Lindenhof 86","city":"Nuenen","operatorName":"Vattenfall InCharge","maxPowerKw":11,"isMegawatt":false,"status":"AVAILABLE","source":"ndw"}},{"type":"Feature","geometry":{"type":"Point","coordinates":[5.551412,51.462415]},"properties":{"type":"charge","layer":"passenger","locationId":"e18aa2a8-e27d-4938-9ad3-6bdd8d379a3a","name":"De Vroente 102","address":"De Vroente 102","city":"Nuenen","operatorName":"Vattenfall InCharge","maxPowerKw":11,"isMegawatt":false,"status":"AVAILABLE","source":"ndw"}},{"type":"Feature","geometry":{"type":"Point","coordinates":[5.557789,51.470314]},"properties":{"type":"charge","layer":"passenger","locationId":"6bce5dbc-ed11-11ec-b5eb-42010aa40fc0","name":"NL, Vosseveld 1, 5673LR, Nuenen","address":"Vosseveld 1","city":"Nuenen","operatorName":"Allego","maxPowerKw":0,"isMegawatt":false,"status":"AVAILABLE","source":"ndw"}},{"type":"Feature","geometry":{"type":"Point","coordinates":[5.549534,51.47289]},"properties":{"type":"charge","layer":"passenger","locationId":"94cb7fb0-aa14-11eb-b3be-42010a840003","name":"NL, Kerkstraat, 6, 5671GP, Nuenen","address":"Kerkstraat 6","city":"Nuenen","operatorName":"Allego","maxPowerKw":0,"isMegawatt":false,"status":"AVAILABLE","source":"ndw"}},{"type":"Feature","geometry":{"type":"Point","coordinates":[5.549952,51.452947]},"properties":{"type":"charge","layer":"passenger","locationId":"7c50fd8ea523329bcb32597dafc528ba","name":"Grote Heiakker 2","address":"Grote Heiakker 2","city":"Nuenen","operatorName":"Vattenfall InCharge","maxPowerKw":11,"isMegawatt":false,"status":"AVAILABLE","source":"ndw"}},{"type":"Feature","geometry":{"type":"Point","coordinates":[5.55512,51.468133]},"properties":{"type":"charge","layer":"passenger","locationId":"f9aef8c8-2d8b-4d63-a86d-2c1c6abc9ac3","name":"Korhoenhof","address":"Korhoenhof 15","city":"Nuenen","operatorName":"Vattenfall InCharge","maxPowerKw":11,"isMegawatt":false,"status":"AVAILABLE","source":"ndw"}},{"type":"Feature","geometry":{"type":"Point","coordinates":[5.549979,51.468718]},"properties":{"type":"charge","layer":"passenger","locationId":"7f0aed6c47d4e84fe1ae1814ed58c7c3","name":"Kraanvogelhof 23","address":"Kraanvogelhof 23","city":"Nuenen","operatorName":"Vattenfall InCharge","maxPowerKw":11,"isMegawatt":false,"status":"AVAILABLE","source":"ndw"}},{"type":"Feature","geometry":{"type":"Point","coordinates":[5.529925,51.46025]},"properties":{"type":"charge","layer":"passenger","locationId":"43b140fe-dafc-11ed-b495-42010aa40fc0","name":"NL, Opwettenseweg 132, 5674 AD Nuenen","address":"Opwettenseweg 132","city":"Nuenen","operatorName":"Allego","maxPowerKw":0,"isMegawatt":false,"status":"CHARGING","source":"ndw"}},{"type":"Feature","geometry":{"type":"Point","coordinates":[5.528992,51.465835]},"properties":{"type":"charge","layer":"passenger","locationId":"33e113a6e740cc2f82c3e06f758b37e9","name":"Middelste Dubbe 16","address":"Middelste Dubbe 16","city":"Nuenen","operatorName":"Vattenfall InCharge","maxPowerKw":11,"isMegawatt":false,"status":"AVAILABLE","source":"ndw"}},{"type":"Feature","geometry":{"type":"Point","coordinates":[5.545154,51.475956]},"properties":{"type":"charge","layer":"passenger","locationId":"NLLOC027042","name":"NL, Weverstraat 52-A, 5671BD, Nuenen","address":"Weverstraat 52-A","city":"Nuenen","operatorName":"Allego","maxPowerKw":0,"isMegawatt":false,"status":"AVAILABLE","source":"ndw","priceKwh":0.511}},{"type":"Feature","geometry":{"type":"Point","coordinates":[5.555825,51.448295]},"properties":{"type":"charge","layer":"passenger","locationId":"6512ce03b2c78400203613ca","name":"Cuby Portions B.V.","address":"De Huufkes  52","city":"Nuenen","operatorName":"E-Flux by Road","maxPowerKw":22,"isMegawatt":false,"status":"AVAILABLE","source":"ndw","priceKwh":0.42}},{"type":"Feature","geometry":{"type":"Point","coordinates":[5.529925,51.46025]},"properties":{"type":"charge","layer":"passenger","locationId":"NLLOC024587","name":"NL, Opwettenseweg 132, 5674 AD Nuenen","address":"Opwettenseweg 132","city":"Nuenen","operatorName":"Allego","maxPowerKw":0,"isMegawatt":false,"status":"AVAILABLE","source":"ndw","priceKwh":0.511}},{"type":"Feature","geometry":{"type":"Point","coordinates":[5.57026,51.47747]},"properties":{"type":"charge","layer":"passenger","locationId":"1a6cd13d719cb61e7003e3e60a148867","name":"Noorderklamp 26","address":"Noorderklamp 26","city":"Nuenen","operatorName":"Vattenfall InCharge","maxPowerKw":11,"isMegawatt":false,"status":"AVAILABLE","source":"ndw"}},{"type":"Feature","geometry":{"type":"Point","coordinates":[5.56013,51.47022]},"properties":{"type":"charge","layer":"passenger","locationId":"b7512a2ce6effafe7b6867c336677c20","name":"De Doorn 47","address":"De Doorn 47","city":"Nuenen","operatorName":"Vattenfall InCharge","maxPowerKw":11,"isMegawatt":false,"status":"AVAILABLE","source":"ndw"}},{"type":"Feature","geometry":{"type":"Point","coordinates":[5.562196,51.446895]},"properties":{"type":"charge","layer":"passenger","locationId":"923561","name":"PBLR-0029965","address":"Collse Heide 28","city":"Nuenen","operatorName":"DAEN Mobility","maxPowerKw":11,"isMegawatt":false,"status":"AVAILABLE","source":"ndw","priceKwh":0.36}},{"type":"Feature","geometry":{"type":"Point","coordinates":[5.53151,51.46721]},"properties":{"type":"charge","layer":"passenger","locationId":"8870d82b79addbe9da3622c4e559ac8e","name":"Venakker 18","address":"Venakker 18","city":"Nuenen","operatorName":"Vattenfall InCharge","maxPowerKw":11,"isMegawatt":false,"status":"AVAILABLE","source":"ndw"}},{"type":"Feature","geometry":{"type":"Point","coordinates":[5.553065,51.46956]},"properties":{"type":"charge","layer":"passenger","locationId":"4e8f6369-716d-401d-9957-3c585c0e2c55","name":"Refeling","address":"Refeling 4","city":"Nuenen","operatorName":"Vattenfall InCharge","maxPowerKw":11,"isMegawatt":false,"status":"AVAILABLE","source":"ndw"}},{"type":"Feature","geometry":{"type":"Point","coordinates":[5.565176,51.475325]},"properties":{"type":"charge","layer":"passenger","locationId":"65afbcfae3117a001cbf3aca","name":"Bonne Beenen 's station","address":"Wakkershof 2","city":"Nuenen","operatorName":"E-Flux by Road","maxPowerKw":22,"isMegawatt":false,"status":"AVAILABLE","source":"ndw","priceKwh":0.51}},{"type":"Feature","geometry":{"type":"Point","coordinates":[5.568689,51.476803]},"properties":{"type":"charge","layer":"passenger","locationId":"11df2ce4-3efb-4131-8bab-f31387021d01","name":"Laan Ter Catten","address":"Laan Ter Catten 64","city":"Nuenen","operatorName":"Vattenfall InCharge","maxPowerKw":11,"isMegawatt":false,"status":"UNAVAILABLE","source":"ndw"}},{"type":"Feature","geometry":{"type":"Point","coordinates":[5.556907,51.471551]},"properties":{"type":"charge","layer":"passenger","locationId":"dae9bb9876d0e63547787078500665a2","name":"Tomakker 12","address":"Tomakker 12","city":"Nuenen","operatorName":"Vattenfall InCharge","maxPowerKw":11,"isMegawatt":false,"status":"AVAILABLE","source":"ndw"}},{"type":"Feature","geometry":{"type":"Point","coordinates":[5.567024,51.476994]},"properties":{"type":"charge","layer":"passenger","locationId":"23ace5454d6054a31d713c5ac8f70c0c","name":"Schepen van Durenlaan 2","address":"Schepen van Durenlaan 2","city":"Nuenen","operatorName":"Vattenfall InCharge","maxPowerKw":11,"isMegawatt":false,"status":"AVAILABLE","source":"ndw"}},{"type":"Feature","geometry":{"type":"Point","coordinates":[5.550992,51.465096]},"properties":{"type":"charge","layer":"passenger","locationId":"916f06c9-ff8d-475c-b31d-10a6c5a8dfa3","name":"Hoge Brake","address":"Hoge Brake 23","city":"Nuenen","operatorName":"Vattenfall InCharge","maxPowerKw":11,"isMegawatt":false,"status":"AVAILABLE","source":"ndw"}},{"type":"Feature","geometry":{"type":"Point","coordinates":[5.546367,51.463637]},"properties":{"type":"charge","layer":"passenger","locationId":"574acbe178c1da8a49094938d0089457","name":"Molvense Erven 16","address":"Molvense Erven 16","city":"Nuenen","operatorName":"Vattenfall InCharge","maxPowerKw":11,"isMegawatt":false,"status":"AVAILABLE","source":"ndw"}},{"type":"Feature","geometry":{"type":"Point","coordinates":[5.526535,51.466593]},"properties":{"type":"charge","layer":"passenger","locationId":"a0a38406-8825-43c6-a6fe-faa0cdaccf2a","name":"Aangelag 27","address":"Aangelag 27","city":"Nuenen","operatorName":"Vattenfall InCharge","maxPowerKw":11,"isMegawatt":false,"status":"AVAILABLE","source":"ndw"}},{"type":"Feature","geometry":{"type":"Point","coordinates":[5.549534,51.47289]},"properties":{"type":"charge","layer":"passenger","locationId":"NLLOC013511","name":"NL, Kerkstraat, 6, 5671GP, Nuenen","address":"Kerkstraat 6","city":"Nuenen","operatorName":"Allego","maxPowerKw":0,"isMegawatt":false,"status":"AVAILABLE","source":"ndw","priceKwh":0.511}},{"type":"Feature","geometry":{"type":"Point","coordinates":[5.549303,51.452781]},"properties":{"type":"charge","layer":"passenger","locationId":"52cb5789-25a3-4a8a-9270-58de9124ffab","name":"De Hofstad","address":"De Hofstad 14","city":"Nuenen","operatorName":"Vattenfall InCharge","maxPowerKw":11,"isMegawatt":false,"status":"AVAILABLE","source":"ndw"}},{"type":"Feature","geometry":{"type":"Point","coordinates":[5.549546,51.449395]},"properties":{"type":"charge","layer":"passenger","locationId":"637cb7500b4fb8fae30c297f","name":"Pilot Cycles's Station","address":"Den Binnen  3","city":"Nuenen","operatorName":"E-Flux by Road","maxPowerKw":11,"isMegawatt":false,"status":"UNAVAILABLE","source":"ndw"}},{"type":"Feature","geometry":{"type":"Point","coordinates":[5.549057,51.462793]},"properties":{"type":"charge","layer":"passenger","locationId":"d43e4952ab641ddd4470fb5f8534c501","name":"Het Puyven 191","address":"Het Puyven 191","city":"Nuenen","operatorName":"Vattenfall InCharge","maxPowerKw":11,"isMegawatt":false,"status":"AVAILABLE","source":"ndw"}},{"type":"Feature","geometry":{"type":"Point","coordinates":[5.566089,51.475671]},"properties":{"type":"charge","layer":"passenger","locationId":"d52930172d2098b36dacbc0c461419fa","name":"Raupplaan 41","address":"Raupplaan 41","city":"Nuenen","operatorName":"Vattenfall InCharge","maxPowerKw":11,"isMegawatt":false,"status":"AVAILABLE","source":"ndw"}},{"type":"Feature","geometry":{"type":"Point","coordinates":[5.546361,51.472744]},"properties":{"type":"charge","layer":"passenger","locationId":"6d5c6151-d464-4b97-a49e-dfb7ea87ec15","name":"Parkstraat","address":"Parkstraat 21","city":"Nuenen","operatorName":"Vattenfall InCharge","maxPowerKw":11,"isMegawatt":false,"status":"AVAILABLE","source":"ndw"}},{"type":"Feature","geometry":{"type":"Point","coordinates":[5.555776,51.462165]},"properties":{"type":"charge","layer":"passenger","locationId":"00f0793b-497d-4321-b1f0-c8e165ecf434","name":"Schietbergen","address":"Schietbergen 85","city":"Nuenen","operatorName":"Vattenfall InCharge","maxPowerKw":11,"isMegawatt":false,"status":"AVAILABLE","source":"ndw"}},{"type":"Feature","geometry":{"type":"Point","coordinates":[5.556649,51.462758]},"properties":{"type":"charge","layer":"passenger","locationId":"0fb4de5fd7cdd8f631955d7ab98b2fd8","name":"Schietbergen 102","address":"Schietbergen 102","city":"Nuenen","operatorName":"Vattenfall InCharge","maxPowerKw":11,"isMegawatt":false,"status":"CHARGING","source":"ndw"}},{"type":"Feature","geometry":{"type":"Point","coordinates":[5.551213,51.466886]},"properties":{"type":"charge","layer":"passenger","locationId":"9ef7e958-9c73-4bcc-bb5c-5ed9884b6030","name":"Bosgorsstraat 6","address":"Bosgorsstraat 6","city":"Nuenen","operatorName":"Vattenfall InCharge","maxPowerKw":11,"isMegawatt":false,"status":"AVAILABLE","source":"ndw"}},{"type":"Feature","geometry":{"type":"Point","coordinates":[5.565271,51.49114]},"properties":{"type":"charge","layer":"passenger","locationId":"67f7024c56efb7f8f809b0b0761146d5","name":"Wout van de Waterlaan 1","address":"Wout van de Waterlaan 1","city":"Nuenen","operatorName":"Vattenfall InCharge","maxPowerKw":11,"isMegawatt":false,"status":"AVAILABLE","source":"ndw"}},{"type":"Feature","geometry":{"type":"Point","coordinates":[5.562179,51.49163]},"properties":{"type":"charge","layer":"passenger","locationId":"652121af3d9f0d1fcd64fcf70d46dc18","name":"Heilig Kruisgildelaan 2","address":"Heilig Kruisgildelaan 2","city":"Nuenen","operatorName":"Vattenfall InCharge","maxPowerKw":11,"isMegawatt":false,"status":"AVAILABLE","source":"ndw"}},{"type":"Feature","geometry":{"type":"Point","coordinates":[5.54963,51.466127]},"properties":{"type":"charge","layer":"passenger","locationId":"db1f1877-010f-4f9b-9e97-167fe7093a53","name":"Stormmeeuwhof 2","address":"Stormmeeuwhof 2","city":"Nuenen","operatorName":"Vattenfall InCharge","maxPowerKw":11,"isMegawatt":false,"status":"AVAILABLE","source":"ndw"}},{"type":"Feature","geometry":{"type":"Point","coordinates":[5.551982,51.471526]},"properties":{"type":"charge","layer":"passenger","locationId":"0468d8d8e7a4859b52f942aae2ccdfab","name":"Repelakker 14","address":"Repelakker 14","city":"Nuenen","operatorName":"Vattenfall InCharge","maxPowerKw":11,"isMegawatt":false,"status":"CHARGING","source":"ndw"}},{"type":"Feature","geometry":{"type":"Point","coordinates":[5.535342,51.465701]},"properties":{"type":"charge","layer":"passenger","locationId":"1442485","name":"Laadnet SpartnerS","address":"Spegelt 4","city":"Nuenen","operatorName":"Laadnet","maxPowerKw":22,"isMegawatt":false,"status":"AVAILABLE","source":"ndw"}},{"type":"Feature","geometry":{"type":"Point","coordinates":[5.567342,51.472975]},"properties":{"type":"charge","layer":"passenger","locationId":"00400e508df0a5c7a2b18bed8c9acea2","name":"Het Steenen Huys 22","address":"Het Steenen Huys 22","city":"Nuenen","operatorName":"Vattenfall InCharge","maxPowerKw":11,"isMegawatt":false,"status":"AVAILABLE","source":"ndw"}},{"type":"Feature","geometry":{"type":"Point","coordinates":[5.551762,51.472211]},"properties":{"type":"charge","layer":"passenger","locationId":"a8fbdc31e2fbd8b510205c6d926a1a87","name":"Jan Bisschopsgaarde 10","address":"Jan Bisschopsgaarde 10","city":"Nuenen","operatorName":"Vattenfall InCharge","maxPowerKw":11,"isMegawatt":false,"status":"CHARGING","source":"ndw"}},{"type":"Feature","geometry":{"type":"Point","coordinates":[5.56762,51.48553]},"properties":{"type":"charge","layer":"passenger","locationId":"1d89c1628ab5099040a8c8ccc116a946","name":"Kerkakkers 49","address":"Kerkakkers 49","city":"Nuenen","operatorName":"Vattenfall InCharge","maxPowerKw":11,"isMegawatt":false,"status":"AVAILABLE","source":"ndw"}},{"type":"Feature","geometry":{"type":"Point","coordinates":[5.566995,51.471845]},"properties":{"type":"charge","layer":"passenger","locationId":"fcfc05bf-7181-45ad-9383-e66633324f54","name":"Nuenderbeekselaan","address":"Nuenderbeekselaan 23","city":"Nuenen","operatorName":"Vattenfall InCharge","maxPowerKw":11,"isMegawatt":false,"status":"CHARGING","source":"ndw"}},{"type":"Feature","geometry":{"type":"Point","coordinates":[5.566055,51.49182]},"properties":{"type":"charge","layer":"passenger","locationId":"614713c5-689d-43c3-bf2c-2c052ad21456","name":"Leonard Donkerslaan","address":"Leonard Donkerslaan 1","city":"Nuenen","operatorName":"Vattenfall InCharge","maxPowerKw":11,"isMegawatt":false,"status":"AVAILABLE","source":"ndw"}},{"type":"Feature","geometry":{"type":"Point","coordinates":[5.540153,51.463643]},"properties":{"type":"charge","layer":"passenger","locationId":"d92640e5-27f2-4bb5-8121-f68645bb56ba","name":"Keizershof","address":"Keizershof 98","city":"Nuenen","operatorName":"Vattenfall InCharge","maxPowerKw":11,"isMegawatt":false,"status":"AVAILABLE","source":"ndw"}},{"type":"Feature","geometry":{"type":"Point","coordinates":[5.54278,51.463489]},"properties":{"type":"charge","layer":"passenger","locationId":"5533fbbc82506aeb3c02e46d83dd86b5","name":"Molvense Erven 138","address":"Molvense Erven 138","city":"Nuenen","operatorName":"Vattenfall InCharge","maxPowerKw":11,"isMegawatt":false,"status":"AVAILABLE","source":"ndw"}},{"type":"Feature","geometry":{"type":"Point","coordinates":[5.540389,51.461289]},"properties":{"type":"charge","layer":"passenger","locationId":"fac19a527f7af9d10d36f3eab206ed06","name":"Culenhof 42","address":"Culenhof 42","city":"Nuenen","operatorName":"Vattenfall InCharge","maxPowerKw":11,"isMegawatt":false,"status":"AVAILABLE","source":"ndw"}},{"type":"Feature","geometry":{"type":"Point","coordinates":[5.55586,51.480027]},"properties":{"type":"charge","layer":"passenger","locationId":"35fd60a63f088075511fa46167dfa5f3","name":"Lucas van Hauthemlaan 8","address":"Lucas van Hauthemlaan 8","city":"Nuenen","operatorName":"Vattenfall InCharge","maxPowerKw":11,"isMegawatt":false,"status":"AVAILABLE","source":"ndw"}},{"type":"Feature","geometry":{"type":"Point","coordinates":[5.569374,51.477728]},"properties":{"type":"charge","layer":"passenger","locationId":"4e607e46934890ac9530b29fb5c79e21","name":"Schepen Smitslaan 14","address":"Schepen Smitslaan 14","city":"Nuenen","operatorName":"Vattenfall InCharge","maxPowerKw":11,"isMegawatt":false,"status":"AVAILABLE","source":"ndw"}},{"type":"Feature","geometry":{"type":"Point","coordinates":[5.535342,51.465701]},"properties":{"type":"charge","layer":"passenger","locationId":"923131","name":"DAE_NL_2000813","address":"Spegelt 4","city":"Nuenen","operatorName":"DAEN Mobility","maxPowerKw":11,"isMegawatt":false,"status":"AVAILABLE","source":"ndw","priceKwh":0.4}},{"type":"Feature","geometry":{"type":"Point","coordinates":[5.544996,51.468706]},"properties":{"type":"charge","layer":"passenger","locationId":"33885620-b63e-41e4-a019-582c07451af3","name":"Vallestap","address":"Vallestap 28","city":"Nuenen","operatorName":"Vattenfall InCharge","maxPowerKw":11,"isMegawatt":false,"status":"AVAILABLE","source":"ndw"}},{"type":"Feature","geometry":{"type":"Point","coordinates":[5.561559,51.470716]},"properties":{"type":"charge","layer":"passenger","locationId":"60c4962361756621633a9818d1af5ea2","name":"Vrouwensakker","address":"Vrouwensakker 31","city":"Nuenen","operatorName":"Vattenfall InCharge","maxPowerKw":11,"isMegawatt":false,"status":"AVAILABLE","source":"ndw"}},{"type":"Feature","geometry":{"type":"Point","coordinates":[5.549024,51.476214]},"properties":{"type":"charge","layer":"passenger","locationId":"90b0db53-f606-4374-b6a5-76b25e078bcf","name":"Hof Van Wijck 27","address":"Hof Van Wijck 27","city":"Nuenen","operatorName":"Vattenfall InCharge","maxPowerKw":11,"isMegawatt":false,"status":"AVAILABLE","source":"ndw"}},{"type":"Feature","geometry":{"type":"Point","coordinates":[5.550529,51.471841]},"properties":{"type":"charge","layer":"passenger","locationId":"07b0857f-3d36-42b9-a451-6d9ddfdc3c89","name":"Sportlaan 5","address":"Sportlaan 5","city":"Nuenen","operatorName":"Vattenfall InCharge","maxPowerKw":11,"isMegawatt":false,"status":"AVAILABLE","source":"ndw"}},{"type":"Feature","geometry":{"type":"Point","coordinates":[5.55987,51.473421]},"properties":{"type":"charge","layer":"passenger","locationId":"5e30ec4d-2e99-42db-ab6f-ef552b6e4d6a","name":"Haffmanslaan ","address":"Haffmanslaan  22","city":"Nuenen","operatorName":"Vattenfall InCharge","maxPowerKw":11,"isMegawatt":false,"status":"AVAILABLE","source":"ndw"}},{"type":"Feature","geometry":{"type":"Point","coordinates":[5.540666,51.474752]},"properties":{"type":"charge","layer":"passenger","locationId":"485afe50-e53f-4686-8e88-f816d5a406e9","name":"Meidoornstraat","address":"Meidoornstraat 1a","city":"Nuenen","operatorName":"Vattenfall InCharge","maxPowerKw":11,"isMegawatt":false,"status":"UNAVAILABLE","source":"ndw"}},{"type":"Feature","geometry":{"type":"Point","coordinates":[5.56359,51.46929]},"properties":{"type":"charge","layer":"passenger","locationId":"e7bf226c0d253055190c511061d43688","name":"Cantersakker 23","address":"Cantersakker 23","city":"Nuenen","operatorName":"Vattenfall InCharge","maxPowerKw":11,"isMegawatt":false,"status":"AVAILABLE","source":"ndw"}},{"type":"Feature","geometry":{"type":"Point","coordinates":[5.553852,51.475199]},"properties":{"type":"charge","layer":"passenger","locationId":"17508596-e853-41a9-9cb3-7cd2f859176f","name":"Pieter Dekkersstraat 114","address":"Pieter Dekkersstraat 114","city":"Nuenen","operatorName":"Vattenfall InCharge","maxPowerKw":11,"isMegawatt":false,"status":"AVAILABLE","source":"ndw"}},{"type":"Feature","geometry":{"type":"Point","coordinates":[5.53981,51.466337]},"properties":{"type":"charge","layer":"passenger","locationId":"0739e032-11ac-4515-be98-a467c242f67e","name":"Berkenbos 3","address":"Berkenbos 3","city":"Nuenen","operatorName":"Vattenfall InCharge","maxPowerKw":11,"isMegawatt":false,"status":"CHARGING","source":"ndw"}},{"type":"Feature","geometry":{"type":"Point","coordinates":[5.535342,51.465701]},"properties":{"type":"charge","layer":"passenger","locationId":"923132","name":"DAE_NL_2000814","address":"Spegelt 4","city":"Nuenen","operatorName":"DAEN Mobility","maxPowerKw":11,"isMegawatt":false,"status":"AVAILABLE","source":"ndw","priceKwh":0.4}},{"type":"Feature","geometry":{"type":"Point","coordinates":[5.55208,51.46326]},"properties":{"type":"charge","layer":"passenger","locationId":"ff056f114bf8d224aba89d71a03e8bbd","name":"De Vroente 115","address":"De Vroente 115","city":"Nuenen","operatorName":"Vattenfall InCharge","maxPowerKw":11,"isMegawatt":false,"status":"AVAILABLE","source":"ndw"}},{"type":"Feature","geometry":{"type":"Point","coordinates":[5.572235,51.475788]},"properties":{"type":"charge","layer":"passenger","locationId":"38d6d153744339a8faa3253cf0ae1343","name":"Donkervoort 55","address":"Donkervoort 55","city":"Nuenen","operatorName":"Vattenfall InCharge","maxPowerKw":11,"isMegawatt":false,"status":"AVAILABLE","source":"ndw"}},{"type":"Feature","geometry":{"type":"Point","coordinates":[5.540988,51.474779]},"properties":{"type":"charge","layer":"passenger","locationId":"bee7b0ef975c40e107e5cc41d158fde1","name":"Meidoornstraat 1","address":"Meidoornstraat 1","city":"Nuenen","operatorName":"Vattenfall InCharge","maxPowerKw":11,"isMegawatt":false,"status":"CHARGING","source":"ndw"}},{"type":"Feature","geometry":{"type":"Point","coordinates":[5.536853,51.465634]},"properties":{"type":"charge","layer":"passenger","locationId":"89ccaf6c-0ebf-45ef-9db5-274bb2624a8f","name":"Witte Hondpad","address":"Witte Hondpad 16","city":"Nuenen","operatorName":"Vattenfall InCharge","maxPowerKw":11,"isMegawatt":false,"status":"AVAILABLE","source":"ndw"}},{"type":"Feature","geometry":{"type":"Point","coordinates":[5.560458,51.47232]},"properties":{"type":"charge","layer":"passenger","locationId":"be882b5e-ab6a-4f37-ba9c-be74a7389835","name":"Stephan Hanewinkellaan","address":"Stephan Hanewinkellaan 20","city":"Nuenen","operatorName":"Vattenfall InCharge","maxPowerKw":11,"isMegawatt":false,"status":"CHARGING","source":"ndw"}},{"type":"Feature","geometry":{"type":"Point","coordinates":[5.538241,51.465562]},"properties":{"type":"charge","layer":"passenger","locationId":"32abb602535bd7cda036940597e39a57","name":"Cockeveld 1","address":"Cockeveld 1","city":"Nuenen","operatorName":"Vattenfall InCharge","maxPowerKw":11,"isMegawatt":false,"status":"AVAILABLE","source":"ndw"}},{"type":"Feature","geometry":{"type":"Point","coordinates":[5.54882,51.45982]},"properties":{"type":"charge","layer":"passenger","locationId":"59c188118a4982d68ff965f4d01cba49","name":"Heikampen 1","address":"Heikampen 1","city":"Nuenen","operatorName":"Vattenfall InCharge","maxPowerKw":11,"isMegawatt":false,"status":"AVAILABLE","source":"ndw"}},{"type":"Feature","geometry":{"type":"Point","coordinates":[5.54507,51.46749]},"properties":{"type":"charge","layer":"passenger","locationId":"eabb6fabb7e398efbacb7ceeb00f1160","name":"Vallestap 58","address":"Vallestap 58","city":"Nuenen","operatorName":"Vattenfall InCharge","maxPowerKw":11,"isMegawatt":false,"status":"AVAILABLE","source":"ndw"}},{"type":"Feature","geometry":{"type":"Point","coordinates":[5.520233,51.494346]},"properties":{"type":"charge","layer":"passenger","locationId":"d64c82f3-1620-4722-a075-e2ce6c5d76d8","name":"Thijs Slootshof","address":"Thijs Slootshof 8","city":"Nuenen","operatorName":"Vattenfall InCharge","maxPowerKw":11,"isMegawatt":false,"status":"AVAILABLE","source":"ndw"}},{"type":"Feature","geometry":{"type":"Point","coordinates":[5.569598,51.487836]},"properties":{"type":"charge","layer":"passenger","locationId":"91ffa2ad-c811-421e-b2d9-96f03dbd2b0d","name":"Goudhoeksland 34","address":"Goudhoeksland 34","city":"Nuenen","operatorName":"Vattenfall InCharge","maxPowerKw":11,"isMegawatt":false,"status":"CHARGING","source":"ndw"}},{"type":"Feature","geometry":{"type":"Point","coordinates":[5.551763,51.47569]},"properties":{"type":"charge","layer":"passenger","locationId":"e8e0cbb8-a65a-4ba1-be91-142464f5b5b0","name":"Aardappeleterssteegje","address":"Aardappeleterssteegje 3","city":"Nuenen","operatorName":"Vattenfall InCharge","maxPowerKw":11,"isMegawatt":false,"status":"AVAILABLE","source":"ndw"}},{"type":"Feature","geometry":{"type":"Point","coordinates":[5.553693,51.471714]},"properties":{"type":"charge","layer":"passenger","locationId":"2e159b01-5dcd-4bdb-8351-9a9eaa002f89","name":"Hoge Akker","address":"Hoge Akker 31","city":"Nuenen","operatorName":"Vattenfall InCharge","maxPowerKw":11,"isMegawatt":false,"status":"AVAILABLE","source":"ndw"}},{"type":"Feature","geometry":{"type":"Point","coordinates":[5.5426,51.47897]},"properties":{"type":"charge","layer":"passenger","locationId":"60eb7a77edcfa835e3429dff4bba74ea","name":"Vondelstraat 37","address":"Vondelstraat 37","city":"Nuenen","operatorName":"Vattenfall InCharge","maxPowerKw":11,"isMegawatt":false,"status":"AVAILABLE","source":"ndw"}},{"type":"Feature","geometry":{"type":"Point","coordinates":[5.56692,51.47234]},"properties":{"type":"charge","layer":"passenger","locationId":"9c3c414395a6e47daf06e57a1ac2d400","name":"Nuenderbeekselaan 8","address":"Nuenderbeekselaan 8","city":"Nuenen","operatorName":"Vattenfall InCharge","maxPowerKw":11,"isMegawatt":false,"status":"AVAILABLE","source":"ndw"}},{"type":"Feature","geometry":{"type":"Point","coordinates":[5.565894,51.470434]},"properties":{"type":"charge","layer":"passenger","locationId":"7565a8e1-bde4-4031-b610-299a27f5cde7","name":"Nuenderbeekselaan 69","address":"Nuenderbeekselaan 69","city":"Nuenen","operatorName":"Vattenfall InCharge","maxPowerKw":11,"isMegawatt":false,"status":"AVAILABLE","source":"ndw"}},{"type":"Feature","geometry":{"type":"Point","coordinates":[5.549578,51.475965]},"properties":{"type":"charge","layer":"passenger","locationId":"c4cdd4670d03c231c1c72d5a28540e75","name":"Hof Van Wijck 5","address":"Hof Van Wijck 5","city":"Nuenen","operatorName":"Vattenfall InCharge","maxPowerKw":11,"isMegawatt":false,"status":"AVAILABLE","source":"ndw"}},{"type":"Feature","geometry":{"type":"Point","coordinates":[5.565454,51.472677]},"properties":{"type":"charge","layer":"passenger","locationId":"35d9b416-b794-4621-ae9c-a986fd7adb1f","name":"Schout de Wittelaan","address":"Schout de Wittelaan 2","city":"Nuenen","operatorName":"Vattenfall InCharge","maxPowerKw":11,"isMegawatt":false,"status":"AVAILABLE","source":"ndw"}},{"type":"Feature","geometry":{"type":"Point","coordinates":[5.554759,51.461047]},"properties":{"type":"charge","layer":"passenger","locationId":"49dada85-4bfb-4fd8-b108-5fcacbcd37ee","name":"Schietbergen","address":"Schietbergen 54","city":"Nuenen","operatorName":"Vattenfall InCharge","maxPowerKw":11,"isMegawatt":false,"status":"AVAILABLE","source":"ndw"}},{"type":"Feature","geometry":{"type":"Point","coordinates":[5.543811,51.464483]},"properties":{"type":"charge","layer":"passenger","locationId":"a461ae32180a70d1046bbe527bf3db3d","name":"Jacobushoek 12","address":"Jacobushoek 12","city":"Nuenen","operatorName":"Vattenfall InCharge","maxPowerKw":11,"isMegawatt":false,"status":"AVAILABLE","source":"ndw"}},{"type":"Feature","geometry":{"type":"Point","coordinates":[5.543263,51.470886]},"properties":{"type":"charge","layer":"passenger","locationId":"bf3c5c9e-0a97-4b7c-911c-1f395724ecb7","name":"Beatrixstraat","address":"Beatrixstraat 18","city":"Nuenen","operatorName":"Vattenfall InCharge","maxPowerKw":11,"isMegawatt":false,"status":"AVAILABLE","source":"ndw"}},{"type":"Feature","geometry":{"type":"Point","coordinates":[5.55512,51.474324]},"properties":{"type":"charge","layer":"passenger","locationId":"95cb9e9d-73a7-4988-b452-4729fe35260f","name":"Antoon Kerssemakersstraat","address":"Antoon Kerssemakersstraat 54","city":"Nuenen","operatorName":"Vattenfall InCharge","maxPowerKw":11,"isMegawatt":false,"status":"AVAILABLE","source":"ndw"}},{"type":"Feature","geometry":{"type":"Point","coordinates":[5.52477,51.4665]},"properties":{"type":"charge","layer":"passenger","locationId":"2819bc4e6c2f09200df39d45e6e596cc","name":"Bakertdreef 34","address":"Bakertdreef 34","city":"Nuenen","operatorName":"Vattenfall InCharge","maxPowerKw":11,"isMegawatt":false,"status":"AVAILABLE","source":"ndw"}},{"type":"Feature","geometry":{"type":"Point","coordinates":[5.551163,51.459643]},"properties":{"type":"charge","layer":"passenger","locationId":"d15d1daa-b18e-4ec0-a3d1-ccf33ffea129","name":"Heikampen","address":"Heikampen 57","city":"Nuenen","operatorName":"Vattenfall InCharge","maxPowerKw":11,"isMegawatt":false,"status":"AVAILABLE","source":"ndw"}},{"type":"Feature","geometry":{"type":"MultiPolygon","coordinates":[[[[5.547913123958448,51.538075463096376],[5.554379721154007,51.5189877183671],[5.55765126591873,51.50936930181519],[5.566550579957376,51.50167202972553],[5.576728772117623,51.49945274590941],[5.570154946384508,51.4969358472066],[5.580444643741244,51.485331704699725],[5.5857833060164115,51.47931163919693],[5.596106402389833,51.474898823692236],[5.6035333623508015,51.472589274782194],[5.605201316301571,51.47098523325619],[5.592838112093406,51.467124035222845],[5.582972737811959,51.46554816028664],[5.584650648163173,51.46414386141711],[5.587806946238264,51.463470794553615],[5.584707567897515,51.46050862678506],[5.57899983490713,51.45507867531835],[5.5711721565738275,51.44773119847341],[5.566163705413661,51.44148355539516],[5.548775958747342,51.434714885148516],[5.548678054511953,51.434676916943616],[5.548851891046962,51.43450220538417],[5.546778322834324,51.433674966912996],[5.545885854096719,51.43657880534755],[5.544383150660334,51.43721446390156],[5.543563296651174,51.43871023242455],[5.543924269886245,51.439602638169106],[5.542625294269562,51.43997905361732],[5.5426581623861155,51.4392380816838],[5.541257712311311,51.4397193444074],[5.540709576725344,51.44051387639993],[5.541317257667794,51.4404639419616],[5.541404449063816,51.441042697654225],[5.538510915253366,51.443535600901775],[5.539407566029843,51.44456618046689],[5.538521167259158,51.44561355429606],[5.540150241558972,51.44797469424691],[5.539078067075556,51.44844553935766],[5.538825251116369,51.44944247094227],[5.534470035475574,51.45156617397296],[5.531585019419687,51.45554030521905],[5.531691524197999,51.455618869002556],[5.532528464433122,51.45720510132357],[5.531003458914969,51.457245096216624],[5.529839025846133,51.45869821520753],[5.524917320792594,51.45949384411796],[5.521870254145947,51.46109454747392],[5.521067771267699,51.46101602135758],[5.520953451132097,51.46155146353624],[5.518270740368904,51.462628100059796],[5.518112777887916,51.46295194142223],[5.5189845589268645,51.46290953898018],[5.5175811470379195,51.46434717344728],[5.516929215499614,51.46424036071684],[5.515892540819475,51.46512997655978],[5.51493679644854,51.464975272660446],[5.514388603226877,51.46555628186372],[5.5141182780859745,51.466521794293485],[5.512865013657228,51.46660010453186],[5.511580452802421,51.46749692500468],[5.509040441662867,51.4694258143861],[5.510108848265351,51.46987372972913],[5.508095267169723,51.47116935797712],[5.508088754970301,51.47446147707872],[5.508349076081548,51.47555441692075],[5.508750393974129,51.477059445908196],[5.507941162997604,51.47856665073029],[5.509559727757516,51.47923595653368],[5.506018899525148,51.48230006946814],[5.505524089276299,51.483564177608315],[5.506596083681899,51.48375705935989],[5.508147066046653,51.48542417776532],[5.508413297469601,51.487683915468665],[5.510572633952895,51.487353636013886],[5.51245514232451,51.48956142293815],[5.512490478223162,51.491028001557986],[5.515554776961885,51.49334124880373],[5.513385954650428,51.4954811409053],[5.513324500880297,51.49625099764176],[5.511422830034592,51.4969217587962],[5.5102390839924205,51.49728663183596],[5.509790963670162,51.498587144877874],[5.514938202652425,51.49998120875863],[5.5185978784360055,51.50199538887111],[5.523981709644117,51.50194582718307],[5.526115267983261,51.50144593618979],[5.525972721103762,51.50229233294791],[5.527833178290047,51.5023186159794],[5.531618138229988,51.5055603378345],[5.532793101870164,51.5052117390246],[5.538674535010764,51.50759552968292],[5.542271107377892,51.5106266189005],[5.54627156061194,51.51269525399799],[5.544362261893742,51.51568397722863],[5.541756763221687,51.51807417626448],[5.540673516635759,51.52066450532362],[5.545633004887194,51.51994929237623],[5.5440288625424055,51.52175759195946],[5.544746600619579,51.52353695059797],[5.543160660221637,51.52362966342149],[5.54019367544591,51.526011352556274],[5.536810277649418,51.52600577200567],[5.536732146501933,51.52505154856445],[5.530862303582377,51.52504825535053],[5.547436083628369,51.53773161169728],[5.547913123958448,51.538075463096376]]]]},"properties":{"type":"boundary","gemeente":"Nuenen, Gerwen en Nederwetten","code":"GM0820"}}]}