{"type":"FeatureCollection","metadata":{"gemeente":"Oisterwijk","slug":"oisterwijk","code":"GM0824","generated_at":"2026-06-02T13:19:22.438Z","total_passenger":124,"total_freight":0,"bounds":[5.13019540015261,51.50758794634543,5.278742948360492,51.624928260096894],"operators":["E-Flux by Road","EQUANS","Eneco","Laadnet","Lidl","MobilityPlus","Opcharge","Pluq","PowerGo","Vattenfall InCharge"]},"features":[{"type":"Feature","geometry":{"type":"Point","coordinates":[5.182104,51.573296]},"properties":{"type":"charge","layer":"passenger","locationId":"99eb5926-1963-11f0-b243-42010aa400b8","name":"HealthCity Oisterwijk (PowerGo)","address":"Moergestelseweg 36","city":"Oisterwijk","operatorName":"PowerGo","maxPowerKw":0,"isMegawatt":false,"status":"AVAILABLE","source":"ndw"}},{"type":"Feature","geometry":{"type":"Point","coordinates":[5.178634,51.545258]},"properties":{"type":"charge","layer":"passenger","locationId":"204cc037750cb238c55c598c69ad16d1","name":"Rootven 37a","address":"Rootven 37a","city":"Moergestel","operatorName":"Vattenfall InCharge","maxPowerKw":11,"isMegawatt":false,"status":"CHARGING","source":"ndw"}},{"type":"Feature","geometry":{"type":"Point","coordinates":[5.18763,51.573033]},"properties":{"type":"charge","layer":"passenger","locationId":"889e6abd-d941-4f68-915c-3e8d7d256a64","name":"Burgemeester Vogelslaan","address":"Burgemeester Vogelslaan 86","city":"Oisterwijk","operatorName":"Vattenfall InCharge","maxPowerKw":11,"isMegawatt":false,"status":"AVAILABLE","source":"ndw"}},{"type":"Feature","geometry":{"type":"Point","coordinates":[5.173475,51.574117]},"properties":{"type":"charge","layer":"passenger","locationId":"f594170f-18ec-4843-ba97-09fb6d8f9365","name":"Willem de Zwijgerlaan","address":"Willem de Zwijgerlaan 50","city":"Oisterwijk","operatorName":"Vattenfall InCharge","maxPowerKw":11,"isMegawatt":false,"status":"AVAILABLE","source":"ndw"}},{"type":"Feature","geometry":{"type":"Point","coordinates":[5.175695,51.583162]},"properties":{"type":"charge","layer":"passenger","locationId":"f6280cdc-13e5-4b88-8e17-b0c10f6bd275","name":"Pannenschuurplein","address":"Pannenschuurplein 56","city":"Oisterwijk","operatorName":"Vattenfall InCharge","maxPowerKw":11,"isMegawatt":false,"status":"AVAILABLE","source":"ndw"}},{"type":"Feature","geometry":{"type":"Point","coordinates":[5.17151,51.53851]},"properties":{"type":"charge","layer":"passenger","locationId":"8097fff8-fc36-11ec-8863-42010aa4001d","name":"Eneco eMobility De Sonman 30 Moergestel","address":"De Sonman 30","city":"Moergestel","operatorName":"Eneco","maxPowerKw":22,"isMegawatt":false,"status":"AVAILABLE","source":"ndw"}},{"type":"Feature","geometry":{"type":"Point","coordinates":[5.190095,51.582033]},"properties":{"type":"charge","layer":"passenger","locationId":"2898310a-f5b0-11ed-b705-42010aa40fc0","name":"Lidl OISTERWIJK","address":"Almystraat","city":"Oisterwijk","operatorName":"Lidl","maxPowerKw":50,"isMegawatt":false,"status":"AVAILABLE","source":"ndw"}},{"type":"Feature","geometry":{"type":"Point","coordinates":[5.1714,51.54739]},"properties":{"type":"charge","layer":"passenger","locationId":"21bf969e21d7a1fd16c966188fa66d9c","name":"De Hoefkens 13","address":"De Hoefkens 13","city":"Moergestel","operatorName":"Vattenfall InCharge","maxPowerKw":11,"isMegawatt":false,"status":"AVAILABLE","source":"ndw"}},{"type":"Feature","geometry":{"type":"Point","coordinates":[5.175736,51.583402]},"properties":{"type":"charge","layer":"passenger","locationId":"6910233a-5f23-4268-a7ab-f7b13eba3ae0","name":"Rozemarijn","address":"Rozemarijn 10","city":"Oisterwijk","operatorName":"Vattenfall InCharge","maxPowerKw":11,"isMegawatt":false,"status":"AVAILABLE","source":"ndw"}},{"type":"Feature","geometry":{"type":"Point","coordinates":[5.182104,51.573296]},"properties":{"type":"charge","layer":"passenger","locationId":"99eb5926-1963-11f0-b243-42010aa400b8","name":"HealthCity Oisterwijk (PowerGo)","address":"Moergestelseweg 36","city":"Oisterwijk","operatorName":"PowerGo","maxPowerKw":0,"isMegawatt":false,"status":"AVAILABLE","source":"ndw"}},{"type":"Feature","geometry":{"type":"Point","coordinates":[5.210469,51.583902]},"properties":{"type":"charge","layer":"passenger","locationId":"b2f5589e-dfe5-45e8-9280-a9a3fbbe8c58","name":"Graafschap Megenstraat","address":"Graafschap Megenstraat 28","city":"Oisterwijk","operatorName":"Vattenfall InCharge","maxPowerKw":11,"isMegawatt":false,"status":"AVAILABLE","source":"ndw"}},{"type":"Feature","geometry":{"type":"Point","coordinates":[5.175897,51.585387]},"properties":{"type":"charge","layer":"passenger","locationId":"eab774e0-3083-4c46-a9d7-739a5d32b938","name":"Postelein","address":"Postelein 2","city":"Oisterwijk","operatorName":"Vattenfall InCharge","maxPowerKw":11,"isMegawatt":false,"status":"AVAILABLE","source":"ndw"}},{"type":"Feature","geometry":{"type":"Point","coordinates":[5.197085,51.583754]},"properties":{"type":"charge","layer":"passenger","locationId":"94489afe47ff406b8e7e","name":"Privilege Oisterwijk","address":"Schijfstraat 24","city":"Oisterwijk","operatorName":"Opcharge","maxPowerKw":22,"isMegawatt":false,"status":"AVAILABLE","source":"ndw"}},{"type":"Feature","geometry":{"type":"Point","coordinates":[5.187107,51.581331]},"properties":{"type":"charge","layer":"passenger","locationId":"90869951","name":"EQUANS Fletcher Fletcher Hotel-Restaurant Oisterwijk-Tilburg","address":"Fletcher Hotel-Restaurant Oisterwijk-Tilburg","city":"Oisterwijk","operatorName":"EQUANS","maxPowerKw":0,"isMegawatt":false,"status":"AVAILABLE","source":"ndw"}},{"type":"Feature","geometry":{"type":"Point","coordinates":[5.18869,51.57788]},"properties":{"type":"charge","layer":"passenger","locationId":"897be1b8-a318-44e9-a99f-573a16c55910","name":"Baerdijk 22","address":"Baerdijk 22","city":"Oisterwijk","operatorName":"Vattenfall InCharge","maxPowerKw":11,"isMegawatt":false,"status":"AVAILABLE","source":"ndw"}},{"type":"Feature","geometry":{"type":"Point","coordinates":[5.201546,51.581512]},"properties":{"type":"charge","layer":"passenger","locationId":"fd56c5d7-6418-427f-a38a-1608fb5f05c7","name":"peperstraat 10","address":"peperstraat 10","city":"Oisterwijk","operatorName":"Vattenfall InCharge","maxPowerKw":11,"isMegawatt":false,"status":"CHARGING","source":"ndw"}},{"type":"Feature","geometry":{"type":"Point","coordinates":[5.171341,51.580648]},"properties":{"type":"charge","layer":"passenger","locationId":"ef6d6b7d-2960-4e33-a0e4-5a23df89e347","name":"Bevrijdingsplein 3","address":"Bevrijdingsplein 3","city":"Oisterwijk","operatorName":"Vattenfall InCharge","maxPowerKw":11,"isMegawatt":false,"status":"AVAILABLE","source":"ndw"}},{"type":"Feature","geometry":{"type":"Point","coordinates":[5.197783,51.584661]},"properties":{"type":"charge","layer":"passenger","locationId":"1c0b51084b264e058fce","name":"Hotel de Leijhof Oisterwijk","address":"Heusdensebaan 7","city":"Oisterwijk","operatorName":"Opcharge","maxPowerKw":11,"isMegawatt":false,"status":"AVAILABLE","source":"ndw"}},{"type":"Feature","geometry":{"type":"Point","coordinates":[5.18609,51.580844]},"properties":{"type":"charge","layer":"passenger","locationId":"e9f9e4e3-d428-4df6-b748-87fbfecd9a9b","name":"Almystraat 44","address":"Almystraat 44","city":"Oisterwijk","operatorName":"Vattenfall InCharge","maxPowerKw":11,"isMegawatt":false,"status":"CHARGING","source":"ndw"}},{"type":"Feature","geometry":{"type":"Point","coordinates":[5.182722,51.544848]},"properties":{"type":"charge","layer":"passenger","locationId":"823b81d0-669b-41b7-a7b3-b9772746a5ac","name":"Kerkstraat","address":"Kerkstraat 13","city":"Moergestel","operatorName":"Vattenfall InCharge","maxPowerKw":11,"isMegawatt":false,"status":"AVAILABLE","source":"ndw"}},{"type":"Feature","geometry":{"type":"Point","coordinates":[5.19443,51.57858]},"properties":{"type":"charge","layer":"passenger","locationId":"359a93d5-f4f5-484a-a168-4de908988de0","name":"Burgemeester Verwielstraat","address":"Burgemeester Verwielstraat 47","city":"Oisterwijk","operatorName":"Vattenfall InCharge","maxPowerKw":11,"isMegawatt":false,"status":"AVAILABLE","source":"ndw"}},{"type":"Feature","geometry":{"type":"Point","coordinates":[5.178373,51.585712]},"properties":{"type":"charge","layer":"passenger","locationId":"2092db9f-7521-459d-a47f-d1a5689314c4","name":"Molenacker 92","address":"Molenacker 92","city":"Oisterwijk","operatorName":"Vattenfall InCharge","maxPowerKw":11,"isMegawatt":false,"status":"AVAILABLE","source":"ndw"}},{"type":"Feature","geometry":{"type":"Point","coordinates":[5.185543,51.573856]},"properties":{"type":"charge","layer":"passenger","locationId":"512f352c7e550ec05673ecba0d3b3e02","name":"Rembrandt van Rijnstraat 16","address":"Rembrandt van Rijnstraat 16","city":"Oisterwijk","operatorName":"Vattenfall InCharge","maxPowerKw":11,"isMegawatt":false,"status":"AVAILABLE","source":"ndw"}},{"type":"Feature","geometry":{"type":"Point","coordinates":[5.1821036,51.5732956]},"properties":{"type":"charge","layer":"passenger","locationId":"27966","name":"HealthCity Oisterwijk (PowerGo)","address":"Moergestelseweg 36","city":"Oisterwijk","operatorName":"PowerGo","maxPowerKw":0,"isMegawatt":false,"status":"AVAILABLE","source":"ndw"}},{"type":"Feature","geometry":{"type":"Point","coordinates":[5.187519,51.58332]},"properties":{"type":"charge","layer":"passenger","locationId":"a51736559224c03a2f3c475c7d291cc5","name":"Schaverij 12","address":"Schaverij 12","city":"Oisterwijk","operatorName":"Vattenfall InCharge","maxPowerKw":11,"isMegawatt":false,"status":"AVAILABLE","source":"ndw"}},{"type":"Feature","geometry":{"type":"Point","coordinates":[5.177992,51.540505]},"properties":{"type":"charge","layer":"passenger","locationId":"5f3a707c8995e797db9658fd6d2a6f75","name":"Pastoor van Den Boogaardstraat 38","address":"Pastoor van Den Boogaardstraat 38","city":"Moergestel","operatorName":"Vattenfall InCharge","maxPowerKw":11,"isMegawatt":false,"status":"AVAILABLE","source":"ndw"}},{"type":"Feature","geometry":{"type":"Point","coordinates":[5.190095,51.582033]},"properties":{"type":"charge","layer":"passenger","locationId":"9bf6e483-c702-4245-8415-843acada69f5","name":"Lidl OISTERWIJK","address":"Almystraat","city":"Oisterwijk","operatorName":"Lidl","maxPowerKw":50,"isMegawatt":false,"status":"AVAILABLE","source":"ndw"}},{"type":"Feature","geometry":{"type":"Point","coordinates":[5.1672,51.577807]},"properties":{"type":"charge","layer":"passenger","locationId":"4266600","name":"Laadnet Wim van Baaststraat","address":"Wim Van Baaststraat 3","city":"Oisterwijk","operatorName":"Laadnet","maxPowerKw":22,"isMegawatt":false,"status":"UNAVAILABLE","source":"ndw"}},{"type":"Feature","geometry":{"type":"Point","coordinates":[5.180528,51.58053]},"properties":{"type":"charge","layer":"passenger","locationId":"d7dfed0908f29eaf70d334051cc6e41c","name":"Den Herd 33","address":"Den Herd 33","city":"Oisterwijk","operatorName":"Vattenfall InCharge","maxPowerKw":11,"isMegawatt":false,"status":"AVAILABLE","source":"ndw"}},{"type":"Feature","geometry":{"type":"Point","coordinates":[5.22132,51.60655]},"properties":{"type":"charge","layer":"passenger","locationId":"a868e2b6f87f0dfccd6b9397702bc752","name":"Sleutelbloem 28","address":"Sleutelbloem 28","city":"Haaren","operatorName":"Vattenfall InCharge","maxPowerKw":11,"isMegawatt":false,"status":"AVAILABLE","source":"ndw"}},{"type":"Feature","geometry":{"type":"Point","coordinates":[5.219,51.60614]},"properties":{"type":"charge","layer":"passenger","locationId":"b31d2d6cb6ff62fab435539e264cf990","name":"Boterbloem 8","address":"Boterbloem 8","city":"Haaren","operatorName":"Vattenfall InCharge","maxPowerKw":11,"isMegawatt":false,"status":"AVAILABLE","source":"ndw"}},{"type":"Feature","geometry":{"type":"Point","coordinates":[5.18153,51.578459]},"properties":{"type":"charge","layer":"passenger","locationId":"7b738056-ccac-4110-bd18-05f82691fbad","name":"Pastoor van Beugenstraat 138","address":"Pastoor van Beugenstraat 138","city":"Oisterwijk","operatorName":"Vattenfall InCharge","maxPowerKw":11,"isMegawatt":false,"status":"AVAILABLE","source":"ndw"}},{"type":"Feature","geometry":{"type":"Point","coordinates":[5.177745,51.579992]},"properties":{"type":"charge","layer":"passenger","locationId":"e42a4a32-61f2-432a-b871-26d032dab9ec","name":"Langvennen-Zuid 19","address":"Langvennen-Zuid 19","city":"Oisterwijk","operatorName":"Vattenfall InCharge","maxPowerKw":11,"isMegawatt":false,"status":"AVAILABLE","source":"ndw"}},{"type":"Feature","geometry":{"type":"Point","coordinates":[5.170453,51.57919]},"properties":{"type":"charge","layer":"passenger","locationId":"41d18e0f-15d1-45e2-bf42-c2c4f66ffb23","name":"Gebroeders Schutstraat","address":"Gebroeders Schutstraat 3","city":"Oisterwijk","operatorName":"Vattenfall InCharge","maxPowerKw":11,"isMegawatt":false,"status":"AVAILABLE","source":"ndw"}},{"type":"Feature","geometry":{"type":"Point","coordinates":[5.190751,51.546846]},"properties":{"type":"charge","layer":"passenger","locationId":"88fef723-edfd-4da9-a86d-5386ba1331e6","name":"De Stappert","address":"De Stappert 32","city":"Moergestel","operatorName":"Vattenfall InCharge","maxPowerKw":11,"isMegawatt":false,"status":"AVAILABLE","source":"ndw"}},{"type":"Feature","geometry":{"type":"Point","coordinates":[5.187671,51.5862]},"properties":{"type":"charge","layer":"passenger","locationId":"6102b8774389eded9dd07408","name":"Borek parasols | outdoor furniture","address":"Bedrijfsweg 7","city":"Oisterwijk","operatorName":"E-Flux by Road","maxPowerKw":11,"isMegawatt":false,"status":"AVAILABLE","source":"ndw"}},{"type":"Feature","geometry":{"type":"Point","coordinates":[5.180389,51.573754]},"properties":{"type":"charge","layer":"passenger","locationId":"2eadad9b-a216-4291-a30e-abfcf0b743b8","name":"Moergestelseweg","address":"Moergestelseweg 28","city":"Oisterwijk","operatorName":"Vattenfall InCharge","maxPowerKw":11,"isMegawatt":false,"status":"AVAILABLE","source":"ndw"}},{"type":"Feature","geometry":{"type":"Point","coordinates":[5.231841,51.589263]},"properties":{"type":"charge","layer":"passenger","locationId":"682c7e98bcdc2e86aa18036c","name":"Kasteel Nemerlaer","address":"Kasteellaan 2","city":"HAAREN","operatorName":"E-Flux by Road","maxPowerKw":22,"isMegawatt":false,"status":"AVAILABLE","source":"ndw"}},{"type":"Feature","geometry":{"type":"Point","coordinates":[5.187671,51.5862]},"properties":{"type":"charge","layer":"passenger","locationId":"6102b8223292071941c8fccc","name":"Borek parasols | outdoor furniture","address":"Bedrijfsweg 7","city":"Oisterwijk","operatorName":"E-Flux by Road","maxPowerKw":11,"isMegawatt":false,"status":"AVAILABLE","source":"ndw"}},{"type":"Feature","geometry":{"type":"Point","coordinates":[5.215495,51.571572]},"properties":{"type":"charge","layer":"passenger","locationId":"3752ab3e-3159-11ec-82cb-42010a840003","name":"EQUANS Fletcher Fletcher Hotel-Restaurant Boschoord","address":"Gemullehoekenweg 143","city":"Oisterwijk","operatorName":"EQUANS","maxPowerKw":0,"isMegawatt":false,"status":"AVAILABLE","source":"ndw"}},{"type":"Feature","geometry":{"type":"Point","coordinates":[5.187107,51.581331]},"properties":{"type":"charge","layer":"passenger","locationId":"e7206dea-ab71-11ef-8903-42010aa400b8","name":"EQUANS Fletcher Fletcher Hotel-Restaurant Oisterwijk-Tilburg","address":"Fletcher Hotel-Restaurant Oisterwijk-Tilburg","city":"Oisterwijk","operatorName":"EQUANS","maxPowerKw":0,"isMegawatt":false,"status":"AVAILABLE","source":"ndw"}},{"type":"Feature","geometry":{"type":"Point","coordinates":[5.186789,51.546382]},"properties":{"type":"charge","layer":"passenger","locationId":"5ea4f118-f5b0-4281-b349-2388d0f41741","name":"Herengoedstraat 5","address":"Herengoedstraat 5","city":"Moergestel","operatorName":"Vattenfall InCharge","maxPowerKw":11,"isMegawatt":false,"status":"AVAILABLE","source":"ndw"}},{"type":"Feature","geometry":{"type":"Point","coordinates":[5.215495,51.571572]},"properties":{"type":"charge","layer":"passenger","locationId":"88334086","name":"EQUANS Fletcher Fletcher Hotel-Restaurant Boschoord","address":"Gemullehoekenweg 143","city":"Oisterwijk","operatorName":"EQUANS","maxPowerKw":0,"isMegawatt":false,"status":"AVAILABLE","source":"ndw"}},{"type":"Feature","geometry":{"type":"Point","coordinates":[5.194025,51.57653]},"properties":{"type":"charge","layer":"passenger","locationId":"99f789bc-b675-44af-b975-c3610b328c0c","name":"Dotterstraat 2","address":"Dotterstraat 2","city":"Oisterwijk","operatorName":"Vattenfall InCharge","maxPowerKw":11,"isMegawatt":false,"status":"AVAILABLE","source":"ndw"}},{"type":"Feature","geometry":{"type":"Point","coordinates":[5.174549,51.581156]},"properties":{"type":"charge","layer":"passenger","locationId":"025b9bc5-431d-4179-9422-c049d59a19ad","name":"Mark","address":"Mark 31","city":"Oisterwijk","operatorName":"Vattenfall InCharge","maxPowerKw":11,"isMegawatt":false,"status":"AVAILABLE","source":"ndw"}},{"type":"Feature","geometry":{"type":"Point","coordinates":[5.180301,51.538708]},"properties":{"type":"charge","layer":"passenger","locationId":"20ed74c0-20ea-4aec-b39d-663bebc7829c","name":"De Molenbeemd","address":"De Molenbeemd 18","city":"Moergestel","operatorName":"Vattenfall InCharge","maxPowerKw":11,"isMegawatt":false,"status":"AVAILABLE","source":"ndw"}},{"type":"Feature","geometry":{"type":"Point","coordinates":[5.178071,51.576013]},"properties":{"type":"charge","layer":"passenger","locationId":"45faa239-55f8-452f-bab7-0a0e243c8644","name":"Beukendreef","address":"Beukendreef 12","city":"Oisterwijk","operatorName":"Vattenfall InCharge","maxPowerKw":11,"isMegawatt":false,"status":"AVAILABLE","source":"ndw"}},{"type":"Feature","geometry":{"type":"Point","coordinates":[5.17151,51.53851]},"properties":{"type":"charge","layer":"passenger","locationId":"D95C9BF6-57D8-4CB8-9A00-0A9F53435AC4","name":"Eneco eMobility De Sonman 30 Moergestel","address":"De Sonman 30","city":"Moergestel","operatorName":"Eneco","maxPowerKw":22,"isMegawatt":false,"status":"AVAILABLE","source":"ndw"}},{"type":"Feature","geometry":{"type":"Point","coordinates":[5.22256,51.566099]},"properties":{"type":"charge","layer":"passenger","locationId":"67516d59b7ecc2d639d6deff","name":"Hotel Restaurant Grand Café Meneer Van Eijck","address":"Rosepdreef 4","city":"Oisterwijk","operatorName":"Pluq","maxPowerKw":11,"isMegawatt":false,"status":"AVAILABLE","source":"ndw"}},{"type":"Feature","geometry":{"type":"Point","coordinates":[5.186281,51.57862]},"properties":{"type":"charge","layer":"passenger","locationId":"1d3bbcc5-54c0-4d00-bf78-b0ebc48a986d","name":"Kerkstraat","address":"Kerkstraat 71C","city":"Oisterwijk","operatorName":"Vattenfall InCharge","maxPowerKw":11,"isMegawatt":false,"status":"AVAILABLE","source":"ndw"}},{"type":"Feature","geometry":{"type":"Point","coordinates":[5.189889,51.548155]},"properties":{"type":"charge","layer":"passenger","locationId":"2bdc5f94-5406-4605-8191-bbba04c48945","name":"De Voorbeemt","address":"De Voorbeemt 14","city":"Moergestel","operatorName":"Vattenfall InCharge","maxPowerKw":11,"isMegawatt":false,"status":"AVAILABLE","source":"ndw"}},{"type":"Feature","geometry":{"type":"Point","coordinates":[5.213176,51.584325]},"properties":{"type":"charge","layer":"passenger","locationId":"846bdf1c21d2ec9a12f0c8b8632cf19d","name":"Terburghtweg 174","address":"Terburghtweg 174","city":"Oisterwijk","operatorName":"Vattenfall InCharge","maxPowerKw":11,"isMegawatt":false,"status":"AVAILABLE","source":"ndw"}},{"type":"Feature","geometry":{"type":"Point","coordinates":[5.22951,51.601369]},"properties":{"type":"charge","layer":"passenger","locationId":"743866e0-a9cb-4e3c-99d7-b232a868cdd4","name":"Leypad","address":"Leypad 39","city":"Haaren","operatorName":"Vattenfall InCharge","maxPowerKw":11,"isMegawatt":false,"status":"AVAILABLE","source":"ndw"}},{"type":"Feature","geometry":{"type":"Point","coordinates":[5.197101,51.583599]},"properties":{"type":"charge","layer":"passenger","locationId":"623d97364e55357a6d77c875","name":"Privilege Oisterwijk","address":"Schifstraat 24","city":"Oisterwijk","operatorName":"E-Flux by Road","maxPowerKw":11,"isMegawatt":false,"status":"UNAVAILABLE","source":"ndw"}},{"type":"Feature","geometry":{"type":"Point","coordinates":[5.18043,51.57373]},"properties":{"type":"charge","layer":"passenger","locationId":"10120c535c0e284b148ce41e71ddb6c8","name":"Moergestelseweg 32","address":"Moergestelseweg 32","city":"Oisterwijk","operatorName":"Vattenfall InCharge","maxPowerKw":11,"isMegawatt":false,"status":"AVAILABLE","source":"ndw"}},{"type":"Feature","geometry":{"type":"Point","coordinates":[5.173326,51.584984]},"properties":{"type":"charge","layer":"passenger","locationId":"1567e2d2-2010-4deb-85ea-94ad55d9cd27","name":"Tijm","address":"Tijm 2","city":"Oisterwijk","operatorName":"Vattenfall InCharge","maxPowerKw":11,"isMegawatt":false,"status":"AVAILABLE","source":"ndw"}},{"type":"Feature","geometry":{"type":"Point","coordinates":[5.169352,51.580632]},"properties":{"type":"charge","layer":"passenger","locationId":"1e5e8eac-4622-468a-9c6b-63299d140490","name":"Langvennen-Noord","address":"Langvennen-Noord 121","city":"Oisterwijk","operatorName":"Vattenfall InCharge","maxPowerKw":11,"isMegawatt":false,"status":"AVAILABLE","source":"ndw"}},{"type":"Feature","geometry":{"type":"Point","coordinates":[5.198697,51.582796]},"properties":{"type":"charge","layer":"passenger","locationId":"4ed58fc0949b6728acb47238ba7657ff","name":"Spoorlaan 126","address":"Spoorlaan 126","city":"Oisterwijk","operatorName":"Vattenfall InCharge","maxPowerKw":11,"isMegawatt":false,"status":"AVAILABLE","source":"ndw"}},{"type":"Feature","geometry":{"type":"Point","coordinates":[5.197746,51.584631]},"properties":{"type":"charge","layer":"passenger","locationId":"62026f5051b13d6d66624a52","name":"Hotel de Leijhof Oisterwijk","address":"Heusdensebaan 7","city":"Oisterwijk","operatorName":"E-Flux by Road","maxPowerKw":22,"isMegawatt":false,"status":"UNAVAILABLE","source":"ndw"}},{"type":"Feature","geometry":{"type":"Point","coordinates":[5.194555,51.581941]},"properties":{"type":"charge","layer":"passenger","locationId":"6a815e95411d3cccd90af4137f6925f1","name":"Stationsplein 1","address":"Stationsplein 1","city":"Oisterwijk","operatorName":"Vattenfall InCharge","maxPowerKw":11,"isMegawatt":false,"status":"AVAILABLE","source":"ndw"}},{"type":"Feature","geometry":{"type":"Point","coordinates":[5.195864,51.582103]},"properties":{"type":"charge","layer":"passenger","locationId":"69131457f89b8d628fb9043c","name":"Spoorlaan Oisterwijk","address":"Spoorlaan 74a","city":"Oisterwijk","operatorName":"E-Flux by Road","maxPowerKw":11,"isMegawatt":false,"status":"AVAILABLE","source":"ndw"}},{"type":"Feature","geometry":{"type":"Point","coordinates":[5.172995,51.579341]},"properties":{"type":"charge","layer":"passenger","locationId":"a3e3ec1b-cf96-429f-aa25-dd934d1fac65","name":"Dieze","address":"Dieze 38","city":"Oisterwijk","operatorName":"Vattenfall InCharge","maxPowerKw":11,"isMegawatt":false,"status":"AVAILABLE","source":"ndw"}},{"type":"Feature","geometry":{"type":"Point","coordinates":[5.192709,51.584535]},"properties":{"type":"charge","layer":"passenger","locationId":"922581","name":"Unilin Oisterwijk","address":"Beneluxstraat 1","city":"Oisterwijk","operatorName":"MobilityPlus","maxPowerKw":22,"isMegawatt":false,"status":"AVAILABLE","source":"ndw"}},{"type":"Feature","geometry":{"type":"Point","coordinates":[5.204983,51.582189]},"properties":{"type":"charge","layer":"passenger","locationId":"355cf3760a2831423317b86ff46b7784","name":"Reli 1","address":"Reli 1","city":"Oisterwijk","operatorName":"Vattenfall InCharge","maxPowerKw":11,"isMegawatt":false,"status":"AVAILABLE","source":"ndw"}},{"type":"Feature","geometry":{"type":"Point","coordinates":[5.191094,51.581801]},"properties":{"type":"charge","layer":"passenger","locationId":"4c4f6c68-587c-4ece-8631-95a34a2d599e","name":"Schijfstraat 7","address":"Schijfstraat 7","city":"Oisterwijk","operatorName":"Vattenfall InCharge","maxPowerKw":11,"isMegawatt":false,"status":"CHARGING","source":"ndw"}},{"type":"Feature","geometry":{"type":"Point","coordinates":[5.224721,51.601769]},"properties":{"type":"charge","layer":"passenger","locationId":"4268632e-a035-419a-be04-c3a4e3d62b52","name":"Haarensteijnstraat","address":"Haarensteijnstraat 2","city":"Haaren","operatorName":"Vattenfall InCharge","maxPowerKw":11,"isMegawatt":false,"status":"AVAILABLE","source":"ndw"}},{"type":"Feature","geometry":{"type":"Point","coordinates":[5.168368,51.578297]},"properties":{"type":"charge","layer":"passenger","locationId":"7af2edfa-3830-4cc2-a01c-1819376b46af","name":"Jopie Smuldersstraat","address":"Jopie Smuldersstraat 31","city":"Oisterwijk","operatorName":"Vattenfall InCharge","maxPowerKw":11,"isMegawatt":false,"status":"AVAILABLE","source":"ndw"}},{"type":"Feature","geometry":{"type":"Point","coordinates":[5.17751,51.574263]},"properties":{"type":"charge","layer":"passenger","locationId":"4191ce28-020d-489f-aca9-26ce9d84179e","name":"'t Seuverick","address":"'t Seuverick 4","city":"Oisterwijk","operatorName":"Vattenfall InCharge","maxPowerKw":11,"isMegawatt":false,"status":"AVAILABLE","source":"ndw"}},{"type":"Feature","geometry":{"type":"Point","coordinates":[5.192345,51.580999]},"properties":{"type":"charge","layer":"passenger","locationId":"364ecf0c-16a9-48f3-8e8b-882354785158","name":"Spoorlaan","address":"Spoorlaan 30","city":"Oisterwijk","operatorName":"Vattenfall InCharge","maxPowerKw":11,"isMegawatt":false,"status":"AVAILABLE","source":"ndw"}},{"type":"Feature","geometry":{"type":"Point","coordinates":[5.186502,51.574482]},"properties":{"type":"charge","layer":"passenger","locationId":"67d3d693-abb1-4498-b4f0-d3c4d4302392","name":"Frans Halsstraat","address":"Frans Halsstraat 15","city":"Oisterwijk","operatorName":"Vattenfall InCharge","maxPowerKw":11,"isMegawatt":false,"status":"AVAILABLE","source":"ndw"}},{"type":"Feature","geometry":{"type":"Point","coordinates":[5.194288,51.579535]},"properties":{"type":"charge","layer":"passenger","locationId":"b9cce17e2657fa83f8da804f7dd16ae4","name":"Burgemeester Verwielstraat 10","address":"Burgemeester Verwielstraat 10","city":"Oisterwijk","operatorName":"Vattenfall InCharge","maxPowerKw":11,"isMegawatt":false,"status":"AVAILABLE","source":"ndw"}},{"type":"Feature","geometry":{"type":"Point","coordinates":[5.179669,51.578741]},"properties":{"type":"charge","layer":"passenger","locationId":"a70662b3-1ef6-40eb-8b0d-9e3854d625a2","name":"Pastoor van der Meijdenstraat","address":"Pastoor van der Meijdenstraat 55","city":"Oisterwijk","operatorName":"Vattenfall InCharge","maxPowerKw":11,"isMegawatt":false,"status":"AVAILABLE","source":"ndw"}},{"type":"Feature","geometry":{"type":"Point","coordinates":[5.189227,51.573126]},"properties":{"type":"charge","layer":"passenger","locationId":"ef1c2384-70cd-478d-b55b-84a461413c56","name":"Burgemeester Vogelslaan","address":"Burgemeester Vogelslaan 74","city":"Oisterwijk","operatorName":"Vattenfall InCharge","maxPowerKw":11,"isMegawatt":false,"status":"AVAILABLE","source":"ndw"}},{"type":"Feature","geometry":{"type":"Point","coordinates":[5.182103,51.542439]},"properties":{"type":"charge","layer":"passenger","locationId":"0ba89ef4-4126-41a5-9bff-a58aaea88fc4","name":"Korenschuur","address":"Korenschuur 26","city":"Moergestel","operatorName":"Vattenfall InCharge","maxPowerKw":11,"isMegawatt":false,"status":"AVAILABLE","source":"ndw"}},{"type":"Feature","geometry":{"type":"Point","coordinates":[5.208513,51.581374]},"properties":{"type":"charge","layer":"passenger","locationId":"1ccd487ef36c15d9fc331a3b05b07109","name":"Waterhoefweg 21","address":"Waterhoefweg 21","city":"Oisterwijk","operatorName":"Vattenfall InCharge","maxPowerKw":11,"isMegawatt":false,"status":"AVAILABLE","source":"ndw"}},{"type":"Feature","geometry":{"type":"Point","coordinates":[5.217174,51.601609]},"properties":{"type":"charge","layer":"passenger","locationId":"9993c255-8d57-45db-bb06-7b6a8b16af81","name":"Klaver 16","address":"Klaver 16","city":"Haaren","operatorName":"Vattenfall InCharge","maxPowerKw":11,"isMegawatt":false,"status":"AVAILABLE","source":"ndw"}},{"type":"Feature","geometry":{"type":"Point","coordinates":[5.181587,51.579965]},"properties":{"type":"charge","layer":"passenger","locationId":"ca77970d-c697-4ac7-a587-73e98d3f5840","name":"Den Deel","address":"Den Deel 35","city":"Oisterwijk","operatorName":"Vattenfall InCharge","maxPowerKw":11,"isMegawatt":false,"status":"AVAILABLE","source":"ndw"}},{"type":"Feature","geometry":{"type":"Point","coordinates":[5.198566,51.580308]},"properties":{"type":"charge","layer":"passenger","locationId":"499ec34de724d3db60aa052ad5b16fd1","name":"De Balbian Versterlaan 2A","address":"De Balbian Versterlaan 2A","city":"Oisterwijk","operatorName":"Vattenfall InCharge","maxPowerKw":11,"isMegawatt":false,"status":"CHARGING","source":"ndw"}},{"type":"Feature","geometry":{"type":"Point","coordinates":[5.211809,51.582747]},"properties":{"type":"charge","layer":"passenger","locationId":"ddbbc38557b536449b466d693d5bf647","name":"Waterhoefweg 59","address":"Waterhoefweg 59","city":"Oisterwijk","operatorName":"Vattenfall InCharge","maxPowerKw":11,"isMegawatt":false,"status":"AVAILABLE","source":"ndw"}},{"type":"Feature","geometry":{"type":"Point","coordinates":[5.204116,51.583284]},"properties":{"type":"charge","layer":"passenger","locationId":"fd805d92-1e1b-4f94-91d4-3e374ea7e4ae","name":"Boxtelsebaan","address":"Boxtelsebaan 73","city":"Oisterwijk","operatorName":"Vattenfall InCharge","maxPowerKw":11,"isMegawatt":false,"status":"AVAILABLE","source":"ndw"}},{"type":"Feature","geometry":{"type":"Point","coordinates":[5.211771,51.585005]},"properties":{"type":"charge","layer":"passenger","locationId":"e64de5785c751f391757754f9352aedf","name":"Graafschap Bokhovenstraat 36","address":"Graafschap Bokhovenstraat 36","city":"Oisterwijk","operatorName":"Vattenfall InCharge","maxPowerKw":11,"isMegawatt":false,"status":"AVAILABLE","source":"ndw"}},{"type":"Feature","geometry":{"type":"Point","coordinates":[5.208008,51.58035]},"properties":{"type":"charge","layer":"passenger","locationId":"912ffa80-8242-4a46-abec-649e54fae8ee","name":"Esschebaan","address":"Esschebaan 50a","city":"Oisterwijk","operatorName":"Vattenfall InCharge","maxPowerKw":11,"isMegawatt":false,"status":"AVAILABLE","source":"ndw"}},{"type":"Feature","geometry":{"type":"Point","coordinates":[5.185997,51.582466]},"properties":{"type":"charge","layer":"passenger","locationId":"30015488-8557-42f2-b0c3-43276561e13c","name":"Laan Van KVL","address":"Laan Van KVL 42","city":"Oisterwijk","operatorName":"Vattenfall InCharge","maxPowerKw":11,"isMegawatt":false,"status":"CHARGING","source":"ndw"}},{"type":"Feature","geometry":{"type":"Point","coordinates":[5.201464,51.580166]},"properties":{"type":"charge","layer":"passenger","locationId":"c0b31428-49d0-43b7-88c3-bb8a85d40dd9","name":"Gemullehoekenweg","address":"Gemullehoekenweg 33","city":"Oisterwijk","operatorName":"Vattenfall InCharge","maxPowerKw":11,"isMegawatt":false,"status":"AVAILABLE","source":"ndw"}},{"type":"Feature","geometry":{"type":"Point","coordinates":[5.178673,51.570436]},"properties":{"type":"charge","layer":"passenger","locationId":"f794ad80-95de-447e-8f1e-0a0c661ffa56","name":"Sportlaan","address":"Sportlaan 12","city":"Oisterwijk","operatorName":"Vattenfall InCharge","maxPowerKw":11,"isMegawatt":false,"status":"AVAILABLE","source":"ndw"}},{"type":"Feature","geometry":{"type":"Point","coordinates":[5.19571,51.578085]},"properties":{"type":"charge","layer":"passenger","locationId":"92e56bf85ab3eabc20b916e1ff57fd05","name":"Lindeparklaan  3","address":"Lindeparklaan  3","city":"Oisterwijk","operatorName":"Vattenfall InCharge","maxPowerKw":11,"isMegawatt":false,"status":"AVAILABLE","source":"ndw"}},{"type":"Feature","geometry":{"type":"Point","coordinates":[5.18235,51.545163]},"properties":{"type":"charge","layer":"passenger","locationId":"aefd4b05-68ef-411c-beef-37f91ebf9c72","name":"Raadhuisstraat","address":"Raadhuisstraat 3","city":"Moergestel","operatorName":"Vattenfall InCharge","maxPowerKw":11,"isMegawatt":false,"status":"AVAILABLE","source":"ndw"}},{"type":"Feature","geometry":{"type":"Point","coordinates":[5.197971,51.577845]},"properties":{"type":"charge","layer":"passenger","locationId":"58eb8060-f959-47c5-bf0f-ae32fbc5e9b7","name":"Dokter Schräderlaan","address":"Dokter Schräderlaan 2","city":"Oisterwijk","operatorName":"Vattenfall InCharge","maxPowerKw":11,"isMegawatt":false,"status":"CHARGING","source":"ndw"}},{"type":"Feature","geometry":{"type":"Point","coordinates":[5.174665,51.576169]},"properties":{"type":"charge","layer":"passenger","locationId":"dd2e6975-17f8-4f37-9314-325e62b4d5da","name":"Pr. Beatrixstraat 48","address":"Pr. Beatrixstraat 48","city":"Oisterwijk","operatorName":"Vattenfall InCharge","maxPowerKw":11,"isMegawatt":false,"status":"AVAILABLE","source":"ndw"}},{"type":"Feature","geometry":{"type":"Point","coordinates":[5.183904,51.580128]},"properties":{"type":"charge","layer":"passenger","locationId":"9ca11c6e-517a-4859-aa77-92060bb7833c","name":"t Schop","address":"t Schop 124","city":"Oisterwijk","operatorName":"Vattenfall InCharge","maxPowerKw":11,"isMegawatt":false,"status":"AVAILABLE","source":"ndw"}},{"type":"Feature","geometry":{"type":"Point","coordinates":[5.174985,51.574036]},"properties":{"type":"charge","layer":"passenger","locationId":"eb8bf9a0-4d7f-4e2e-b33b-d9997e007e7b","name":"Prunusstraat 67","address":"Prunusstraat 67","city":"Oisterwijk","operatorName":"Vattenfall InCharge","maxPowerKw":11,"isMegawatt":false,"status":"AVAILABLE","source":"ndw"}},{"type":"Feature","geometry":{"type":"Point","coordinates":[5.174552,51.581421]},"properties":{"type":"charge","layer":"passenger","locationId":"5ca2e4ab-de2f-4b50-a4b4-970bd2d247e3","name":"Zoom","address":"Zoom 55","city":"Oisterwijk","operatorName":"Vattenfall InCharge","maxPowerKw":11,"isMegawatt":false,"status":"AVAILABLE","source":"ndw"}},{"type":"Feature","geometry":{"type":"Point","coordinates":[5.180535,51.584402]},"properties":{"type":"charge","layer":"passenger","locationId":"ff215f51-ad35-4e0f-a2a0-5f1aec7e808a","name":"Zandacker","address":"Zandacker 3","city":"Oisterwijk","operatorName":"Vattenfall InCharge","maxPowerKw":11,"isMegawatt":false,"status":"AVAILABLE","source":"ndw"}},{"type":"Feature","geometry":{"type":"Point","coordinates":[5.181884,51.583331]},"properties":{"type":"charge","layer":"passenger","locationId":"d9ece925-ecff-456a-9ba8-0061bf253c6d","name":"De Schouw","address":"De Schouw 52","city":"Oisterwijk","operatorName":"Vattenfall InCharge","maxPowerKw":11,"isMegawatt":false,"status":"AVAILABLE","source":"ndw"}},{"type":"Feature","geometry":{"type":"Point","coordinates":[5.19392,51.57946]},"properties":{"type":"charge","layer":"passenger","locationId":"c205c4ff-7495-4d80-be7e-dda0d43b638a","name":"Vloeiweg","address":"Vloeiweg 6","city":"Oisterwijk","operatorName":"Vattenfall InCharge","maxPowerKw":11,"isMegawatt":false,"status":"AVAILABLE","source":"ndw"}},{"type":"Feature","geometry":{"type":"Point","coordinates":[5.210548,51.582269]},"properties":{"type":"charge","layer":"passenger","locationId":"27a6455ebe002fc068f317b5ba38f617","name":"Brouwerstraat 27","address":"Brouwerstraat 27","city":"Oisterwijk","operatorName":"Vattenfall InCharge","maxPowerKw":11,"isMegawatt":false,"status":"CHARGING","source":"ndw"}},{"type":"Feature","geometry":{"type":"Point","coordinates":[5.20426,51.57862]},"properties":{"type":"charge","layer":"passenger","locationId":"681aa001-3c04-4344-b40f-a86f00276bff","name":"Gemullehoekenweg 69","address":"Gemullehoekenweg 69","city":"Oisterwijk","operatorName":"Vattenfall InCharge","maxPowerKw":11,"isMegawatt":false,"status":"AVAILABLE","source":"ndw"}},{"type":"Feature","geometry":{"type":"Point","coordinates":[5.173954,51.586728]},"properties":{"type":"charge","layer":"passenger","locationId":"e95eff3e22a022e5562409f205c04bdd","name":"Molenwiek 8","address":"Molenwiek 8","city":"Oisterwijk","operatorName":"Vattenfall InCharge","maxPowerKw":22,"isMegawatt":false,"status":"AVAILABLE","source":"ndw"}},{"type":"Feature","geometry":{"type":"Point","coordinates":[5.18642,51.57987]},"properties":{"type":"charge","layer":"passenger","locationId":"e2339e0b-03fd-410f-8804-9d7fe7c559ed","name":"Hoogstraat","address":"Hoogstraat 103","city":"Oisterwijk","operatorName":"Vattenfall InCharge","maxPowerKw":11,"isMegawatt":false,"status":"AVAILABLE","source":"ndw"}},{"type":"Feature","geometry":{"type":"Point","coordinates":[5.218503,51.59683]},"properties":{"type":"charge","layer":"passenger","locationId":"7f1240711aa4593a4ff17e671e35e580","name":"De Tiend 43","address":"De Tiend 43","city":"Haaren","operatorName":"Vattenfall InCharge","maxPowerKw":11,"isMegawatt":false,"status":"AVAILABLE","source":"ndw"}},{"type":"Feature","geometry":{"type":"Point","coordinates":[5.189125,51.580925]},"properties":{"type":"charge","layer":"passenger","locationId":"709fb5f2-8423-40b0-887c-7da6e4be2fad","name":"Hoogstraat","address":"Hoogstraat 38","city":"Oisterwijk","operatorName":"Vattenfall InCharge","maxPowerKw":11,"isMegawatt":false,"status":"AVAILABLE","source":"ndw"}},{"type":"Feature","geometry":{"type":"Point","coordinates":[5.171185,51.573897]},"properties":{"type":"charge","layer":"passenger","locationId":"67b3a7a4-0f9d-405b-842b-b891bad5e58a","name":"Telstarlaan","address":"Telstarlaan 35","city":"Oisterwijk","operatorName":"Vattenfall InCharge","maxPowerKw":11,"isMegawatt":false,"status":"AVAILABLE","source":"ndw"}},{"type":"Feature","geometry":{"type":"Point","coordinates":[5.223835,51.598351]},"properties":{"type":"charge","layer":"passenger","locationId":"a9849716-0c29-4362-af5d-6bc2160a3716","name":"Sportlaantje","address":"Sportlaantje 7","city":"Haaren","operatorName":"Vattenfall InCharge","maxPowerKw":11,"isMegawatt":false,"status":"AVAILABLE","source":"ndw"}},{"type":"Feature","geometry":{"type":"Point","coordinates":[5.201623,51.580184]},"properties":{"type":"charge","layer":"passenger","locationId":"b37cfcb474344cf17f61630e70924f9f","name":"Gemullehoekenweg 31","address":"Gemullehoekenweg 31","city":"Oisterwijk","operatorName":"Vattenfall InCharge","maxPowerKw":11,"isMegawatt":false,"status":"AVAILABLE","source":"ndw"}},{"type":"Feature","geometry":{"type":"Point","coordinates":[5.18263,51.53893]},"properties":{"type":"charge","layer":"passenger","locationId":"47912365ba7917238716997a83905700","name":"Regenbeemdeke 6","address":"Regenbeemdeke 6","city":"Moergestel","operatorName":"Vattenfall InCharge","maxPowerKw":11,"isMegawatt":false,"status":"AVAILABLE","source":"ndw"}},{"type":"Feature","geometry":{"type":"Point","coordinates":[5.214833,51.553039]},"properties":{"type":"charge","layer":"passenger","locationId":"68ecab40f442a2ba57057436","name":"Bottelroos station","address":"Zandstraat  16a","city":"Moergestel","operatorName":"E-Flux by Road","maxPowerKw":11,"isMegawatt":false,"status":"AVAILABLE","source":"ndw"}},{"type":"Feature","geometry":{"type":"Point","coordinates":[5.17496,51.578199]},"properties":{"type":"charge","layer":"passenger","locationId":"31849cb2-69e0-45f4-800b-3380bf74b22c","name":"Kasteelloop","address":"Kasteelloop 10","city":"Oisterwijk","operatorName":"Vattenfall InCharge","maxPowerKw":11,"isMegawatt":false,"status":"AVAILABLE","source":"ndw"}},{"type":"Feature","geometry":{"type":"Point","coordinates":[5.196341,51.581619]},"properties":{"type":"charge","layer":"passenger","locationId":"69d562fe1528b3f918e4f3e8","name":"Tuinweg 14A","address":"Tuinweg  14-A","city":"Oisterwijk","operatorName":"E-Flux by Road","maxPowerKw":22,"isMegawatt":false,"status":"AVAILABLE","source":"ndw"}},{"type":"Feature","geometry":{"type":"Point","coordinates":[5.181326,51.574005]},"properties":{"type":"charge","layer":"passenger","locationId":"e23ce584-d645-4a0d-8d3e-f9000ad7ffb9","name":"Moergestelseweg","address":"Moergestelseweg 26","city":"Oisterwijk","operatorName":"Vattenfall InCharge","maxPowerKw":11,"isMegawatt":false,"status":"AVAILABLE","source":"ndw"}},{"type":"Feature","geometry":{"type":"Point","coordinates":[5.194495,51.581925]},"properties":{"type":"charge","layer":"passenger","locationId":"bf0e7ab6-914f-4fc9-b642-3d4503806b6f","name":"Stationsplein","address":"Stationsplein 1","city":"Oisterwijk","operatorName":"Vattenfall InCharge","maxPowerKw":11,"isMegawatt":false,"status":"AVAILABLE","source":"ndw"}},{"type":"Feature","geometry":{"type":"Point","coordinates":[5.200971,51.583663]},"properties":{"type":"charge","layer":"passenger","locationId":"77a6c990-2b2c-4f1f-bca3-d2d8dcaac9bd","name":"Nicolaas van Eschstraat","address":"Nicolaas van Eschstraat 14","city":"Oisterwijk","operatorName":"Vattenfall InCharge","maxPowerKw":11,"isMegawatt":false,"status":"AVAILABLE","source":"ndw"}},{"type":"Feature","geometry":{"type":"Point","coordinates":[5.224528,51.608249]},"properties":{"type":"charge","layer":"passenger","locationId":"03fb9f68749f205b1438ce3a728e6e4f","name":"Handboogstraat 9","address":"Handboogstraat 9","city":"Haaren","operatorName":"Vattenfall InCharge","maxPowerKw":11,"isMegawatt":false,"status":"AVAILABLE","source":"ndw"}},{"type":"Feature","geometry":{"type":"Point","coordinates":[5.207872,51.576312]},"properties":{"type":"charge","layer":"passenger","locationId":"e453795b228f8828e3a061e6a7fb667f","name":"Gemullehoekenweg 121","address":"Gemullehoekenweg 121","city":"Oisterwijk","operatorName":"Vattenfall InCharge","maxPowerKw":11,"isMegawatt":false,"status":"AVAILABLE","source":"ndw"}},{"type":"Feature","geometry":{"type":"Point","coordinates":[5.174835,51.57317]},"properties":{"type":"charge","layer":"passenger","locationId":"3b89e3c3-130c-4dfa-9017-3e235e7b18bf","name":"Kastanjestraat 2","address":"Kastanjestraat 2","city":"Oisterwijk","operatorName":"Vattenfall InCharge","maxPowerKw":11,"isMegawatt":false,"status":"AVAILABLE","source":"ndw"}},{"type":"Feature","geometry":{"type":"Point","coordinates":[5.188615,51.546513]},"properties":{"type":"charge","layer":"passenger","locationId":"86ff0e6a-6063-4348-8c73-9209be387a6f","name":"Hofakker","address":"Hofakker 20","city":"Moergestel","operatorName":"Vattenfall InCharge","maxPowerKw":11,"isMegawatt":false,"status":"AVAILABLE","source":"ndw"}},{"type":"Feature","geometry":{"type":"Point","coordinates":[5.180489,51.584958]},"properties":{"type":"charge","layer":"passenger","locationId":"8f74bb15-b593-4407-ae11-7fef71e6ff56","name":"Zandacker","address":"Zandacker 82","city":"Oisterwijk","operatorName":"Vattenfall InCharge","maxPowerKw":11,"isMegawatt":false,"status":"AVAILABLE","source":"ndw"}},{"type":"Feature","geometry":{"type":"Point","coordinates":[5.18163,51.58112]},"properties":{"type":"charge","layer":"passenger","locationId":"846fee79-ea83-4437-9a2f-b6df889965c0","name":"Udenhoutseweg","address":"Udenhoutseweg 26","city":"Oisterwijk","operatorName":"Vattenfall InCharge","maxPowerKw":11,"isMegawatt":false,"status":"AVAILABLE","source":"ndw"}},{"type":"Feature","geometry":{"type":"Point","coordinates":[5.178875,51.581384]},"properties":{"type":"charge","layer":"passenger","locationId":"14274a14-1874-4e86-9faf-8d5a8f9f30d5","name":"Akkerstraat ","address":"Akkerstraat  33","city":"Oisterwijk","operatorName":"Vattenfall InCharge","maxPowerKw":11,"isMegawatt":false,"status":"AVAILABLE","source":"ndw"}},{"type":"Feature","geometry":{"type":"Point","coordinates":[5.225992,51.599237]},"properties":{"type":"charge","layer":"passenger","locationId":"93baf02758e2c863dcdbfcbb3ad8cf83","name":"Amerlaan 16","address":"Amerlaan 16","city":"Haaren","operatorName":"Vattenfall InCharge","maxPowerKw":11,"isMegawatt":false,"status":"AVAILABLE","source":"ndw"}},{"type":"Feature","geometry":{"type":"Point","coordinates":[5.19869,51.580519]},"properties":{"type":"charge","layer":"passenger","locationId":"3de7f75f-2b91-4397-8f4c-0e73a61b9290","name":"De Lind","address":"De Lind 44","city":"Oisterwijk","operatorName":"Vattenfall InCharge","maxPowerKw":11,"isMegawatt":false,"status":"AVAILABLE","source":"ndw"}},{"type":"Feature","geometry":{"type":"Point","coordinates":[5.200883,51.585308]},"properties":{"type":"charge","layer":"passenger","locationId":"8c096814546d33eeb97282adcdacda28","name":"George Perklaan 10","address":"George Perklaan 10","city":"Oisterwijk","operatorName":"Vattenfall InCharge","maxPowerKw":11,"isMegawatt":false,"status":"AVAILABLE","source":"ndw"}},{"type":"Feature","geometry":{"type":"Point","coordinates":[5.226236,51.600103]},"properties":{"type":"charge","layer":"passenger","locationId":"f408061d-3063-45a2-b09b-37733f03f1e8","name":"Langeweg","address":"Langeweg 2","city":"Haaren","operatorName":"Vattenfall InCharge","maxPowerKw":11,"isMegawatt":false,"status":"AVAILABLE","source":"ndw"}},{"type":"Feature","geometry":{"type":"Point","coordinates":[5.198874,51.582861]},"properties":{"type":"charge","layer":"passenger","locationId":"acadb88e-76e9-4165-abbd-9855b4223f88","name":"Spoorlaan","address":"Spoorlaan 126","city":"Oisterwijk","operatorName":"Vattenfall InCharge","maxPowerKw":11,"isMegawatt":false,"status":"UNAVAILABLE","source":"ndw"}},{"type":"Feature","geometry":{"type":"Point","coordinates":[5.1675,51.577257]},"properties":{"type":"charge","layer":"passenger","locationId":"cc3436579372532ddd0fb5e9916aeaba","name":"Kapelaan Sleegersstraat 37","address":"Kapelaan Sleegersstraat 37","city":"Oisterwijk","operatorName":"Vattenfall InCharge","maxPowerKw":11,"isMegawatt":false,"status":"AVAILABLE","source":"ndw"}},{"type":"Feature","geometry":{"type":"MultiPolygon","coordinates":[[[[5.263999819331171,51.61822957573141],[5.268820141246467,51.61253759715311],[5.269238917787711,51.60960857541457],[5.275220530335009,51.607841629097166],[5.278742948360492,51.604790320648306],[5.275663896528776,51.60440533679296],[5.268812765237137,51.600967005140475],[5.262196017737788,51.59935002824709],[5.2554517051515015,51.59347265580417],[5.247941601988516,51.58979800879084],[5.247240730928643,51.587040356468215],[5.247206859523981,51.58677971621884],[5.24617700068087,51.579478013845346],[5.2614538276933995,51.56113030665495],[5.264411611489536,51.55796925764301],[5.26889923801276,51.55372649887949],[5.273270105355911,51.552820664675735],[5.271931790645012,51.549806867942806],[5.277486490878989,51.54873659115498],[5.276883589443844,51.544863057614435],[5.26986126069765,51.54620903478949],[5.26130414059856,51.540687518227394],[5.2533298104466875,51.540332569762676],[5.249494591728113,51.531635528384385],[5.24400594745157,51.525750528916426],[5.234790495466757,51.53099426447807],[5.2308428921555254,51.520937235888326],[5.224433944023553,51.517148353164096],[5.214731521516207,51.51172617179081],[5.203708613537987,51.510092139329515],[5.195400455126211,51.5097327901984],[5.190587667119335,51.50758794634543],[5.18425410960759,51.507958848386195],[5.183858250019418,51.508746456219264],[5.1793053081856835,51.50859755024681],[5.17658188636663,51.51121461594963],[5.173853328173452,51.51049174206576],[5.170206448433224,51.511135202886614],[5.163496491607868,51.51539178311629],[5.15236191470793,51.52107884601874],[5.149204174228737,51.52342167228293],[5.144965699536292,51.521493642872684],[5.13019540015261,51.53029774634664],[5.1354510139324665,51.533579958429115],[5.13365561461767,51.534999205066185],[5.141880201260871,51.54209199940462],[5.138694109605712,51.5459559942865],[5.14382411464923,51.546225903138975],[5.147469085711705,51.54680998613853],[5.147835233617384,51.54711781438986],[5.1411608204490395,51.54953090659436],[5.139119637487781,51.55069604168664],[5.137566459059205,51.55207684191575],[5.137871828759624,51.55909075100599],[5.139138188260702,51.5613209895599],[5.137837454059262,51.563199219676086],[5.1426782762200896,51.57036624170613],[5.1449636513811265,51.57387572461348],[5.14551939166142,51.57450544853993],[5.147486170773215,51.57556901167383],[5.147164433426567,51.57680480976986],[5.148768902911102,51.577713118530916],[5.15075956678404,51.580097757221864],[5.159637195822708,51.58556310957249],[5.161439160171106,51.58667142642053],[5.170304170644946,51.592241057493695],[5.179538500788066,51.59766431486776],[5.186883788055172,51.60175056649207],[5.1889494827678115,51.60357175499239],[5.202033761613726,51.61147696832634],[5.210710925641786,51.61558825980472],[5.222394870120227,51.62184374662245],[5.222009774154239,51.619747953512615],[5.22395370949458,51.61830682108956],[5.2241141503485,51.616438997470475],[5.225928205411683,51.61595831229161],[5.2281919355363735,51.61588899670912],[5.236939819063761,51.618136957027644],[5.237585736539425,51.61896643912077],[5.239915054724388,51.61882497297352],[5.241983917896316,51.617923739046844],[5.242374085996205,51.617988463352525],[5.244371847123919,51.61854958313179],[5.2466684467656535,51.620833933940844],[5.2461709247196255,51.62265452461461],[5.255499058370429,51.624928260096894],[5.260419603506128,51.62110213991828],[5.263999819331171,51.61822957573141]]]]},"properties":{"type":"boundary","gemeente":"Oisterwijk","code":"GM0824"}}]}