{"type":"FeatureCollection","metadata":{"gemeente":"Oldambt","slug":"oldambt","code":"GM1895","generated_at":"2026-06-02T13:19:22.438Z","total_passenger":150,"total_freight":0,"bounds":[6.903730406899463,53.11083275138187,7.227498008442701,53.26713025281454],"operators":["Allego","Alva Charging Services","E-Flux by Road","EQUANS","Fastned","Lanova Laadpalen","Mobiflow"]},"features":[{"type":"Feature","geometry":{"type":"Point","coordinates":[7.02726,53.137091]},"properties":{"type":"charge","layer":"passenger","locationId":"91454465","name":"Equans Groningen Drenthe Heuvelstraat 51","address":"Heuvelstraat 51","city":"Winschoten","operatorName":"EQUANS","maxPowerKw":0,"isMegawatt":false,"status":"AVAILABLE","source":"ndw"}},{"type":"Feature","geometry":{"type":"Point","coordinates":[7.027456,53.159651]},"properties":{"type":"charge","layer":"passenger","locationId":"91145121","name":"Equans Groningen Drenthe Wezellaan 112","address":"Wezellaan 112","city":"Winschoten","operatorName":"EQUANS","maxPowerKw":0,"isMegawatt":false,"status":"AVAILABLE","source":"ndw"}},{"type":"Feature","geometry":{"type":"Point","coordinates":[7.035235,53.167937]},"properties":{"type":"charge","layer":"passenger","locationId":"91145449","name":"Equans Groningen Drenthe Arsenaal 55","address":"Arsenaal 55","city":"Blauwestad","operatorName":"EQUANS","maxPowerKw":0,"isMegawatt":false,"status":"AVAILABLE","source":"ndw"}},{"type":"Feature","geometry":{"type":"Point","coordinates":[6.933594,53.180919]},"properties":{"type":"charge","layer":"passenger","locationId":"65d388dc-6b75-11e8-b068-42010a840002","name":"Fastned Meedenertol","address":"Meedenertol A7","city":"Scheemda","operatorName":"Fastned","maxPowerKw":300,"isMegawatt":false,"status":"AVAILABLE","source":"ndw"}},{"type":"Feature","geometry":{"type":"Point","coordinates":[7.035055,53.166201]},"properties":{"type":"charge","layer":"passenger","locationId":"NLLOC017133","name":"NL, Dwinger 2, 9685 AP Blauwstad","address":"Dwinger 2","city":"Blauwstad","operatorName":"Allego","maxPowerKw":0,"isMegawatt":false,"status":"AVAILABLE","source":"ndw"}},{"type":"Feature","geometry":{"type":"Point","coordinates":[7.03437,53.16679]},"properties":{"type":"charge","layer":"passenger","locationId":"91145100","name":"Equans Groningen Drenthe Stelling 4","address":"Stelling 4","city":"Blauwestad","operatorName":"EQUANS","maxPowerKw":0,"isMegawatt":false,"status":"AVAILABLE","source":"ndw"}},{"type":"Feature","geometry":{"type":"Point","coordinates":[6.971092,53.170952]},"properties":{"type":"charge","layer":"passenger","locationId":"91145222","name":"Equans Groningen Drenthe Plantsoenlaan 34","address":"Plantsoenlaan 34","city":"Scheemda","operatorName":"EQUANS","maxPowerKw":0,"isMegawatt":false,"status":"AVAILABLE","source":"ndw"}},{"type":"Feature","geometry":{"type":"Point","coordinates":[7.2169,53.178386]},"properties":{"type":"charge","layer":"passenger","locationId":"50846","name":"Fastned Poort van Groningen","address":"Rijksweg 20","city":"Bad Nieuweschans","operatorName":"Fastned","maxPowerKw":300,"isMegawatt":false,"status":"AVAILABLE","source":"ndw"}},{"type":"Feature","geometry":{"type":"Point","coordinates":[6.933594,53.180919]},"properties":{"type":"charge","layer":"passenger","locationId":"31013","name":"Fastned Meedenertol","address":"Meedenertol A7","city":"Scheemda","operatorName":"Fastned","maxPowerKw":300,"isMegawatt":false,"status":"AVAILABLE","source":"ndw"}},{"type":"Feature","geometry":{"type":"Point","coordinates":[6.944931,53.209348]},"properties":{"type":"charge","layer":"passenger","locationId":"189ace6a-0bb4-11ee-a4e0-42010aa40fc0","name":"NL, Kerkwijk 15, 9943 PE Nieuw Scheemda","address":"Kerkwijk 15","city":"Nieuw Scheemda","operatorName":"Allego","maxPowerKw":0,"isMegawatt":false,"status":"AVAILABLE","source":"ndw"}},{"type":"Feature","geometry":{"type":"Point","coordinates":[7.00966,53.194435]},"properties":{"type":"charge","layer":"passenger","locationId":"1bd69ef2-9e4b-11eb-8271-42010a840003","name":"NL, Hoofdweg 168, 9681AL, Midwolda","address":"Hoofdweg 168","city":"Midwolda","operatorName":"Allego","maxPowerKw":0,"isMegawatt":false,"status":"AVAILABLE","source":"ndw"}},{"type":"Feature","geometry":{"type":"Point","coordinates":[7.02395,53.146476]},"properties":{"type":"charge","layer":"passenger","locationId":"5a02b604-d259-11ed-b36e-42010aa40fc0","name":"NL, Dwingelooweg 83, 9671KC, Winschoten","address":"Dwingelooweg 83","city":"Winschoten","operatorName":"Allego","maxPowerKw":0,"isMegawatt":false,"status":"AVAILABLE","source":"ndw"}},{"type":"Feature","geometry":{"type":"Point","coordinates":[7.027308,53.135472]},"properties":{"type":"charge","layer":"passenger","locationId":"addd1250-d4b2-11ed-88c5-42010aa40fc0","name":"NL, Zaanstraat 56, 9673CD Winschoten","address":"Zaanstraat 56","city":"Winschoten","operatorName":"Allego","maxPowerKw":0,"isMegawatt":false,"status":"AVAILABLE","source":"ndw"}},{"type":"Feature","geometry":{"type":"Point","coordinates":[7.09616,53.17467]},"properties":{"type":"charge","layer":"passenger","locationId":"91284804","name":"Equans Groningen Drenthe Torenstraat 1","address":"Torenstraat 1","city":"Beerta","operatorName":"EQUANS","maxPowerKw":0,"isMegawatt":false,"status":"AVAILABLE","source":"ndw"}},{"type":"Feature","geometry":{"type":"Point","coordinates":[7.2169,53.178386]},"properties":{"type":"charge","layer":"passenger","locationId":"176bb090-d1a0-11f0-b681-42010aa400b8","name":"Fastned Poort van Groningen","address":"Rijksweg 20","city":"Bad Nieuweschans","operatorName":"Fastned","maxPowerKw":300,"isMegawatt":false,"status":"AVAILABLE","source":"ndw"}},{"type":"Feature","geometry":{"type":"Point","coordinates":[6.931657,53.182656]},"properties":{"type":"charge","layer":"passenger","locationId":"65e2ca18-6b75-11e8-852d-42010a840002","name":"Fastned Roode Til","address":"Roode Til A7","city":"Scheemda","operatorName":"Fastned","maxPowerKw":300,"isMegawatt":false,"status":"AVAILABLE","source":"ndw"}},{"type":"Feature","geometry":{"type":"Point","coordinates":[7.042487,53.155674]},"properties":{"type":"charge","layer":"passenger","locationId":"91145514","name":"Equans Groningen Drenthe Hoorntjesweg 57","address":"Hoorntjesweg 57","city":"Winschoten","operatorName":"EQUANS","maxPowerKw":0,"isMegawatt":false,"status":"AVAILABLE","source":"ndw"}},{"type":"Feature","geometry":{"type":"Point","coordinates":[7.027374,53.13548]},"properties":{"type":"charge","layer":"passenger","locationId":"91145429","name":"Equans Groningen Drenthe Zaanstraat 47b","address":"Zaanstraat 47b","city":"Winschoten","operatorName":"EQUANS","maxPowerKw":0,"isMegawatt":false,"status":"AVAILABLE","source":"ndw"}},{"type":"Feature","geometry":{"type":"Point","coordinates":[6.989204,53.147275]},"properties":{"type":"charge","layer":"passenger","locationId":"91145090","name":"Equans Groningen Drenthe 2e Garstelaan 17","address":"2e Garstelaan 17","city":"Westerlee","operatorName":"EQUANS","maxPowerKw":0,"isMegawatt":false,"status":"AVAILABLE","source":"ndw"}},{"type":"Feature","geometry":{"type":"Point","coordinates":[6.931657,53.182656]},"properties":{"type":"charge","layer":"passenger","locationId":"31204","name":"Fastned Roode Til","address":"Roode Til A7","city":"Scheemda","operatorName":"Fastned","maxPowerKw":300,"isMegawatt":false,"status":"AVAILABLE","source":"ndw"}},{"type":"Feature","geometry":{"type":"Point","coordinates":[7.04096,53.14318]},"properties":{"type":"charge","layer":"passenger","locationId":"91246347","name":"Equans Groningen Drenthe Burgemeester Schönfeldplein 6","address":"Burgemeester Schönfeldplein 6","city":"Winschoten","operatorName":"EQUANS","maxPowerKw":0,"isMegawatt":false,"status":"CHARGING","source":"ndw"}},{"type":"Feature","geometry":{"type":"Point","coordinates":[7.034503,53.134685]},"properties":{"type":"charge","layer":"passenger","locationId":"NLLOC009359","name":"Frederik van Eedenstraat 38 9673HW Winschoten","address":"Frederik van Eedenstraat 38","city":"Winschoten","operatorName":"Allego","maxPowerKw":0,"isMegawatt":false,"status":"AVAILABLE","source":"ndw"}},{"type":"Feature","geometry":{"type":"Point","coordinates":[6.970683,53.242557]},"properties":{"type":"charge","layer":"passenger","locationId":"09d26906-e5fd-11ed-b565-42010aa40fc0","name":"NL, Kleigraversstraat 3, 9944 AM Nieuwolda","address":"Kleigraversstraat 3","city":"Nieuwolda","operatorName":"Allego","maxPowerKw":0,"isMegawatt":false,"status":"AVAILABLE","source":"ndw"}},{"type":"Feature","geometry":{"type":"Point","coordinates":[7.037797,53.141725]},"properties":{"type":"charge","layer":"passenger","locationId":"5599d356-bb21-11ea-a302-42010a840003","name":"NL, Venne 3, 9671 DA, Winschoten","address":"Venne 3","city":"Winschoten","operatorName":"Allego","maxPowerKw":0,"isMegawatt":false,"status":"CHARGING","source":"ndw"}},{"type":"Feature","geometry":{"type":"Point","coordinates":[6.956655,53.182829]},"properties":{"type":"charge","layer":"passenger","locationId":"6943f42e1adaaf2b1248b7c6","name":"Ommelander Ziekenhuis Groningen, laadpunt 10","address":"Pastorieweg 1","city":"Scheemda","operatorName":"E-Flux by Road","maxPowerKw":11,"isMegawatt":false,"status":"CHARGING","source":"ndw"}},{"type":"Feature","geometry":{"type":"Point","coordinates":[7.05122,53.141076]},"properties":{"type":"charge","layer":"passenger","locationId":"6996e5b0d325b382edf5a217","name":"Ziegler laadpaal 6","address":"Industrieweg 20","city":"Winschoten","operatorName":"Lanova Laadpalen","maxPowerKw":22,"isMegawatt":false,"status":"AVAILABLE","source":"ndw"}},{"type":"Feature","geometry":{"type":"Point","coordinates":[7.053319,53.152971]},"properties":{"type":"charge","layer":"passenger","locationId":"65c22131b71629001b8ec8ce","name":"Alfen proline 5","address":"zeefbaan","city":"winschoten","operatorName":"E-Flux by Road","maxPowerKw":11,"isMegawatt":false,"status":"AVAILABLE","source":"ndw"}},{"type":"Feature","geometry":{"type":"Point","coordinates":[7.04096,53.14318]},"properties":{"type":"charge","layer":"passenger","locationId":"ef1c5b48-bc29-11f0-b94c-42010aa400b8","name":"Equans Groningen Drenthe Burgemeester Schönfeldplein 6","address":"Burgemeester Schönfeldplein 6","city":"Winschoten","operatorName":"EQUANS","maxPowerKw":0,"isMegawatt":false,"status":"AVAILABLE","source":"ndw"}},{"type":"Feature","geometry":{"type":"Point","coordinates":[7.03475,53.148198]},"properties":{"type":"charge","layer":"passenger","locationId":"6475f982-4163-11ea-8569-42010a840003","name":"NL, Heemskerkstraat 5, 9675 BL, Winschoten","address":"Heemskerkstraat 5","city":"Winschoten","operatorName":"Allego","maxPowerKw":0,"isMegawatt":false,"status":"AVAILABLE","source":"ndw"}},{"type":"Feature","geometry":{"type":"Point","coordinates":[7.035055,53.166201]},"properties":{"type":"charge","layer":"passenger","locationId":"b7472cc2-dacc-11eb-88c6-42010a840003","name":"NL, Dwinger 2, 9685 AP Blauwstad","address":"Dwinger 2","city":"Blauwstad","operatorName":"Allego","maxPowerKw":0,"isMegawatt":false,"status":"AVAILABLE","source":"ndw"}},{"type":"Feature","geometry":{"type":"Point","coordinates":[7.019599,53.14544]},"properties":{"type":"charge","layer":"passenger","locationId":"c1e38ad6-b86a-11ed-972a-42010aa40fc0","name":"NL, Beukenlaan 77, 9674 CB Winschoten","address":"Beukenlaan 77","city":"Winschoten","operatorName":"Allego","maxPowerKw":0,"isMegawatt":false,"status":"AVAILABLE","source":"ndw"}},{"type":"Feature","geometry":{"type":"Point","coordinates":[6.973007,53.244657]},"properties":{"type":"charge","layer":"passenger","locationId":"4f7e960e-6103-11f0-967e-42010aa400b8","name":"Equans Groningen Drenthe Hoofdstraat 15","address":"Hoofdstraat 15","city":"Nieuwolda","operatorName":"EQUANS","maxPowerKw":0,"isMegawatt":false,"status":"AVAILABLE","source":"ndw"}},{"type":"Feature","geometry":{"type":"Point","coordinates":[6.957481,53.183648]},"properties":{"type":"charge","layer":"passenger","locationId":"6945109b9206c7416d68c87b","name":"Ommelander Ziekenhuis Groningen, laadpunt 14","address":"Pastorieweg 1","city":"Scheemda","operatorName":"E-Flux by Road","maxPowerKw":11,"isMegawatt":false,"status":"CHARGING","source":"ndw"}},{"type":"Feature","geometry":{"type":"Point","coordinates":[7.096332,53.173662]},"properties":{"type":"charge","layer":"passenger","locationId":"6839edea-7d48-11eb-b68b-42010a840003","name":"NL, Vredesplein 7, 9686RT, Beerta","address":"Vredesplein 7","city":"Beerta","operatorName":"Allego","maxPowerKw":0,"isMegawatt":false,"status":"AVAILABLE","source":"ndw"}},{"type":"Feature","geometry":{"type":"Point","coordinates":[6.95751,53.183587]},"properties":{"type":"charge","layer":"passenger","locationId":"6945113ae422fbe9d827d238","name":"Ommelander Ziekenhuis Groningen, laadpunt 17","address":"Pastorieweg 1","city":"Scheemda","operatorName":"E-Flux by Road","maxPowerKw":9,"isMegawatt":false,"status":"CHARGING","source":"ndw"}},{"type":"Feature","geometry":{"type":"Point","coordinates":[6.97301,53.17691]},"properties":{"type":"charge","layer":"passenger","locationId":"91145103","name":"Equans Groningen Drenthe Donellenlaan 56","address":"Donellenlaan 56","city":"Scheemda","operatorName":"EQUANS","maxPowerKw":0,"isMegawatt":false,"status":"AVAILABLE","source":"ndw"}},{"type":"Feature","geometry":{"type":"Point","coordinates":[6.956563,53.182861]},"properties":{"type":"charge","layer":"passenger","locationId":"6943f129bf5f92b67c18eb3f","name":"Ommelander Ziekenhuis Groningen, laadpunt 1","address":"Pastorieweg 1","city":"Scheemda","operatorName":"E-Flux by Road","maxPowerKw":11,"isMegawatt":false,"status":"CHARGING","source":"ndw"}},{"type":"Feature","geometry":{"type":"Point","coordinates":[7.032215,53.144509]},"properties":{"type":"charge","layer":"passenger","locationId":"e1267984-e2d7-11ed-97b4-42010aa40fc0","name":"NL, Noorderstraat 10, 9671 GW Winschoten","address":"Noorderstraat 10","city":"Winschoten","operatorName":"Allego","maxPowerKw":0,"isMegawatt":false,"status":"CHARGING","source":"ndw"}},{"type":"Feature","geometry":{"type":"Point","coordinates":[7.037114,53.165806]},"properties":{"type":"charge","layer":"passenger","locationId":"682a9d7c-7d48-11eb-a6a6-42010a840003","name":"NL, Redersplein 2, 9685 AW, Blauwestad","address":"Redersplein 2","city":"Blauwestad","operatorName":"Allego","maxPowerKw":0,"isMegawatt":false,"status":"AVAILABLE","source":"ndw"}},{"type":"Feature","geometry":{"type":"Point","coordinates":[7.007563,53.155605]},"properties":{"type":"charge","layer":"passenger","locationId":"f705c294-86b5-11eb-8a40-42010a840003","name":"NL, Provincialeweg 46, 9677PD, Heiligerlee","address":"Provincialeweg 46","city":"Heiligerlee","operatorName":"Allego","maxPowerKw":0,"isMegawatt":false,"status":"AVAILABLE","source":"ndw"}},{"type":"Feature","geometry":{"type":"Point","coordinates":[6.970683,53.242557]},"properties":{"type":"charge","layer":"passenger","locationId":"NLLOC019005","name":"NL, Kleigraversstraat 3, 9944 AM Nieuwolda","address":"Kleigraversstraat 3","city":"Nieuwolda","operatorName":"Allego","maxPowerKw":0,"isMegawatt":false,"status":"AVAILABLE","source":"ndw"}},{"type":"Feature","geometry":{"type":"Point","coordinates":[7.0399,53.14153]},"properties":{"type":"charge","layer":"passenger","locationId":"0b4c38f2-c72d-11f0-b292-42010aa400b8","name":"Equans Groningen Drenthe Engelsestraat 2 A1","address":"Engelsestraat 2 A1","city":"Winschoten","operatorName":"EQUANS","maxPowerKw":0,"isMegawatt":false,"status":"AVAILABLE","source":"ndw"}},{"type":"Feature","geometry":{"type":"Point","coordinates":[7.01173,53.157642]},"properties":{"type":"charge","layer":"passenger","locationId":"1bcae88c-9e4b-11eb-8f63-42010a840003","name":"NL, Nassaulaan 3, 9677 PZ, Heiligerlee","address":"Nassaulaan 3","city":"Heiligerlee","operatorName":"Allego","maxPowerKw":0,"isMegawatt":false,"status":"AVAILABLE","source":"ndw"}},{"type":"Feature","geometry":{"type":"Point","coordinates":[7.043507,53.139712]},"properties":{"type":"charge","layer":"passenger","locationId":"3317bb84-bdeb-11ed-870d-42010aa40fc0","name":"NL, Wilhelminasingel 1, 9672AL, Winschoten","address":"Wilhelminasingel 1","city":"Winschoten","operatorName":"Allego","maxPowerKw":0,"isMegawatt":false,"status":"AVAILABLE","source":"ndw"}},{"type":"Feature","geometry":{"type":"Point","coordinates":[7.03989,53.140625]},"properties":{"type":"charge","layer":"passenger","locationId":"0b0da862-e5fd-11ed-843f-42010aa40fc0","name":"NL, Blijhamsterstraat 34, 9671 AW Winschoten","address":"Blijhamsterstraat 34","city":"Winschoten","operatorName":"Allego","maxPowerKw":0,"isMegawatt":false,"status":"AVAILABLE","source":"ndw"}},{"type":"Feature","geometry":{"type":"Point","coordinates":[7.046804,53.204646]},"properties":{"type":"charge","layer":"passenger","locationId":"8fddbdce-cda3-11ed-9651-42010aa40fc0","name":"NL, Goldhoornhof 6, 9682 XV Oostwold","address":"Goldhoornhof 6","city":"Oostwold","operatorName":"Allego","maxPowerKw":0,"isMegawatt":false,"status":"AVAILABLE","source":"ndw"}},{"type":"Feature","geometry":{"type":"Point","coordinates":[7.034503,53.134685]},"properties":{"type":"charge","layer":"passenger","locationId":"5322c818-48d7-11ec-82e0-42010a840003","name":"Frederik van Eedenstraat 38 9673HW Winschoten","address":"Frederik van Eedenstraat 38","city":"Winschoten","operatorName":"Allego","maxPowerKw":0,"isMegawatt":false,"status":"AVAILABLE","source":"ndw"}},{"type":"Feature","geometry":{"type":"Point","coordinates":[7.087775,53.197523]},"properties":{"type":"charge","layer":"passenger","locationId":"b782253c-35fa-11ec-ae56-42010a840003","name":"NL, Hoofdweg 97, 9684CC, Finsterwolde","address":"Hoofdweg 97","city":"Finsterwolde","operatorName":"Allego","maxPowerKw":0,"isMegawatt":false,"status":"AVAILABLE","source":"ndw"}},{"type":"Feature","geometry":{"type":"Point","coordinates":[7.035235,53.167937]},"properties":{"type":"charge","layer":"passenger","locationId":"255a17d6-ea5c-11ef-9702-42010aa400b8","name":"Equans Groningen Drenthe Arsenaal 55","address":"Arsenaal 55","city":"Blauwestad","operatorName":"EQUANS","maxPowerKw":0,"isMegawatt":false,"status":"AVAILABLE","source":"ndw"}},{"type":"Feature","geometry":{"type":"Point","coordinates":[6.96868,53.17653]},"properties":{"type":"charge","layer":"passenger","locationId":"5a2920be-d161-11f0-a033-42010aa400b8","name":"Equans Groningen Drenthe Diepswal 2a","address":"Diepswal 2a","city":"Scheemda","operatorName":"EQUANS","maxPowerKw":0,"isMegawatt":false,"status":"AVAILABLE","source":"ndw"}},{"type":"Feature","geometry":{"type":"Point","coordinates":[7.027456,53.159651]},"properties":{"type":"charge","layer":"passenger","locationId":"a694784a-3667-11ef-9dc5-42010aa400b8","name":"Equans Groningen Drenthe Wezellaan 112","address":"Wezellaan 112","city":"Winschoten","operatorName":"EQUANS","maxPowerKw":0,"isMegawatt":false,"status":"AVAILABLE","source":"ndw"}},{"type":"Feature","geometry":{"type":"Point","coordinates":[6.971092,53.170952]},"properties":{"type":"charge","layer":"passenger","locationId":"12625a96-e8ca-11ef-a3b3-42010aa400b8","name":"Equans Groningen Drenthe Plantsoenlaan 34","address":"Plantsoenlaan 34","city":"Scheemda","operatorName":"EQUANS","maxPowerKw":0,"isMegawatt":false,"status":"AVAILABLE","source":"ndw"}},{"type":"Feature","geometry":{"type":"Point","coordinates":[7.03194,53.13416]},"properties":{"type":"charge","layer":"passenger","locationId":"9d7d6964-00f8-11ef-892a-42010aa400b8","name":"Equans Groningen Drenthe Scheldestraat 70","address":"Scheldestraat 70","city":"Winschoten","operatorName":"EQUANS","maxPowerKw":0,"isMegawatt":false,"status":"AVAILABLE","source":"ndw"}},{"type":"Feature","geometry":{"type":"Point","coordinates":[7.035307,53.14789]},"properties":{"type":"charge","layer":"passenger","locationId":"ea8bcb70-5664-11f0-8cdf-42010aa400b8","name":"Equans Groningen Drenthe Heemskerkstraat 55","address":"Heemskerkstraat 55","city":"Winschoten","operatorName":"EQUANS","maxPowerKw":0,"isMegawatt":false,"status":"AVAILABLE","source":"ndw"}},{"type":"Feature","geometry":{"type":"Point","coordinates":[6.969993,53.176001]},"properties":{"type":"charge","layer":"passenger","locationId":"41cd6022-8c36-11eb-ab4a-42010a840003","name":"NL, Vredenhovenstraat 27, 9679AL, Scheemda","address":"Vredenhovenstraat 27","city":"Scheemda","operatorName":"Allego","maxPowerKw":0,"isMegawatt":false,"status":"CHARGING","source":"ndw"}},{"type":"Feature","geometry":{"type":"Point","coordinates":[6.976447,53.24506]},"properties":{"type":"charge","layer":"passenger","locationId":"5a68e6d2-54a0-11ec-b0cc-42010a840003","name":"NL, Hoofdstraat 60, 9944AG, Nieuwolda","address":"Hoofdstraat 60","city":"Nieuwolda","operatorName":"Allego","maxPowerKw":0,"isMegawatt":false,"status":"AVAILABLE","source":"ndw"}},{"type":"Feature","geometry":{"type":"Point","coordinates":[7.038589,53.148741]},"properties":{"type":"charge","layer":"passenger","locationId":"3460b116-01c0-11ef-b059-42010aa400b8","name":"Equans Groningen Drenthe 't Ompad 1","address":"t Ompad 1","city":"Winschoten","operatorName":"EQUANS","maxPowerKw":0,"isMegawatt":false,"status":"AVAILABLE","source":"ndw"}},{"type":"Feature","geometry":{"type":"Point","coordinates":[7.037183,53.140153]},"properties":{"type":"charge","layer":"passenger","locationId":"75e02f10-b8ca-11ef-983e-42010aa40043","name":"Equans Groningen Drenthe Emmastraat 7","address":"Emmastraat 7","city":"Winschoten","operatorName":"EQUANS","maxPowerKw":0,"isMegawatt":false,"status":"AVAILABLE","source":"ndw"}},{"type":"Feature","geometry":{"type":"Point","coordinates":[7.036235,53.144324]},"properties":{"type":"charge","layer":"passenger","locationId":"88a2173c-ee47-11ef-9b62-42010aa400b8","name":"Equans Groningen Drenthe Venne 123","address":"Venne 123","city":"Winschoten","operatorName":"EQUANS","maxPowerKw":0,"isMegawatt":false,"status":"CHARGING","source":"ndw"}},{"type":"Feature","geometry":{"type":"Point","coordinates":[7.041598,53.135047]},"properties":{"type":"charge","layer":"passenger","locationId":"a408029a-34d2-11ef-b794-42010aa400b8","name":"Equans Groningen Drenthe Constantijn Huygenslaan 11","address":"Constantijn Huygenslaan 11","city":"Winschoten","operatorName":"EQUANS","maxPowerKw":0,"isMegawatt":false,"status":"AVAILABLE","source":"ndw"}},{"type":"Feature","geometry":{"type":"Point","coordinates":[6.97822,53.17083]},"properties":{"type":"charge","layer":"passenger","locationId":"871917ac-5667-11f0-a822-42010aa400b8","name":"Equans Groningen Drenthe Tulpstraat 29","address":"Tulpstraat 29","city":"Scheemda","operatorName":"EQUANS","maxPowerKw":0,"isMegawatt":false,"status":"AVAILABLE","source":"ndw"}},{"type":"Feature","geometry":{"type":"Point","coordinates":[7.01747,53.19297]},"properties":{"type":"charge","layer":"passenger","locationId":"dc4a4bd6-01bf-11ef-8cb0-42010aa400b8","name":"Equans Groningen Drenthe Doctor Oortwijn Botjeslaan 40","address":"Doctor Oortwijn Botjeslaan 40","city":"Midwolda","operatorName":"EQUANS","maxPowerKw":0,"isMegawatt":false,"status":"AVAILABLE","source":"ndw"}},{"type":"Feature","geometry":{"type":"Point","coordinates":[6.976103,53.172566]},"properties":{"type":"charge","layer":"passenger","locationId":"b1809bee-89e0-11f0-89a4-42010aa400b8","name":"Equans Groningen Drenthe Anemoonstraat 2","address":"Anemoonstraat 2","city":"Scheemda","operatorName":"EQUANS","maxPowerKw":0,"isMegawatt":false,"status":"AVAILABLE","source":"ndw"}},{"type":"Feature","geometry":{"type":"Point","coordinates":[7.0344,53.158303]},"properties":{"type":"charge","layer":"passenger","locationId":"19c24bec-34d5-11ef-b625-42010aa400b8","name":"Equans Groningen Drenthe Otterlaan 131","address":"Otterlaan 131","city":"Winschoten","operatorName":"EQUANS","maxPowerKw":0,"isMegawatt":false,"status":"AVAILABLE","source":"ndw"}},{"type":"Feature","geometry":{"type":"Point","coordinates":[7.082452,53.187185]},"properties":{"type":"charge","layer":"passenger","locationId":"9672697c-5ddf-11f0-aa65-42010aa400b8","name":"Equans Groningen Drenthe Klinkerweg 135","address":"Klinkerweg 135","city":"Finsterwolde","operatorName":"EQUANS","maxPowerKw":0,"isMegawatt":false,"status":"AVAILABLE","source":"ndw"}},{"type":"Feature","geometry":{"type":"Point","coordinates":[7.04859,53.20236]},"properties":{"type":"charge","layer":"passenger","locationId":"a802dfc0-cbe2-11f0-9a8f-42010aa400b8","name":"Equans Groningen Drenthe Margrietstraat 36","address":"Margrietstraat 36","city":"Oostwold","operatorName":"EQUANS","maxPowerKw":0,"isMegawatt":false,"status":"AVAILABLE","source":"ndw"}},{"type":"Feature","geometry":{"type":"Point","coordinates":[7.014084,53.195441]},"properties":{"type":"charge","layer":"passenger","locationId":"f35f3a1c-5794-11f0-9406-42010aa400b8","name":"Equans Groningen Drenthe Hoofdweg 165","address":"Hoofdweg 165","city":"Midwolda","operatorName":"EQUANS","maxPowerKw":0,"isMegawatt":false,"status":"AVAILABLE","source":"ndw"}},{"type":"Feature","geometry":{"type":"Point","coordinates":[7.03612,53.14074]},"properties":{"type":"charge","layer":"passenger","locationId":"a1fc07ac-00f8-11ef-9af4-42010aa400b8","name":"Equans Groningen Drenthe Poststraat 58","address":"Poststraat 58","city":"Winschoten","operatorName":"EQUANS","maxPowerKw":0,"isMegawatt":false,"status":"AVAILABLE","source":"ndw"}},{"type":"Feature","geometry":{"type":"Point","coordinates":[7.042487,53.155674]},"properties":{"type":"charge","layer":"passenger","locationId":"bde6b34c-5668-11f0-8c1d-42010aa400b8","name":"Equans Groningen Drenthe Hoorntjesweg 57","address":"Hoorntjesweg 57","city":"Winschoten","operatorName":"EQUANS","maxPowerKw":0,"isMegawatt":false,"status":"AVAILABLE","source":"ndw"}},{"type":"Feature","geometry":{"type":"Point","coordinates":[7.027049,53.14684]},"properties":{"type":"charge","layer":"passenger","locationId":"f260efda-34d0-11ef-ae1f-42010aa400b8","name":"Equans Groningen Drenthe Willem de Zwijgerlaan 111","address":"Willem de Zwijgerlaan 111","city":"Winschoten","operatorName":"EQUANS","maxPowerKw":0,"isMegawatt":false,"status":"AVAILABLE","source":"ndw"}},{"type":"Feature","geometry":{"type":"Point","coordinates":[7.035791,53.167993]},"properties":{"type":"charge","layer":"passenger","locationId":"e36aec3c-ea5c-11ef-b72a-42010aa400b8","name":"Equans Groningen Drenthe Arsenaal 33","address":"Arsenaal 33","city":"Blauwestad","operatorName":"EQUANS","maxPowerKw":0,"isMegawatt":false,"status":"AVAILABLE","source":"ndw"}},{"type":"Feature","geometry":{"type":"Point","coordinates":[7.030236,53.151768]},"properties":{"type":"charge","layer":"passenger","locationId":"f536fdf2-e877-11ef-a7ac-42010aa400b8","name":"Equans Groningen Drenthe Tromplaan 86","address":"Tromplaan 86","city":"Winschoten","operatorName":"EQUANS","maxPowerKw":0,"isMegawatt":false,"status":"AVAILABLE","source":"ndw"}},{"type":"Feature","geometry":{"type":"Point","coordinates":[7.0416,53.14205]},"properties":{"type":"charge","layer":"passenger","locationId":"8b34a2c6-34d4-11ef-8b49-42010aa400b8","name":"Equans Groningen Drenthe Beertsterstraat 11A","address":"Beertsterstraat 11A","city":"Winschoten","operatorName":"EQUANS","maxPowerKw":0,"isMegawatt":false,"status":"AVAILABLE","source":"ndw"}},{"type":"Feature","geometry":{"type":"Point","coordinates":[7.021034,53.149628]},"properties":{"type":"charge","layer":"passenger","locationId":"17e2c136-61ce-11f0-a204-42010aa400b8","name":"Equans Groningen Drenthe Sleedoornweg 75","address":"Sleedoornweg 75","city":"Winschoten","operatorName":"EQUANS","maxPowerKw":0,"isMegawatt":false,"status":"AVAILABLE","source":"ndw"}},{"type":"Feature","geometry":{"type":"Point","coordinates":[6.97301,53.17691]},"properties":{"type":"charge","layer":"passenger","locationId":"55454c56-01c1-11ef-9781-42010aa400b8","name":"Equans Groningen Drenthe Donellenlaan 56","address":"Donellenlaan 56","city":"Scheemda","operatorName":"EQUANS","maxPowerKw":0,"isMegawatt":false,"status":"AVAILABLE","source":"ndw"}},{"type":"Feature","geometry":{"type":"Point","coordinates":[7.03437,53.16679]},"properties":{"type":"charge","layer":"passenger","locationId":"91b9326a-01c1-11ef-805a-42010aa400b8","name":"Equans Groningen Drenthe Stelling 4","address":"Stelling 4","city":"Blauwestad","operatorName":"EQUANS","maxPowerKw":0,"isMegawatt":false,"status":"AVAILABLE","source":"ndw"}},{"type":"Feature","geometry":{"type":"Point","coordinates":[7.027374,53.13548]},"properties":{"type":"charge","layer":"passenger","locationId":"addd1250-d4b2-11ed-88c5-42010aa40fc0","name":"Equans Groningen Drenthe Zaanstraat 47b","address":"Zaanstraat 47b","city":"Winschoten","operatorName":"EQUANS","maxPowerKw":0,"isMegawatt":false,"status":"AVAILABLE","source":"ndw"}},{"type":"Feature","geometry":{"type":"Point","coordinates":[6.989204,53.147275]},"properties":{"type":"charge","layer":"passenger","locationId":"f2478af4-34d0-11ef-a945-42010aa400b8","name":"Equans Groningen Drenthe 2e Garstelaan 17","address":"2e Garstelaan 17","city":"Westerlee","operatorName":"EQUANS","maxPowerKw":0,"isMegawatt":false,"status":"AVAILABLE","source":"ndw"}},{"type":"Feature","geometry":{"type":"Point","coordinates":[7.09616,53.17467]},"properties":{"type":"charge","layer":"passenger","locationId":"5a547e1c-d161-11f0-be2d-42010aa400b8","name":"Equans Groningen Drenthe Torenstraat 1","address":"Torenstraat 1","city":"Beerta","operatorName":"EQUANS","maxPowerKw":0,"isMegawatt":false,"status":"AVAILABLE","source":"ndw"}},{"type":"Feature","geometry":{"type":"Point","coordinates":[7.053319,53.152971]},"properties":{"type":"charge","layer":"passenger","locationId":"65dd9fc0b651f5001cc9480d","name":"Alfen proline 7 en 8","address":"zeefbaan  35","city":"winschoten","operatorName":"E-Flux by Road","maxPowerKw":22,"isMegawatt":false,"status":"CHARGING","source":"ndw"}},{"type":"Feature","geometry":{"type":"Point","coordinates":[7.053319,53.152971]},"properties":{"type":"charge","layer":"passenger","locationId":"65c2216d3ef4be001ce9842b","name":"Alfen proline 6","address":"zeefbaan","city":"winschoten","operatorName":"E-Flux by Road","maxPowerKw":11,"isMegawatt":false,"status":"AVAILABLE","source":"ndw"}},{"type":"Feature","geometry":{"type":"Point","coordinates":[6.956561,53.182845]},"properties":{"type":"charge","layer":"passenger","locationId":"6943f24d4efb7fd68daea01b","name":"Ommelander Ziekenhuis Groningen, laadpunt 3","address":"Pastorieweg 1","city":"Scheemda","operatorName":"E-Flux by Road","maxPowerKw":11,"isMegawatt":false,"status":"CHARGING","source":"ndw"}},{"type":"Feature","geometry":{"type":"Point","coordinates":[7.035307,53.14789]},"properties":{"type":"charge","layer":"passenger","locationId":"91145510","name":"Equans Groningen Drenthe Heemskerkstraat 55","address":"Heemskerkstraat 55","city":"Winschoten","operatorName":"EQUANS","maxPowerKw":0,"isMegawatt":false,"status":"AVAILABLE","source":"ndw"}},{"type":"Feature","geometry":{"type":"Point","coordinates":[7.096332,53.173662]},"properties":{"type":"charge","layer":"passenger","locationId":"NLLOC006574","name":"NL, Vredesplein 7, 9686RT, Beerta","address":"Vredesplein 7","city":"Beerta","operatorName":"Allego","maxPowerKw":0,"isMegawatt":false,"status":"AVAILABLE","source":"ndw"}},{"type":"Feature","geometry":{"type":"Point","coordinates":[7.037114,53.165806]},"properties":{"type":"charge","layer":"passenger","locationId":"NLLOC006310","name":"NL, Redersplein 2, 9685 AW, Blauwestad","address":"Redersplein 2","city":"Blauwestad","operatorName":"Allego","maxPowerKw":0,"isMegawatt":false,"status":"AVAILABLE","source":"ndw"}},{"type":"Feature","geometry":{"type":"Point","coordinates":[7.019599,53.14544]},"properties":{"type":"charge","layer":"passenger","locationId":"NLLOC025510","name":"NL, Beukenlaan 77, 9674 CB Winschoten","address":"Beukenlaan 77","city":"Winschoten","operatorName":"Allego","maxPowerKw":0,"isMegawatt":false,"status":"AVAILABLE","source":"ndw"}},{"type":"Feature","geometry":{"type":"Point","coordinates":[7.027049,53.14684]},"properties":{"type":"charge","layer":"passenger","locationId":"91145139","name":"Equans Groningen Drenthe Willem de Zwijgerlaan 111","address":"Willem de Zwijgerlaan 111","city":"Winschoten","operatorName":"EQUANS","maxPowerKw":0,"isMegawatt":false,"status":"AVAILABLE","source":"ndw"}},{"type":"Feature","geometry":{"type":"Point","coordinates":[7.037797,53.141725]},"properties":{"type":"charge","layer":"passenger","locationId":"NLLOC007147","name":"NL, Venne 3, 9671 DA, Winschoten","address":"Venne 3","city":"Winschoten","operatorName":"Allego","maxPowerKw":0,"isMegawatt":false,"status":"AVAILABLE","source":"ndw"}},{"type":"Feature","geometry":{"type":"Point","coordinates":[7.05073,53.135092]},"properties":{"type":"charge","layer":"passenger","locationId":"638871cfa3ba18001df7f3c4","name":"OG Clean Fuels Winschoten","address":"A.J. Romijnweg","city":"Winschoten","operatorName":"Alva Charging Services","maxPowerKw":120,"isMegawatt":false,"status":"AVAILABLE","source":"ndw"}},{"type":"Feature","geometry":{"type":"Point","coordinates":[7.010545,53.155281]},"properties":{"type":"charge","layer":"passenger","locationId":"61c205d2b7945ccc7cd7bf20","name":"Jannes Smit's station","address":"Provincialeweg 62-A","city":"Heiligerlee","operatorName":"E-Flux by Road","maxPowerKw":22,"isMegawatt":false,"status":"UNAVAILABLE","source":"ndw"}},{"type":"Feature","geometry":{"type":"Point","coordinates":[7.053319,53.152971]},"properties":{"type":"charge","layer":"passenger","locationId":"65bce35655e295001cab238c","name":"Alfen proline 3","address":"zeefbaan","city":"winschoten","operatorName":"E-Flux by Road","maxPowerKw":11,"isMegawatt":false,"status":"AVAILABLE","source":"ndw"}},{"type":"Feature","geometry":{"type":"Point","coordinates":[7.02395,53.146476]},"properties":{"type":"charge","layer":"passenger","locationId":"NLLOC020016","name":"NL, Dwingelooweg 83, 9671KC, Winschoten","address":"Dwingelooweg 83","city":"Winschoten","operatorName":"Allego","maxPowerKw":0,"isMegawatt":false,"status":"AVAILABLE","source":"ndw"}},{"type":"Feature","geometry":{"type":"Point","coordinates":[7.01977,53.19123]},"properties":{"type":"charge","layer":"passenger","locationId":"a82f0b4a-cbe2-11f0-be1b-42010aa400b8","name":"Equans Groningen Drenthe Dr. Oortwijn Botjeslaan 82","address":"Dr. Oortwijn Botjeslaan 82","city":"Midwolda","operatorName":"EQUANS","maxPowerKw":0,"isMegawatt":false,"status":"AVAILABLE","source":"ndw"}},{"type":"Feature","geometry":{"type":"Point","coordinates":[6.957599,53.183602]},"properties":{"type":"charge","layer":"passenger","locationId":"69451009d65c4ae5b15029f8","name":"Ommelander Ziekenhuis Groningen, laadpunt 11","address":"Pastorieweg 1","city":"Scheemda","operatorName":"E-Flux by Road","maxPowerKw":11,"isMegawatt":false,"status":"CHARGING","source":"ndw"}},{"type":"Feature","geometry":{"type":"Point","coordinates":[6.976193,53.174681]},"properties":{"type":"charge","layer":"passenger","locationId":"65ccdbf232d7dd001c89c015","name":"Kom snel laden!","address":"Esborgstraat  34","city":"Scheemda","operatorName":"E-Flux by Road","maxPowerKw":22,"isMegawatt":false,"status":"AVAILABLE","source":"ndw"}},{"type":"Feature","geometry":{"type":"Point","coordinates":[6.956338,53.18288]},"properties":{"type":"charge","layer":"passenger","locationId":"6943f3bf574614e32555e92d","name":"Ommelander Ziekenhuis Groningen, laadpunt 9","address":"Pastorieweg 1","city":"Scheemda","operatorName":"E-Flux by Road","maxPowerKw":11,"isMegawatt":false,"status":"CHARGING","source":"ndw"}},{"type":"Feature","geometry":{"type":"Point","coordinates":[6.95644,53.182864]},"properties":{"type":"charge","layer":"passenger","locationId":"6943f39184ed8b775a1ac769","name":"Ommelander Ziekenhuis Groningen, laadpunt 8","address":"Pastorieweg 1","city":"Scheemda","operatorName":"E-Flux by Road","maxPowerKw":11,"isMegawatt":false,"status":"CHARGING","source":"ndw"}},{"type":"Feature","geometry":{"type":"Point","coordinates":[6.957427,53.183616]},"properties":{"type":"charge","layer":"passenger","locationId":"6945119bf143a2752211545c","name":"Ommelander Ziekenhuis Groningen, laadpunt 19","address":"Pastorieweg 1","city":"Scheemda","operatorName":"E-Flux by Road","maxPowerKw":9,"isMegawatt":false,"status":"UNAVAILABLE","source":"ndw"}},{"type":"Feature","geometry":{"type":"Point","coordinates":[6.944931,53.209348]},"properties":{"type":"charge","layer":"passenger","locationId":"NLLOC026862","name":"NL, Kerkwijk 15, 9943 PE Nieuw Scheemda","address":"Kerkwijk 15","city":"Nieuw Scheemda","operatorName":"Allego","maxPowerKw":0,"isMegawatt":false,"status":"AVAILABLE","source":"ndw"}},{"type":"Feature","geometry":{"type":"Point","coordinates":[7.03989,53.140625]},"properties":{"type":"charge","layer":"passenger","locationId":"NLLOC027183","name":"NL, Blijhamsterstraat 34, 9671 AW Winschoten","address":"Blijhamsterstraat 34","city":"Winschoten","operatorName":"Allego","maxPowerKw":0,"isMegawatt":false,"status":"UNAVAILABLE","source":"ndw"}},{"type":"Feature","geometry":{"type":"Point","coordinates":[7.032215,53.144509]},"properties":{"type":"charge","layer":"passenger","locationId":"NLLOC027363","name":"NL, Noorderstraat 10, 9671 GW Winschoten","address":"Noorderstraat 10","city":"Winschoten","operatorName":"Allego","maxPowerKw":0,"isMegawatt":false,"status":"AVAILABLE","source":"ndw"}},{"type":"Feature","geometry":{"type":"Point","coordinates":[7.04859,53.20236]},"properties":{"type":"charge","layer":"passenger","locationId":"91277406","name":"Equans Groningen Drenthe Margrietstraat 36","address":"Margrietstraat 36","city":"Oostwold","operatorName":"EQUANS","maxPowerKw":0,"isMegawatt":false,"status":"AVAILABLE","source":"ndw"}},{"type":"Feature","geometry":{"type":"Point","coordinates":[7.03475,53.148198]},"properties":{"type":"charge","layer":"passenger","locationId":"NLLOC006617","name":"NL, Heemskerkstraat 5, 9675 BL, Winschoten","address":"Heemskerkstraat 5","city":"Winschoten","operatorName":"Allego","maxPowerKw":0,"isMegawatt":false,"status":"AVAILABLE","source":"ndw"}},{"type":"Feature","geometry":{"type":"Point","coordinates":[6.957561,53.183618]},"properties":{"type":"charge","layer":"passenger","locationId":"6945103e1a85e97922216e22","name":"Ommelander Ziekenhuis Groningen, laadpunt 12","address":"Pastorieweg 1","city":"Scheemda","operatorName":"E-Flux by Road","maxPowerKw":11,"isMegawatt":false,"status":"CHARGING","source":"ndw"}},{"type":"Feature","geometry":{"type":"Point","coordinates":[7.087775,53.197523]},"properties":{"type":"charge","layer":"passenger","locationId":"NLLOC006576","name":"NL, Hoofdweg 97, 9684CC, Finsterwolde","address":"Hoofdweg 97","city":"Finsterwolde","operatorName":"Allego","maxPowerKw":0,"isMegawatt":false,"status":"AVAILABLE","source":"ndw"}},{"type":"Feature","geometry":{"type":"Point","coordinates":[7.037183,53.140153]},"properties":{"type":"charge","layer":"passenger","locationId":"91145516","name":"Equans Groningen Drenthe Emmastraat 7","address":"Emmastraat 7","city":"Winschoten","operatorName":"EQUANS","maxPowerKw":0,"isMegawatt":false,"status":"AVAILABLE","source":"ndw"}},{"type":"Feature","geometry":{"type":"Point","coordinates":[7.00966,53.194435]},"properties":{"type":"charge","layer":"passenger","locationId":"NLLOC006578","name":"NL, Hoofdweg 168, 9681AL, Midwolda","address":"Hoofdweg 168","city":"Midwolda","operatorName":"Allego","maxPowerKw":0,"isMegawatt":false,"status":"AVAILABLE","source":"ndw"}},{"type":"Feature","geometry":{"type":"Point","coordinates":[6.956448,53.182867]},"properties":{"type":"charge","layer":"passenger","locationId":"6943f2e2bf5f92b67c1cd262","name":"Ommelander Ziekenhuis Groningen, laadpunt 5","address":"Pastorieweg 1","city":"Scheemda","operatorName":"E-Flux by Road","maxPowerKw":11,"isMegawatt":false,"status":"CHARGING","source":"ndw"}},{"type":"Feature","geometry":{"type":"Point","coordinates":[6.96868,53.17653]},"properties":{"type":"charge","layer":"passenger","locationId":"91284802","name":"Equans Groningen Drenthe Diepswal 2a","address":"Diepswal 2a","city":"Scheemda","operatorName":"EQUANS","maxPowerKw":0,"isMegawatt":false,"status":"AVAILABLE","source":"ndw"}},{"type":"Feature","geometry":{"type":"Point","coordinates":[7.053319,53.152971]},"properties":{"type":"charge","layer":"passenger","locationId":"65c0c0a43ef4be001cd9bfe8","name":"Alfen proline 4","address":"zeefbaan","city":"Winschoten","operatorName":"E-Flux by Road","maxPowerKw":11,"isMegawatt":false,"status":"AVAILABLE","source":"ndw"}},{"type":"Feature","geometry":{"type":"Point","coordinates":[6.956486,53.182859]},"properties":{"type":"charge","layer":"passenger","locationId":"6943f2ab1adaaf2b124584b1","name":"Ommelander Ziekenhuis Groningen, laadpunt 4","address":"Pastorieweg 1","city":"Scheemda","operatorName":"E-Flux by Road","maxPowerKw":11,"isMegawatt":false,"status":"CHARGING","source":"ndw"}},{"type":"Feature","geometry":{"type":"Point","coordinates":[6.97822,53.17083]},"properties":{"type":"charge","layer":"passenger","locationId":"91145507","name":"Equans Groningen Drenthe Tulpstraat 29","address":"Tulpstraat 29","city":"Scheemda","operatorName":"EQUANS","maxPowerKw":0,"isMegawatt":false,"status":"AVAILABLE","source":"ndw"}},{"type":"Feature","geometry":{"type":"Point","coordinates":[6.976103,53.172566]},"properties":{"type":"charge","layer":"passenger","locationId":"91154027","name":"Equans Groningen Drenthe Anemoonstraat 2","address":"Anemoonstraat 2","city":"Scheemda","operatorName":"EQUANS","maxPowerKw":0,"isMegawatt":false,"status":"AVAILABLE","source":"ndw"}},{"type":"Feature","geometry":{"type":"Point","coordinates":[6.956478,53.182848]},"properties":{"type":"charge","layer":"passenger","locationId":"6943f1fee26f47d35cf2fbee","name":"Ommelander Ziekenhuis Groningen, laadpunt 2","address":"Pastorieweg 1","city":"Scheemda","operatorName":"E-Flux by Road","maxPowerKw":11,"isMegawatt":false,"status":"AVAILABLE","source":"ndw"}},{"type":"Feature","geometry":{"type":"Point","coordinates":[7.08886,53.19862]},"properties":{"type":"charge","layer":"passenger","locationId":"91401056","name":"Equans Groningen Drenthe Dorpshuisweg 3A","address":"Dorpshuisweg 3A","city":"Finsterwolde","operatorName":"EQUANS","maxPowerKw":0,"isMegawatt":false,"status":"AVAILABLE","source":"ndw"}},{"type":"Feature","geometry":{"type":"Point","coordinates":[7.01173,53.157642]},"properties":{"type":"charge","layer":"passenger","locationId":"NLLOC007270","name":"NL, Nassaulaan 3, 9677 PZ, Heiligerlee","address":"Nassaulaan 3","city":"Heiligerlee","operatorName":"Allego","maxPowerKw":0,"isMegawatt":false,"status":"AVAILABLE","source":"ndw"}},{"type":"Feature","geometry":{"type":"Point","coordinates":[7.053319,53.152971]},"properties":{"type":"charge","layer":"passenger","locationId":"6603e631fae5fd001c5b2541","name":"alfen proline 9 en 10","address":"Zeefbaan  35","city":"winschoten","operatorName":"E-Flux by Road","maxPowerKw":22,"isMegawatt":false,"status":"AVAILABLE","source":"ndw"}},{"type":"Feature","geometry":{"type":"Point","coordinates":[7.030236,53.151768]},"properties":{"type":"charge","layer":"passenger","locationId":"91145539","name":"Equans Groningen Drenthe Tromplaan 86","address":"Tromplaan 86","city":"Winschoten","operatorName":"EQUANS","maxPowerKw":0,"isMegawatt":false,"status":"AVAILABLE","source":"ndw"}},{"type":"Feature","geometry":{"type":"Point","coordinates":[7.046804,53.204646]},"properties":{"type":"charge","layer":"passenger","locationId":"NLLOC026420","name":"NL, Goldhoornhof 6, 9682 XV Oostwold","address":"Goldhoornhof 6","city":"Oostwold","operatorName":"Allego","maxPowerKw":0,"isMegawatt":false,"status":"AVAILABLE","source":"ndw"}},{"type":"Feature","geometry":{"type":"Point","coordinates":[6.957552,53.183618]},"properties":{"type":"charge","layer":"passenger","locationId":"694510719206c7416d687edb","name":"Ommelander Ziekenhuis Groningen, laadpunt 13","address":"Pastorieweg 1","city":"Scheemda","operatorName":"E-Flux by Road","maxPowerKw":11,"isMegawatt":false,"status":"CHARGING","source":"ndw"}},{"type":"Feature","geometry":{"type":"Point","coordinates":[7.043507,53.139712]},"properties":{"type":"charge","layer":"passenger","locationId":"NLLOC027316","name":"NL, Wilhelminasingel 1, 9672AL, Winschoten","address":"Wilhelminasingel 1","city":"Winschoten","operatorName":"Allego","maxPowerKw":0,"isMegawatt":false,"status":"AVAILABLE","source":"ndw"}},{"type":"Feature","geometry":{"type":"Point","coordinates":[7.01977,53.19123]},"properties":{"type":"charge","layer":"passenger","locationId":"91277446","name":"Equans Groningen Drenthe Dr. Oortwijn Botjeslaan 82","address":"Dr. Oortwijn Botjeslaan 82","city":"Midwolda","operatorName":"EQUANS","maxPowerKw":0,"isMegawatt":false,"status":"AVAILABLE","source":"ndw"}},{"type":"Feature","geometry":{"type":"Point","coordinates":[7.038589,53.148741]},"properties":{"type":"charge","layer":"passenger","locationId":"91145545","name":"Equans Groningen Drenthe 't Ompad 1","address":"t Ompad 1","city":"Winschoten","operatorName":"EQUANS","maxPowerKw":0,"isMegawatt":false,"status":"AVAILABLE","source":"ndw"}},{"type":"Feature","geometry":{"type":"Point","coordinates":[6.969993,53.176001]},"properties":{"type":"charge","layer":"passenger","locationId":"NLLOC006579","name":"NL, Vredenhovenstraat 27, 9679AL, Scheemda","address":"Vredenhovenstraat 27","city":"Scheemda","operatorName":"Allego","maxPowerKw":0,"isMegawatt":false,"status":"AVAILABLE","source":"ndw"}},{"type":"Feature","geometry":{"type":"Point","coordinates":[6.976447,53.24506]},"properties":{"type":"charge","layer":"passenger","locationId":"NLLOC006580","name":"NL, Hoofdstraat 60, 9944AG, Nieuwolda","address":"Hoofdstraat 60","city":"Nieuwolda","operatorName":"Allego","maxPowerKw":0,"isMegawatt":false,"status":"AVAILABLE","source":"ndw"}},{"type":"Feature","geometry":{"type":"Point","coordinates":[6.956445,53.182874]},"properties":{"type":"charge","layer":"passenger","locationId":"6943f3445cc3a5e44970d402","name":"Ommelander Ziekenhuis Groningen, laadpunt 7","address":"Pastorieweg 1","city":"Scheemda","operatorName":"E-Flux by Road","maxPowerKw":11,"isMegawatt":false,"status":"CHARGING","source":"ndw"}},{"type":"Feature","geometry":{"type":"Point","coordinates":[6.957459,53.183608]},"properties":{"type":"charge","layer":"passenger","locationId":"694511cd2f1b1141f5e93168","name":"Ommelander Ziekenhuis Groningen, laadpunt 20","address":"Pastorieweg 1","city":"Scheemda","operatorName":"E-Flux by Road","maxPowerKw":11,"isMegawatt":false,"status":"UNAVAILABLE","source":"ndw"}},{"type":"Feature","geometry":{"type":"Point","coordinates":[7.041598,53.135047]},"properties":{"type":"charge","layer":"passenger","locationId":"91145089","name":"Equans Groningen Drenthe Constantijn Huygenslaan 11","address":"Constantijn Huygenslaan 11","city":"Winschoten","operatorName":"EQUANS","maxPowerKw":0,"isMegawatt":false,"status":"AVAILABLE","source":"ndw"}},{"type":"Feature","geometry":{"type":"Point","coordinates":[7.20185,53.18471]},"properties":{"type":"charge","layer":"passenger","locationId":"91452158","name":"Equans Groningen Drenthe Verlengde Hoofdstraat 22","address":"Verlengde Hoofdstraat 22","city":"Bad Nieuweschans","operatorName":"EQUANS","maxPowerKw":0,"isMegawatt":false,"status":"AVAILABLE","source":"ndw"}},{"type":"Feature","geometry":{"type":"Point","coordinates":[7.01747,53.19297]},"properties":{"type":"charge","layer":"passenger","locationId":"91145107","name":"Equans Groningen Drenthe Doctor Oortwijn Botjeslaan 40","address":"Doctor Oortwijn Botjeslaan 40","city":"Midwolda","operatorName":"EQUANS","maxPowerKw":0,"isMegawatt":false,"status":"AVAILABLE","source":"ndw"}},{"type":"Feature","geometry":{"type":"Point","coordinates":[7.0399,53.14153]},"properties":{"type":"charge","layer":"passenger","locationId":"91266393","name":"Equans Groningen Drenthe Engelsestraat 2 A1","address":"Engelsestraat 2 A1","city":"Winschoten","operatorName":"EQUANS","maxPowerKw":0,"isMegawatt":false,"status":"AVAILABLE","source":"ndw"}},{"type":"Feature","geometry":{"type":"Point","coordinates":[7.05122,53.141076]},"properties":{"type":"charge","layer":"passenger","locationId":"6996e51add2b35cc3d4d6500","name":"Ziegler laadpaal 5","address":"Industrieweg  20","city":"Winschoten","operatorName":"Lanova Laadpalen","maxPowerKw":22,"isMegawatt":false,"status":"AVAILABLE","source":"ndw"}},{"type":"Feature","geometry":{"type":"Point","coordinates":[7.036235,53.144324]},"properties":{"type":"charge","layer":"passenger","locationId":"91145272","name":"Equans Groningen Drenthe Venne 123","address":"Venne 123","city":"Winschoten","operatorName":"EQUANS","maxPowerKw":0,"isMegawatt":false,"status":"AVAILABLE","source":"ndw"}},{"type":"Feature","geometry":{"type":"Point","coordinates":[6.957437,53.183619]},"properties":{"type":"charge","layer":"passenger","locationId":"694510dc4b0734b21d905106","name":"Ommelander Ziekenhuis Groningen, laadpunt 15","address":"Pastorieweg 1","city":"Scheemda","operatorName":"E-Flux by Road","maxPowerKw":11,"isMegawatt":false,"status":"CHARGING","source":"ndw"}},{"type":"Feature","geometry":{"type":"Point","coordinates":[7.007563,53.155605]},"properties":{"type":"charge","layer":"passenger","locationId":"NLLOC006577","name":"NL, Provincialeweg 46, 9677PD, Heiligerlee","address":"Provincialeweg 46","city":"Heiligerlee","operatorName":"Allego","maxPowerKw":0,"isMegawatt":false,"status":"AVAILABLE","source":"ndw"}},{"type":"Feature","geometry":{"type":"Point","coordinates":[7.0344,53.158303]},"properties":{"type":"charge","layer":"passenger","locationId":"91145136","name":"Equans Groningen Drenthe Otterlaan 131","address":"Otterlaan 131","city":"Winschoten","operatorName":"EQUANS","maxPowerKw":0,"isMegawatt":false,"status":"AVAILABLE","source":"ndw"}},{"type":"Feature","geometry":{"type":"Point","coordinates":[6.957506,53.183594]},"properties":{"type":"charge","layer":"passenger","locationId":"6945116c1a85e97922242cb2","name":"Ommelander Ziekenhuis Groningen, laadpunt 18","address":"Pastorieweg 1","city":"Scheemda","operatorName":"E-Flux by Road","maxPowerKw":11,"isMegawatt":false,"status":"CHARGING","source":"ndw"}},{"type":"Feature","geometry":{"type":"Point","coordinates":[6.966391,53.170367]},"properties":{"type":"charge","layer":"passenger","locationId":"61eab030b1cff3b031b3edd9","name":"Ons' station","address":"Verbindingsweg 23","city":"Scheemda","operatorName":"E-Flux by Road","maxPowerKw":11,"isMegawatt":false,"status":"AVAILABLE","source":"ndw"}},{"type":"Feature","geometry":{"type":"Point","coordinates":[6.973007,53.244657]},"properties":{"type":"charge","layer":"passenger","locationId":"91145517","name":"Equans Groningen Drenthe Hoofdstraat 15","address":"Hoofdstraat 15","city":"Nieuwolda","operatorName":"EQUANS","maxPowerKw":0,"isMegawatt":false,"status":"AVAILABLE","source":"ndw"}},{"type":"Feature","geometry":{"type":"Point","coordinates":[7.08248,53.18716]},"properties":{"type":"charge","layer":"passenger","locationId":"91145509","name":"Equans Groningen Drenthe Klinkerweg 135","address":"Klinkerweg 135","city":"Finsterwolde","operatorName":"EQUANS","maxPowerKw":0,"isMegawatt":false,"status":"AVAILABLE","source":"ndw"}},{"type":"Feature","geometry":{"type":"Point","coordinates":[7.021034,53.149628]},"properties":{"type":"charge","layer":"passenger","locationId":"91145544","name":"Equans Groningen Drenthe Sleedoornweg 75","address":"Sleedoornweg 75","city":"Winschoten","operatorName":"EQUANS","maxPowerKw":0,"isMegawatt":false,"status":"AVAILABLE","source":"ndw"}},{"type":"Feature","geometry":{"type":"Point","coordinates":[7.0416,53.14205]},"properties":{"type":"charge","layer":"passenger","locationId":"91145118","name":"Equans Groningen Drenthe Beertsterstraat 11A","address":"Beertsterstraat 11A","city":"Winschoten","operatorName":"EQUANS","maxPowerKw":0,"isMegawatt":false,"status":"AVAILABLE","source":"ndw"}},{"type":"Feature","geometry":{"type":"Point","coordinates":[7.035791,53.167993]},"properties":{"type":"charge","layer":"passenger","locationId":"91145448","name":"Equans Groningen Drenthe Arsenaal 33","address":"Arsenaal 33","city":"Blauwestad","operatorName":"EQUANS","maxPowerKw":0,"isMegawatt":false,"status":"AVAILABLE","source":"ndw"}},{"type":"Feature","geometry":{"type":"Point","coordinates":[7.014084,53.195441]},"properties":{"type":"charge","layer":"passenger","locationId":"91145253","name":"Equans Groningen Drenthe Hoofdweg 165","address":"Hoofdweg 165","city":"Midwolda","operatorName":"EQUANS","maxPowerKw":0,"isMegawatt":false,"status":"AVAILABLE","source":"ndw"}},{"type":"Feature","geometry":{"type":"Point","coordinates":[7.215698,53.178814]},"properties":{"type":"charge","layer":"passenger","locationId":"68500225e9bea051b225beba","name":"Fieten Electric B.V. | Bad Nieuweschans","address":"Rijksweg  28 A","city":"Bad Nieuweschans","operatorName":"E-Flux by Road","maxPowerKw":22,"isMegawatt":false,"status":"AVAILABLE","source":"ndw"}},{"type":"Feature","geometry":{"type":"Point","coordinates":[7.03612,53.14074]},"properties":{"type":"charge","layer":"passenger","locationId":"91145037","name":"Equans Groningen Drenthe Poststraat 58","address":"Poststraat 58","city":"Winschoten","operatorName":"EQUANS","maxPowerKw":0,"isMegawatt":false,"status":"CHARGING","source":"ndw"}},{"type":"Feature","geometry":{"type":"Point","coordinates":[6.957482,53.183642]},"properties":{"type":"charge","layer":"passenger","locationId":"6945110c19b701a3b8ffbdbe","name":"Ommelander Ziekenhuis Groningen, laadpunt 16","address":"Pastorieweg 1","city":"Scheemda","operatorName":"E-Flux by Road","maxPowerKw":11,"isMegawatt":false,"status":"CHARGING","source":"ndw"}},{"type":"Feature","geometry":{"type":"Point","coordinates":[6.956504,53.182861]},"properties":{"type":"charge","layer":"passenger","locationId":"6943f3131adaaf2b12465c9b","name":"Ommelander Ziekenhuis Groningen, laadpunt 6","address":"Pastorieweg 1","city":"Scheemda","operatorName":"E-Flux by Road","maxPowerKw":10,"isMegawatt":false,"status":"CHARGING","source":"ndw"}},{"type":"Feature","geometry":{"type":"Point","coordinates":[7.03194,53.13416]},"properties":{"type":"charge","layer":"passenger","locationId":"91145036","name":"Equans Groningen Drenthe Scheldestraat 70","address":"Scheldestraat 70","city":"Winschoten","operatorName":"EQUANS","maxPowerKw":0,"isMegawatt":false,"status":"AVAILABLE","source":"ndw"}},{"type":"Feature","geometry":{"type":"Point","coordinates":[6.970281,53.176139]},"properties":{"type":"charge","layer":"passenger","locationId":"923579","name":"Scheemda","address":"Vredenhovenplein","city":"Scheemda","operatorName":"Mobiflow","maxPowerKw":11,"isMegawatt":false,"status":"UNAVAILABLE","source":"ndw"}},{"type":"Feature","geometry":{"type":"MultiPolygon","coordinates":[[[[7.012604076006781,53.260639599692944],[7.013294679529226,53.260703088963616],[7.021846048058998,53.253238239161604],[7.023152976169593,53.25409462544832],[7.031596735800224,53.25613333873071],[7.0345949871212055,53.258424124517376],[7.037207653905204,53.259683480607045],[7.038717492895025,53.258631281192216],[7.040305595071166,53.25983801971207],[7.057419625755535,53.247341762554875],[7.059439670105043,53.2482294301995],[7.067501935021637,53.24239314265822],[7.079429575167402,53.24817875041964],[7.0766313453230785,53.24970096385831],[7.08394201259394,53.25434930448821],[7.093248380491955,53.25714581716481],[7.093693443924106,53.25609465378917],[7.095499274112353,53.25528428437522],[7.097720486062673,53.25612373483494],[7.103611735301756,53.25227893051831],[7.105275775040103,53.25274656049629],[7.106549467753177,53.25190468986119],[7.108264803221962,53.252663980943986],[7.111826863813322,53.250693312080934],[7.115104594790142,53.25223225928526],[7.11661010861499,53.25064845451858],[7.119239849601807,53.25119194644318],[7.120933928104155,53.24988450455748],[7.123995559247312,53.250417060881986],[7.134006951403093,53.2501566667743],[7.135450862331095,53.2484034746362],[7.13968046799872,53.24751029337958],[7.1430425987548425,53.24570041792333],[7.147088182169394,53.24635034542341],[7.150119141733341,53.24519428424897],[7.155863384682635,53.24339368215756],[7.1561560138032325,53.244919974642116],[7.158639107724533,53.24502673395799],[7.159368370154413,53.24609523315999],[7.163136272815686,53.245375445858585],[7.166544456344417,53.24388254006617],[7.167749387952257,53.242757953420025],[7.170402727388942,53.242684679356444],[7.173065210608544,53.240500076418385],[7.1737573131519285,53.24151005053982],[7.175636237708055,53.24077685359103],[7.176659602806341,53.24108493247273],[7.177484293336801,53.24123505115527],[7.183216646839177,53.23913110503366],[7.183579146861489,53.23987783292792],[7.18622011544571,53.238737674290974],[7.187477045148134,53.23912510032866],[7.189846318670377,53.23820223934886],[7.194555631446828,53.238027367158764],[7.205716423923927,53.23631229501241],[7.207026973829486,53.23238558544352],[7.20766511912323,53.232430861305346],[7.208055894631656,53.23166312124189],[7.208948915885802,53.2318130829126],[7.209134020481525,53.23221628152056],[7.206575936276066,53.236821753705826],[7.208070017858871,53.238875740175246],[7.2084802413314835,53.23924682338919],[7.209805463538667,53.23940982257208],[7.212503921556046,53.22819065919982],[7.210491067722051,53.2283991211141],[7.2170248267995945,53.21476862966611],[7.217622318762106,53.19781936647006],[7.216551250371268,53.1955500531714],[7.211452832748593,53.19251060549953],[7.208189983625683,53.18865302813514],[7.218243996456443,53.184245509174495],[7.227498008442701,53.18028052366218],[7.214001927171475,53.17720610722894],[7.205994503493841,53.176499023704594],[7.203654505383163,53.17656618934774],[7.200770737387199,53.17328158205422],[7.190900108572185,53.1618416648333],[7.191179033959939,53.159573728553475],[7.189323165225588,53.157324782070475],[7.18924393295826,53.15488485880913],[7.183172416946866,53.154756146791776],[7.176995045722486,53.1525843534971],[7.173959028684351,53.14793310927976],[7.148069239844502,53.15954628872073],[7.14530769251844,53.16077554040664],[7.143215641699647,53.15716467080048],[7.140109927810395,53.15460834788711],[7.133625618321655,53.15240016011904],[7.126278470896837,53.15145073464375],[7.116111048886565,53.14801771124054],[7.107196376019696,53.14441802947362],[7.102138881832854,53.14323410434399],[7.0983997128249445,53.14336271278018],[7.089514685141961,53.145190795885604],[7.086206943481436,53.14502490932634],[7.080305265888786,53.14357401907187],[7.068849656020334,53.13748812076337],[7.051179570276126,53.13021980429156],[7.049902895707505,53.12883267817494],[7.035596171078523,53.11958110260336],[7.033659133204919,53.11604873674579],[7.029753982271226,53.11509881781062],[7.028026836034284,53.11611386971489],[7.022239299636261,53.11608372719009],[6.987692507683924,53.11610525890479],[6.9873611260591995,53.11577476345924],[6.983780994937084,53.11765270439751],[6.984451615147948,53.11811200857196],[6.982534767751328,53.119124997413365],[6.979748534972491,53.11919793836819],[6.967389439797302,53.11135894525283],[6.965294485202466,53.11083275138187],[6.96584632568211,53.11207957980882],[6.959871557593157,53.12450109307699],[6.9565366289302135,53.13439047602252],[6.95631579671356,53.13504721821938],[6.955967049773208,53.1362663774383],[6.955476659149013,53.136921458607276],[6.954928043795575,53.13674496361393],[6.954447128833451,53.14379743844004],[6.950380470770654,53.15889661580889],[6.9437828325315385,53.15901492428095],[6.94229847915739,53.16642066594427],[6.929832910146017,53.16533607557946],[6.9292749011731125,53.16905200784838],[6.903730406899463,53.166507283511606],[6.9074041899781005,53.16970055204046],[6.91220778521646,53.171967583207916],[6.908283538606905,53.172235455767314],[6.907635633486502,53.172879234597744],[6.9082025088098575,53.17428813298596],[6.912533624162445,53.175624679194605],[6.913084051871382,53.17693059434845],[6.91149750900264,53.17870476853888],[6.911579565897927,53.18128489012955],[6.913859510720785,53.18302805820193],[6.915795111911195,53.188279765554476],[6.918688957645987,53.19139361827267],[6.922902218144851,53.19070563400986],[6.925108133832488,53.19424995619296],[6.9227175638401945,53.194649059083886],[6.916819431084963,53.195571091411395],[6.9183969379983035,53.19873452664936],[6.924687255455843,53.2050724414289],[6.920595709086022,53.207450094687985],[6.92900414566455,53.213085325986064],[6.926941831081583,53.21459859675215],[6.922815019600611,53.220631049391656],[6.925531653826993,53.221558829827416],[6.920040758446734,53.227343690401405],[6.912715737757646,53.22512577201888],[6.908590672043859,53.23395509093699],[6.9113435959641745,53.24301664817126],[6.913952841422953,53.242836829392814],[6.916147596099494,53.24361951899605],[6.921719949669792,53.23918131855852],[6.928590495813336,53.237076716313254],[6.937602693683201,53.24425052504258],[6.942505652749565,53.24204461904021],[6.94498957013851,53.24361604694957],[6.946135515861367,53.24897500906817],[6.952229922169807,53.25649992811869],[6.997010404301699,53.26713025281454],[7.0132272398168505,53.26684175358108],[7.012604076006781,53.260639599692944]]],[[[7.2080522198217825,53.23919949590879],[7.206543460420433,53.2375558998814],[7.205135352167914,53.23941279990098],[7.205977285183506,53.239665494168776],[7.206724908383546,53.23947431075021],[7.206871670636931,53.24158205545347],[7.20788889051669,53.24268410956599],[7.208947238521087,53.243074770153754],[7.209672010609399,53.23964068328089],[7.2080522198217825,53.23919949590879]]]]},"properties":{"type":"boundary","gemeente":"Oldambt","code":"GM1895"}}]}