{"type":"FeatureCollection","metadata":{"gemeente":"Oude IJsselstreek","slug":"oude-ijsselstreek","code":"GM1509","generated_at":"2026-06-07T19:22:09.578Z","total_passenger":75,"total_freight":0,"bounds":[6.289653911421707,51.82726288929866,6.532829488598807,51.97821887722478],"operators":["E-Flux by Road","Laadnet","Lanova Laadpalen","Shell Recharge","Vattenfall InCharge"]},"features":[{"type":"Feature","geometry":{"type":"Point","coordinates":[6.391722,51.909257]},"properties":{"type":"charge","layer":"passenger","locationId":"1f7a376b77e73af6f9a9f855e4bae1ba","name":"Melkweg 7","address":"Melkweg 7","city":"Silvolde","operatorName":"Vattenfall InCharge","maxPowerKw":11,"isMegawatt":false,"status":"AVAILABLE","source":"ndw"}},{"type":"Feature","geometry":{"type":"Point","coordinates":[6.485459,51.941445]},"properties":{"type":"charge","layer":"passenger","locationId":"68502a834214359c6e4e88fd","name":"Straatman Building Smart Connections BV","address":"Kronenweg 4","city":"Varsseveld","operatorName":"E-Flux by Road","maxPowerKw":11,"isMegawatt":false,"status":"AVAILABLE","source":"ndw","priceKwh":0.38}},{"type":"Feature","geometry":{"type":"Point","coordinates":[6.378495,51.872166]},"properties":{"type":"charge","layer":"passenger","locationId":"5f026f79ca0259e8cf56053c059eab22","name":"Bringenborg 1","address":"Bringenborg 1","city":"Gendringen","operatorName":"Vattenfall InCharge","maxPowerKw":11,"isMegawatt":false,"status":"AVAILABLE","source":"ndw"}},{"type":"Feature","geometry":{"type":"Point","coordinates":[6.394302,51.894665]},"properties":{"type":"charge","layer":"passenger","locationId":"baa97475-76ee-459a-bd77-d203435ca95c","name":"Bontebrug","address":"Bontebrug 82 A","city":"Silvolde","operatorName":"Vattenfall InCharge","maxPowerKw":11,"isMegawatt":false,"status":"AVAILABLE","source":"ndw"}},{"type":"Feature","geometry":{"type":"Point","coordinates":[6.457101,51.945295]},"properties":{"type":"charge","layer":"passenger","locationId":"d5d2d4eca91ec1458e24a20682c2ce29","name":"Doetinchemseweg 48","address":"Doetinchemseweg 48","city":"Varsseveld","operatorName":"Vattenfall InCharge","maxPowerKw":11,"isMegawatt":false,"status":"AVAILABLE","source":"ndw"}},{"type":"Feature","geometry":{"type":"Point","coordinates":[6.380786,51.897113]},"properties":{"type":"charge","layer":"passenger","locationId":"685e3fe73e920d12c79486cb","name":"Wonion 2 station","address":"Hutteweg 115","city":"Ulft","operatorName":"E-Flux by Road","maxPowerKw":21,"isMegawatt":false,"status":"AVAILABLE","source":"ndw","priceKwh":0.63}},{"type":"Feature","geometry":{"type":"Point","coordinates":[6.37332,51.901649]},"properties":{"type":"charge","layer":"passenger","locationId":"8da57108-7330-42e9-a6c3-3c212a886f37","name":"Ettenseweg","address":"Ettenseweg 26","city":"Ulft","operatorName":"Vattenfall InCharge","maxPowerKw":11,"isMegawatt":false,"status":"AVAILABLE","source":"ndw"}},{"type":"Feature","geometry":{"type":"Point","coordinates":[6.347964,51.916283]},"properties":{"type":"charge","layer":"passenger","locationId":"524","name":"Shell Recharge NL9174 - Gamma Terborg Etten","address":"Zeddamseweg 46","city":"Etten","operatorName":"Shell Recharge","maxPowerKw":150,"isMegawatt":false,"status":"AVAILABLE","source":"ndw","priceKwh":0.7025}},{"type":"Feature","geometry":{"type":"Point","coordinates":[6.38586,51.90711]},"properties":{"type":"charge","layer":"passenger","locationId":"bf0bad7ba4d11e137b5c164981fc16ca","name":"Roomberg 48","address":"Roomberg 48","city":"Silvolde","operatorName":"Vattenfall InCharge","maxPowerKw":11,"isMegawatt":false,"status":"AVAILABLE","source":"ndw"}},{"type":"Feature","geometry":{"type":"Point","coordinates":[6.37205,51.89408]},"properties":{"type":"charge","layer":"passenger","locationId":"28b7c3717482f5137cbf428046345aae","name":"Akkerstraat 41","address":"Akkerstraat 41","city":"Ulft","operatorName":"Vattenfall InCharge","maxPowerKw":11,"isMegawatt":false,"status":"AVAILABLE","source":"ndw"}},{"type":"Feature","geometry":{"type":"Point","coordinates":[6.368102,51.890045]},"properties":{"type":"charge","layer":"passenger","locationId":"0e773af133340d2a1644ca31d35c9dd9","name":"Ruvenkamp 13","address":"Ruvenkamp 13","city":"Ulft","operatorName":"Vattenfall InCharge","maxPowerKw":11,"isMegawatt":false,"status":"AVAILABLE","source":"ndw"}},{"type":"Feature","geometry":{"type":"Point","coordinates":[6.347964,51.916283]},"properties":{"type":"charge","layer":"passenger","locationId":"f0e97af4-4c47-11ee-a7c6-42010aa40fc0","name":"Shell Recharge Zeddamseweg 46","address":"Zeddamseweg 46","city":"Etten","operatorName":"Shell Recharge","maxPowerKw":150,"isMegawatt":false,"status":"CHARGING","source":"ndw"}},{"type":"Feature","geometry":{"type":"Point","coordinates":[6.380017,51.915885]},"properties":{"type":"charge","layer":"passenger","locationId":"3614227","name":"Laadnet mrb","address":"Munstermanstraat 6","city":"Silvolde","operatorName":"Laadnet","maxPowerKw":22,"isMegawatt":false,"status":"AVAILABLE","source":"ndw"}},{"type":"Feature","geometry":{"type":"Point","coordinates":[6.35454,51.91867]},"properties":{"type":"charge","layer":"passenger","locationId":"f6bd7198f0b3a5f7f089b20596a016f1","name":"Ettensestraat 12","address":"Ettensestraat 12","city":"Terborg","operatorName":"Vattenfall InCharge","maxPowerKw":11,"isMegawatt":false,"status":"AVAILABLE","source":"ndw"}},{"type":"Feature","geometry":{"type":"Point","coordinates":[6.318022,51.90637]},"properties":{"type":"charge","layer":"passenger","locationId":"3967056","name":"Laadnet GUV Facilitair","address":"Zeddamseweg 17","city":"Etten","operatorName":"Laadnet","maxPowerKw":22,"isMegawatt":false,"status":"AVAILABLE","source":"ndw"}},{"type":"Feature","geometry":{"type":"Point","coordinates":[6.450546,51.947873]},"properties":{"type":"charge","layer":"passenger","locationId":"5a6a7ed7-9b84-4289-ad97-7c867006dcd8","name":"Reigershof 90","address":"Reigershof 90","city":"Varsseveld","operatorName":"Vattenfall InCharge","maxPowerKw":11,"isMegawatt":false,"status":"AVAILABLE","source":"ndw"}},{"type":"Feature","geometry":{"type":"Point","coordinates":[6.461206,51.9441]},"properties":{"type":"charge","layer":"passenger","locationId":"63a307e497586d00129e0f19","name":"Parkeerplaats Action","address":"Action Doetinchemseweg","city":"Varsseveld","operatorName":"E-Flux by Road","maxPowerKw":14,"isMegawatt":false,"status":"AVAILABLE","source":"ndw","priceKwh":0.42}},{"type":"Feature","geometry":{"type":"Point","coordinates":[6.380798,51.897105]},"properties":{"type":"charge","layer":"passenger","locationId":"685e3eedd999ec7ecc666010","name":"Wonion 3 station","address":"Hutteweg 115","city":"Ulft","operatorName":"E-Flux by Road","maxPowerKw":22,"isMegawatt":false,"status":"AVAILABLE","source":"ndw","priceKwh":0.63}},{"type":"Feature","geometry":{"type":"Point","coordinates":[6.451307,51.944638]},"properties":{"type":"charge","layer":"passenger","locationId":"2786810","name":"Laadnet R. Lassen - InfraRUUD","address":"De Singel 6","city":"Varsseveld","operatorName":"Laadnet","maxPowerKw":22,"isMegawatt":false,"status":"AVAILABLE","source":"ndw"}},{"type":"Feature","geometry":{"type":"Point","coordinates":[6.461545,51.938074]},"properties":{"type":"charge","layer":"passenger","locationId":"49752f1784a38545d0ec9d6f14eaa59b","name":"Aaltenseweg  28","address":"Aaltenseweg  28","city":"Varsseveld","operatorName":"Vattenfall InCharge","maxPowerKw":11,"isMegawatt":false,"status":"AVAILABLE","source":"ndw"}},{"type":"Feature","geometry":{"type":"Point","coordinates":[6.436205,51.952978]},"properties":{"type":"charge","layer":"passenger","locationId":"6246b998f0e19fccd9e5cccc","name":"Het Kempke","address":"Oostelijke Noorderbroekweg 3","city":"Westendorp","operatorName":"E-Flux by Road","maxPowerKw":22,"isMegawatt":false,"status":"AVAILABLE","source":"ndw","priceKwh":0.43}},{"type":"Feature","geometry":{"type":"Point","coordinates":[6.448558,51.944455]},"properties":{"type":"charge","layer":"passenger","locationId":"bf3f039a77aa1637d7100747f36075e0","name":"De Zicht 43","address":"De Zicht 43","city":"Varsseveld","operatorName":"Vattenfall InCharge","maxPowerKw":11,"isMegawatt":false,"status":"AVAILABLE","source":"ndw"}},{"type":"Feature","geometry":{"type":"Point","coordinates":[6.377088,51.891618]},"properties":{"type":"charge","layer":"passenger","locationId":"620f94d3b8d5447e44565053","name":"Woonzorgcentrum en verpleeghuis Debbeshoek","address":"Kempermanstraat  1","city":"Ulft","operatorName":"E-Flux by Road","maxPowerKw":22,"isMegawatt":false,"status":"AVAILABLE","source":"ndw","priceKwh":0.36}},{"type":"Feature","geometry":{"type":"Point","coordinates":[6.410671,51.94991]},"properties":{"type":"charge","layer":"passenger","locationId":"dd7b838f-0346-4975-aa45-05b85da5adc6","name":"Steuterweg","address":"Steuterweg 4","city":"Westendorp","operatorName":"Vattenfall InCharge","maxPowerKw":11,"isMegawatt":false,"status":"CHARGING","source":"ndw"}},{"type":"Feature","geometry":{"type":"Point","coordinates":[6.384226,51.89005]},"properties":{"type":"charge","layer":"passenger","locationId":"591aeb8fbf1e30a4656bab3dc2713a88","name":"Veldstraat 24","address":"Veldstraat 24","city":"Ulft","operatorName":"Vattenfall InCharge","maxPowerKw":11,"isMegawatt":false,"status":"AVAILABLE","source":"ndw"}},{"type":"Feature","geometry":{"type":"Point","coordinates":[6.358324,51.897587]},"properties":{"type":"charge","layer":"passenger","locationId":"643a7abe20206800126325c9","name":"Landwinkel Luemes","address":"'t Goor  59","city":"Ulft","operatorName":"E-Flux by Road","maxPowerKw":22,"isMegawatt":false,"status":"CHARGING","source":"ndw","priceKwh":0.43}},{"type":"Feature","geometry":{"type":"Point","coordinates":[6.31874,51.917251]},"properties":{"type":"charge","layer":"passenger","locationId":"6789069b56f008b43bf819f7","name":"Tiggelovend-Kok BV laadpaal 1","address":"warmseweg 27","city":"Etten","operatorName":"E-Flux by Road","maxPowerKw":11,"isMegawatt":false,"status":"AVAILABLE","source":"ndw","priceKwh":0.43}},{"type":"Feature","geometry":{"type":"Point","coordinates":[6.47375,51.903372]},"properties":{"type":"charge","layer":"passenger","locationId":"67cae282d9308e80e5e5000c","name":"De Varenhorst","address":"Aaltenseweg 2","city":"Breedenbroek","operatorName":"E-Flux by Road","maxPowerKw":22,"isMegawatt":false,"status":"AVAILABLE","source":"ndw","priceKwh":0.38}},{"type":"Feature","geometry":{"type":"Point","coordinates":[6.31874,51.917251]},"properties":{"type":"charge","layer":"passenger","locationId":"678905e7cd00c404c89b03f6","name":"Tiggelovend-Kok BV laadpaal 2","address":"Warmseweg  27","city":"Etten","operatorName":"E-Flux by Road","maxPowerKw":11,"isMegawatt":false,"status":"AVAILABLE","source":"ndw","priceKwh":0.43}},{"type":"Feature","geometry":{"type":"Point","coordinates":[6.380786,51.897111]},"properties":{"type":"charge","layer":"passenger","locationId":"685e3f598e4274cab13b7189","name":"Wonion 4 station","address":"Hutteweg 115","city":"Ulft","operatorName":"E-Flux by Road","maxPowerKw":22,"isMegawatt":false,"status":"AVAILABLE","source":"ndw","priceKwh":0.63}},{"type":"Feature","geometry":{"type":"Point","coordinates":[6.480134,51.939441]},"properties":{"type":"charge","layer":"passenger","locationId":"690231fb0e3cf87922c747e5","name":"Roy Assink 's station werk","address":"Markenweg 7","city":"Varsseveld","operatorName":"E-Flux by Road","maxPowerKw":11,"isMegawatt":false,"status":"AVAILABLE","source":"ndw","priceKwh":0.53}},{"type":"Feature","geometry":{"type":"Point","coordinates":[6.379051,51.878934]},"properties":{"type":"charge","layer":"passenger","locationId":"b03260d33d506773bc6efb84ed770138","name":"Waalstraat 1","address":"Waalstraat 1","city":"Gendringen","operatorName":"Vattenfall InCharge","maxPowerKw":11,"isMegawatt":false,"status":"AVAILABLE","source":"ndw"}},{"type":"Feature","geometry":{"type":"Point","coordinates":[6.455982,51.944614]},"properties":{"type":"charge","layer":"passenger","locationId":"6144790775b9231a40b32f82","name":"Verpleeghuis Den Es","address":"oranjestraat 30","city":"Varsseveld","operatorName":"E-Flux by Road","maxPowerKw":22,"isMegawatt":false,"status":"AVAILABLE","source":"ndw","priceKwh":0.36}},{"type":"Feature","geometry":{"type":"Point","coordinates":[6.478288,51.940997]},"properties":{"type":"charge","layer":"passenger","locationId":"63515f751bbcee27911fb52c","name":"Kuster Energy Varsseveld - Guldenweg","address":"Guldenweg 1","city":"Varsseveld","operatorName":"E-Flux by Road","maxPowerKw":22,"isMegawatt":false,"status":"AVAILABLE","source":"ndw"}},{"type":"Feature","geometry":{"type":"Point","coordinates":[6.31874,51.917251]},"properties":{"type":"charge","layer":"passenger","locationId":"6789136e3a883b581d2fa1a8","name":"Tiggelovend-Kok BV laadpaal 3","address":"Warmseweg  27","city":"Etten","operatorName":"E-Flux by Road","maxPowerKw":22,"isMegawatt":false,"status":"AVAILABLE","source":"ndw","priceKwh":0.43}},{"type":"Feature","geometry":{"type":"Point","coordinates":[6.463188,51.942688]},"properties":{"type":"charge","layer":"passenger","locationId":"36e2c678f50a65c89b26f3ae583634a5","name":"de Klokkeweerd  19","address":"de Klokkeweerd  19","city":"Varsseveld","operatorName":"Vattenfall InCharge","maxPowerKw":11,"isMegawatt":false,"status":"AVAILABLE","source":"ndw"}},{"type":"Feature","geometry":{"type":"Point","coordinates":[6.35023,51.921416]},"properties":{"type":"charge","layer":"passenger","locationId":"9c814231170fc44b18a2a93b60ce0f9b","name":"Kon. Wilhelminastraat 15","address":"Kon. Wilhelminastraat 15","city":"Terborg","operatorName":"Vattenfall InCharge","maxPowerKw":11,"isMegawatt":false,"status":"AVAILABLE","source":"ndw"}},{"type":"Feature","geometry":{"type":"Point","coordinates":[6.380785,51.897105]},"properties":{"type":"charge","layer":"passenger","locationId":"685e3faec072ed4e24992543","name":"Wonion 1 station","address":"Hutteweg  115","city":"Ulft","operatorName":"E-Flux by Road","maxPowerKw":21,"isMegawatt":false,"status":"AVAILABLE","source":"ndw","priceKwh":0.63}},{"type":"Feature","geometry":{"type":"Point","coordinates":[6.4655,51.94428]},"properties":{"type":"charge","layer":"passenger","locationId":"5e7db77e41c8ac79cdba395e09349e73","name":"Schoolstraat 20","address":"Schoolstraat 20","city":"Varsseveld","operatorName":"Vattenfall InCharge","maxPowerKw":11,"isMegawatt":false,"status":"AVAILABLE","source":"ndw"}},{"type":"Feature","geometry":{"type":"Point","coordinates":[6.393056,51.910919]},"properties":{"type":"charge","layer":"passenger","locationId":"c935d406-67aa-4acd-a402-5575842c36cf","name":"Prins Bernhardstraat","address":"Prins Bernhardstraat 89","city":"Silvolde","operatorName":"Vattenfall InCharge","maxPowerKw":11,"isMegawatt":false,"status":"AVAILABLE","source":"ndw"}},{"type":"Feature","geometry":{"type":"Point","coordinates":[6.46162,51.94489]},"properties":{"type":"charge","layer":"passenger","locationId":"50936ead5b31fba443b0a420d5faa635","name":"Essenkampstraat 7","address":"Essenkampstraat 7","city":"Varsseveld","operatorName":"Vattenfall InCharge","maxPowerKw":11,"isMegawatt":false,"status":"AVAILABLE","source":"ndw"}},{"type":"Feature","geometry":{"type":"Point","coordinates":[6.40712,51.91077]},"properties":{"type":"charge","layer":"passenger","locationId":"1701824","name":"Laadnet Camping op de Keizer","address":"Kapelweg 10","city":"Silvolde","operatorName":"Laadnet","maxPowerKw":22,"isMegawatt":false,"status":"AVAILABLE","source":"ndw"}},{"type":"Feature","geometry":{"type":"Point","coordinates":[6.462591,51.941354]},"properties":{"type":"charge","layer":"passenger","locationId":"aa9cf9e0-feee-496d-9706-f19a4221787e","name":"Pastoriehof","address":"Pastoriehof 10","city":"Varsseveld","operatorName":"Vattenfall InCharge","maxPowerKw":11,"isMegawatt":false,"status":"AVAILABLE","source":"ndw"}},{"type":"Feature","geometry":{"type":"Point","coordinates":[6.385207,51.88155]},"properties":{"type":"charge","layer":"passenger","locationId":"64a2ac2e033eda001cb0fc52","name":"A.P Oosterink 's station","address":"Nijverheidsweg  5","city":"Ulft","operatorName":"Lanova Laadpalen","maxPowerKw":11,"isMegawatt":false,"status":"AVAILABLE","source":"ndw","priceKwh":0.71}},{"type":"Feature","geometry":{"type":"Point","coordinates":[6.38149,51.910007]},"properties":{"type":"charge","layer":"passenger","locationId":"0ec55ac9-4afa-4008-a1df-b147bef90bd7","name":"Kerkenstraat 5","address":"Kerkenstraat 5","city":"Silvolde","operatorName":"Vattenfall InCharge","maxPowerKw":11,"isMegawatt":false,"status":"CHARGING","source":"ndw"}},{"type":"Feature","geometry":{"type":"Point","coordinates":[6.3522,51.919756]},"properties":{"type":"charge","layer":"passenger","locationId":"530d94246c4b4b21d7eb5a80403ffe2a","name":"Tuinstraat 41","address":"Tuinstraat 41","city":"Terborg","operatorName":"Vattenfall InCharge","maxPowerKw":11,"isMegawatt":false,"status":"AVAILABLE","source":"ndw"}},{"type":"Feature","geometry":{"type":"Point","coordinates":[6.37243,51.88676]},"properties":{"type":"charge","layer":"passenger","locationId":"09549fd09e8605666daa27c2340cdea2","name":"De Schouwgraaf 35","address":"De Schouwgraaf 35","city":"Ulft","operatorName":"Vattenfall InCharge","maxPowerKw":11,"isMegawatt":false,"status":"AVAILABLE","source":"ndw"}},{"type":"Feature","geometry":{"type":"Point","coordinates":[6.383699,51.878064]},"properties":{"type":"charge","layer":"passenger","locationId":"6853d48d8f096e6c1ae0c34d","name":"Fleetcraft B.V.","address":"Nijverheidsweg 28A","city":"Gendringen","operatorName":"E-Flux by Road","maxPowerKw":11,"isMegawatt":false,"status":"AVAILABLE","source":"ndw","priceKwh":0.78}},{"type":"Feature","geometry":{"type":"Point","coordinates":[6.362282,51.919574]},"properties":{"type":"charge","layer":"passenger","locationId":"f1019c15282c239fe43f82843aa48b2f","name":"Laan van Wisch 15","address":"Laan van Wisch 15","city":"Terborg","operatorName":"Vattenfall InCharge","maxPowerKw":11,"isMegawatt":false,"status":"AVAILABLE","source":"ndw"}},{"type":"Feature","geometry":{"type":"Point","coordinates":[6.312525,51.855523]},"properties":{"type":"charge","layer":"passenger","locationId":"73316205-ab9d-4431-97a8-9d756f0df2e3","name":"Emmerikseweg","address":"Emmerikseweg 3","city":"Netterden","operatorName":"Vattenfall InCharge","maxPowerKw":11,"isMegawatt":false,"status":"AVAILABLE","source":"ndw"}},{"type":"Feature","geometry":{"type":"Point","coordinates":[6.356801,51.886599]},"properties":{"type":"charge","layer":"passenger","locationId":"434a4186-5671-497e-9318-b6db5d1442f5","name":"Berghseweg","address":"Berghseweg 7g","city":"Varsselder","operatorName":"Vattenfall InCharge","maxPowerKw":11,"isMegawatt":false,"status":"AVAILABLE","source":"ndw"}},{"type":"Feature","geometry":{"type":"Point","coordinates":[6.36025,51.888928]},"properties":{"type":"charge","layer":"passenger","locationId":"4419ace296ac03f2d7cca0923fe6b42d","name":"Vicarisweg  1","address":"Vicarisweg  1","city":"Varsselder","operatorName":"Vattenfall InCharge","maxPowerKw":11,"isMegawatt":false,"status":"AVAILABLE","source":"ndw"}},{"type":"Feature","geometry":{"type":"Point","coordinates":[6.372781,51.881813]},"properties":{"type":"charge","layer":"passenger","locationId":"67eb8b523d8ba58f2c61bc18d1bd3706","name":"Geulstraat 66","address":"Geulstraat 66","city":"Ulft","operatorName":"Vattenfall InCharge","maxPowerKw":11,"isMegawatt":false,"status":"AVAILABLE","source":"ndw"}},{"type":"Feature","geometry":{"type":"Point","coordinates":[6.38426,51.9112]},"properties":{"type":"charge","layer":"passenger","locationId":"d5c94f40ce48137cd152f0d6509c581e","name":"Schoolstraat 1","address":"Schoolstraat 1","city":"Silvolde","operatorName":"Vattenfall InCharge","maxPowerKw":11,"isMegawatt":false,"status":"CHARGING","source":"ndw"}},{"type":"Feature","geometry":{"type":"Point","coordinates":[6.382833,51.880352]},"properties":{"type":"charge","layer":"passenger","locationId":"649eb6f2b8f4be001c759475","name":"Autobedrijf Harold Arendsen 's station","address":"Ambachtstraat  7","city":"Ulft","operatorName":"E-Flux by Road","maxPowerKw":17,"isMegawatt":false,"status":"AVAILABLE","source":"ndw","priceKwh":0.53}},{"type":"Feature","geometry":{"type":"Point","coordinates":[6.31874,51.917251]},"properties":{"type":"charge","layer":"passenger","locationId":"678904c13fd4a56b776a1235","name":"Tiggelovend-Kok BV laadpaal 4","address":"Warmseweg  27","city":"Etten","operatorName":"E-Flux by Road","maxPowerKw":11,"isMegawatt":false,"status":"AVAILABLE","source":"ndw","priceKwh":0.43}},{"type":"Feature","geometry":{"type":"Point","coordinates":[6.383432,51.873889]},"properties":{"type":"charge","layer":"passenger","locationId":"1e47f9153688f98a3ddff2dd7b2ba8f1","name":"Alberdingk Thijmstraat 13","address":"Alberdingk Thijmstraat 13","city":"Gendringen","operatorName":"Vattenfall InCharge","maxPowerKw":11,"isMegawatt":false,"status":"AVAILABLE","source":"ndw"}},{"type":"Feature","geometry":{"type":"Point","coordinates":[6.378471,51.887871]},"properties":{"type":"charge","layer":"passenger","locationId":"d2ed3b923ea5f6af9b76a52159376e66","name":"Grote Beer 69","address":"Grote Beer 69","city":"Ulft","operatorName":"Vattenfall InCharge","maxPowerKw":11,"isMegawatt":false,"status":"AVAILABLE","source":"ndw"}},{"type":"Feature","geometry":{"type":"Point","coordinates":[6.345801,51.922526]},"properties":{"type":"charge","layer":"passenger","locationId":"2662c50e-3aaa-4791-be00-9db07c62cea8","name":"Koningin Emmastraat ","address":"Koningin Emmastraat  23 A","city":"Terborg","operatorName":"Vattenfall InCharge","maxPowerKw":11,"isMegawatt":false,"status":"AVAILABLE","source":"ndw"}},{"type":"Feature","geometry":{"type":"Point","coordinates":[6.470875,51.872994]},"properties":{"type":"charge","layer":"passenger","locationId":"2a84fc3e-fe72-4eb4-b37c-f86d4ed80576","name":"Krommenhorst  4","address":"Krommenhorst  4","city":"Breedenbroek","operatorName":"Vattenfall InCharge","maxPowerKw":11,"isMegawatt":false,"status":"AVAILABLE","source":"ndw"}},{"type":"Feature","geometry":{"type":"Point","coordinates":[6.385664,51.906139]},"properties":{"type":"charge","layer":"passenger","locationId":"f3f21f08f109b9196cc24e037e1d25f4","name":"Heuvelstraat 4","address":"Heuvelstraat 4","city":"Silvolde","operatorName":"Vattenfall InCharge","maxPowerKw":11,"isMegawatt":false,"status":"AVAILABLE","source":"ndw"}},{"type":"Feature","geometry":{"type":"Point","coordinates":[6.372055,51.890144]},"properties":{"type":"charge","layer":"passenger","locationId":"65420423b99511001c69020a","name":"Jansen_2","address":"Schuttersweg  2","city":"Ulft","operatorName":"E-Flux by Road","maxPowerKw":22,"isMegawatt":false,"status":"AVAILABLE","source":"ndw","priceKwh":0.57}},{"type":"Feature","geometry":{"type":"Point","coordinates":[6.387661,51.912259]},"properties":{"type":"charge","layer":"passenger","locationId":"05b5ba95c7d7072eb7fa3f9fb056d8c2","name":"Oranjestraat 10","address":"Oranjestraat 10","city":"Silvolde","operatorName":"Vattenfall InCharge","maxPowerKw":11,"isMegawatt":false,"status":"AVAILABLE","source":"ndw"}},{"type":"Feature","geometry":{"type":"Point","coordinates":[6.334771,51.916]},"properties":{"type":"charge","layer":"passenger","locationId":"f87e3d6a8873d48142a5b5c4329ba215","name":"Sint Lidwinastraat 16","address":"Sint Lidwinastraat 16","city":"Etten","operatorName":"Vattenfall InCharge","maxPowerKw":11,"isMegawatt":false,"status":"CHARGING","source":"ndw"}},{"type":"Feature","geometry":{"type":"Point","coordinates":[6.451393,51.942563]},"properties":{"type":"charge","layer":"passenger","locationId":"3e6f22d712eb94c0ad2d04d5a7066e4d","name":"Laege Es 8","address":"Laege Es 8","city":"Varsseveld","operatorName":"Vattenfall InCharge","maxPowerKw":11,"isMegawatt":false,"status":"AVAILABLE","source":"ndw"}},{"type":"Feature","geometry":{"type":"Point","coordinates":[6.455105,51.948526]},"properties":{"type":"charge","layer":"passenger","locationId":"a4e396cf805183cc682169192b2ee1e1","name":"Valkenhof 13","address":"Valkenhof 13","city":"Varsseveld","operatorName":"Vattenfall InCharge","maxPowerKw":11,"isMegawatt":false,"status":"AVAILABLE","source":"ndw"}},{"type":"Feature","geometry":{"type":"Point","coordinates":[6.370727,51.897087]},"properties":{"type":"charge","layer":"passenger","locationId":"d2c16212f7ebe99ecf5dbe1b81846c8c","name":"Sperwerstraat 11","address":"Sperwerstraat 11","city":"Ulft","operatorName":"Vattenfall InCharge","maxPowerKw":11,"isMegawatt":false,"status":"AVAILABLE","source":"ndw"}},{"type":"Feature","geometry":{"type":"Point","coordinates":[6.37475,51.90096]},"properties":{"type":"charge","layer":"passenger","locationId":"87d02bd2aba0cfe7ee89597763d6ae5b","name":"Doctor Ariensstraat 4","address":"Doctor Ariensstraat 4","city":"Ulft","operatorName":"Vattenfall InCharge","maxPowerKw":11,"isMegawatt":false,"status":"AVAILABLE","source":"ndw"}},{"type":"Feature","geometry":{"type":"Point","coordinates":[6.458032,51.941579]},"properties":{"type":"charge","layer":"passenger","locationId":"a723ddde-000a-48b0-bf0b-2234f1a110f2","name":"Pr. Irenestraat","address":"Pr. Irenestraat 10","city":"Varsseveld","operatorName":"Vattenfall InCharge","maxPowerKw":11,"isMegawatt":false,"status":"AVAILABLE","source":"ndw"}},{"type":"Feature","geometry":{"type":"Point","coordinates":[6.395783,51.907592]},"properties":{"type":"charge","layer":"passenger","locationId":"7288abe5dea7f653dd0ada8cb8953c64","name":"Eekhoornhof 38","address":"Eekhoornhof 38","city":"Silvolde","operatorName":"Vattenfall InCharge","maxPowerKw":11,"isMegawatt":false,"status":"AVAILABLE","source":"ndw"}},{"type":"Feature","geometry":{"type":"Point","coordinates":[6.45577,51.93951]},"properties":{"type":"charge","layer":"passenger","locationId":"629c054cee7736bbd19cc8efd9356556","name":"Prinses Irenestraat 19","address":"Prinses Irenestraat 19","city":"Varsseveld","operatorName":"Vattenfall InCharge","maxPowerKw":11,"isMegawatt":false,"status":"AVAILABLE","source":"ndw"}},{"type":"Feature","geometry":{"type":"Point","coordinates":[6.390678,51.840008]},"properties":{"type":"charge","layer":"passenger","locationId":"abc29623-4236-45b4-a7a2-3e0ce8dd050d","name":"Sportlaan","address":"Sportlaan 4","city":"Megchelen","operatorName":"Vattenfall InCharge","maxPowerKw":11,"isMegawatt":false,"status":"AVAILABLE","source":"ndw"}},{"type":"Feature","geometry":{"type":"Point","coordinates":[6.466619,51.943254]},"properties":{"type":"charge","layer":"passenger","locationId":"1eb18687-8996-4f90-8f77-09b88f791eac","name":"Van Pallandtstraat 6","address":"Van Pallandtstraat 6","city":"Varsseveld","operatorName":"Vattenfall InCharge","maxPowerKw":11,"isMegawatt":false,"status":"AVAILABLE","source":"ndw"}},{"type":"Feature","geometry":{"type":"Point","coordinates":[6.379689,51.91548]},"properties":{"type":"charge","layer":"passenger","locationId":"6053adf9ef0e188c5a17f2c333241f56","name":"Munstermanstraat 6","address":"Munstermanstraat 6","city":"Silvolde","operatorName":"Vattenfall InCharge","maxPowerKw":11,"isMegawatt":false,"status":"AVAILABLE","source":"ndw"}},{"type":"Feature","geometry":{"type":"Point","coordinates":[6.339288,51.916243]},"properties":{"type":"charge","layer":"passenger","locationId":"1d1f6912db3358a6d43752f073121921","name":"Dorpsstraat 26","address":"Dorpsstraat 26","city":"Etten","operatorName":"Vattenfall InCharge","maxPowerKw":11,"isMegawatt":false,"status":"AVAILABLE","source":"ndw"}},{"type":"Feature","geometry":{"type":"MultiPolygon","coordinates":[[[[6.481470483215706,51.973885888707855],[6.482963999944557,51.973686588890345],[6.4835666751788,51.97428488087395],[6.494798580772194,51.97059112441852],[6.5059673278120345,51.969139675873166],[6.524641311550968,51.96780096123809],[6.527269953581475,51.96602365441824],[6.532829488598807,51.962353598093976],[6.519832743122834,51.95556278739313],[6.518614312160612,51.95346782860787],[6.5186422393284,51.951171395720216],[6.517186482387555,51.94800776956153],[6.504781022013718,51.94598445612078],[6.503454011462787,51.94402294789723],[6.502966458818623,51.94128472566479],[6.500979540424319,51.939504433502606],[6.503127927752983,51.93931328703893],[6.495580304939077,51.93028777527788],[6.497089777916483,51.92959976622893],[6.494519302509824,51.92712102231612],[6.49235937007893,51.92593019515657],[6.493233925616879,51.92021763619769],[6.492576866729864,51.917409939294856],[6.490659575076824,51.91717127016351],[6.491175055095679,51.91564156320524],[6.487112842024085,51.91408612470788],[6.488668895585442,51.91273194581299],[6.482710373877001,51.91026011367023],[6.472352096741495,51.90735354674027],[6.476064643907974,51.90197277205264],[6.47999420935271,51.89433663537363],[6.479170367898691,51.889242813150894],[6.480609086972965,51.88426297984782],[6.481901124416949,51.88341573326332],[6.484207618520571,51.87896880034711],[6.483499720230026,51.87741667578997],[6.480974942604879,51.874074724773806],[6.4784679978277,51.87230947094488],[6.477979200651093,51.87185232298444],[6.477872769590226,51.87175861875854],[6.4753143410812815,51.87066098548928],[6.474325210731576,51.86945667754248],[6.471834923741889,51.868962911552046],[6.471867207799073,51.866076013194515],[6.471285594948299,51.86452635101608],[6.468402228442174,51.8641766317776],[6.468127169904916,51.86034719837761],[6.464383816304923,51.85528764808603],[6.458314988856858,51.85868498251654],[6.451089239422197,51.86524633315683],[6.4484703729022055,51.865505885903765],[6.4466727901412035,51.86500588304557],[6.443674148018344,51.8626674476225],[6.441377473903775,51.86185878688329],[6.438733205555086,51.862100013129144],[6.432362950109445,51.85938323917072],[6.4294363389007225,51.86071483857968],[6.428605846022799,51.86508393148832],[6.427360874615604,51.86586205561833],[6.426125679719216,51.86625051722028],[6.424325318075596,51.86597358213468],[6.421794307156162,51.8669887642172],[6.420218320453946,51.86678148471424],[6.418574650867797,51.86724780658064],[6.415182839634545,51.8687307611846],[6.412253640323418,51.871096676897075],[6.410170492380513,51.86955482573479],[6.40875205122276,51.86946398131171],[6.406754315793056,51.87076794587672],[6.40431469696915,51.87024243101193],[6.40247527230049,51.8691376034045],[6.4013127267782775,51.869450602121944],[6.400604785243067,51.87043737609869],[6.399127806567322,51.87030083453982],[6.398372261822054,51.87097689029152],[6.396746237584634,51.87033412528046],[6.3922845960250845,51.874031354100616],[6.39056644381232,51.873968293338095],[6.39115474615291,51.87294997478696],[6.388392544921925,51.867201120559685],[6.386967573423477,51.86495561105942],[6.388034804231516,51.86189936225718],[6.391388285054753,51.86139830773161],[6.3920008865861435,51.8603366175522],[6.395503042091228,51.859062532179955],[6.40043292412977,51.85583319538996],[6.407710610322053,51.854364766802426],[6.408953442247778,51.853346431281174],[6.409055690360849,51.85248598269076],[6.405033635547237,51.848909166601175],[6.405185673960164,51.84738715986575],[6.4023776163078345,51.84454125110055],[6.402437374323693,51.84322317808715],[6.406665513896038,51.8385506804057],[6.408089365264754,51.83588095756543],[6.402953750187832,51.83654458718707],[6.407491263151077,51.82808971738354],[6.401818490800255,51.82726288929866],[6.400214470689289,51.8285332621796],[6.392683057460945,51.83113306606489],[6.392278386105082,51.83195174347791],[6.389543936741144,51.83329537265728],[6.38222445570692,51.83478199289298],[6.373704984815829,51.834759637037365],[6.368723167255562,51.83325758369364],[6.363330835872886,51.83515606571385],[6.362849397714641,51.8358237483727],[6.364061501719907,51.83844077727247],[6.3625166253010015,51.842772753562194],[6.360257838845001,51.845799270279265],[6.357747390680123,51.84748460587095],[6.348714992294698,51.85009303376757],[6.345179987667053,51.85095765298027],[6.3394225630613175,51.850740160501296],[6.333141237817175,51.85159149286123],[6.320504142601265,51.851683923805155],[6.317763804824443,51.851223534341116],[6.312509209455203,51.85027722241965],[6.308281996932019,51.84981011599698],[6.306203503084539,51.849078331971924],[6.303759273959033,51.853573768625886],[6.3006840545294285,51.86203759604041],[6.300504706367673,51.86450961429244],[6.298223021885739,51.865943493304265],[6.2990069430953355,51.867826372263835],[6.299160973753938,51.868388738862095],[6.30175262285044,51.868740636921984],[6.309583112790077,51.869169687487286],[6.311945362576435,51.8692021809095],[6.312210622038082,51.86848763717241],[6.322493204515701,51.86867060296824],[6.324577103761487,51.86902999650786],[6.329251491424025,51.871233673208394],[6.327227049501732,51.872458680407725],[6.327203716421298,51.873621293926725],[6.331633471311028,51.874820930224935],[6.326540424825024,51.87902941479942],[6.329443336136102,51.88033644888603],[6.326900866155345,51.88478201151183],[6.3251609451212305,51.8877786040206],[6.3243249917903475,51.88896161274463],[6.33107086113586,51.89207629494245],[6.332279768628184,51.89326795322003],[6.329587190114744,51.89477763188881],[6.322613181656899,51.89599049482439],[6.3185546460840305,51.8977441029163],[6.31579289166974,51.897842852405375],[6.310866833144038,51.90003539107148],[6.306825443865194,51.90453540583755],[6.3059525373712955,51.90688488103323],[6.3062841628581765,51.908210943050705],[6.307289151961963,51.910261951415684],[6.308741321663395,51.91071819860841],[6.307963776423011,51.91139189181866],[6.3090228801211605,51.91178489702177],[6.310997542035453,51.910589976543655],[6.316143413721729,51.91273733893361],[6.316876395388602,51.91620312585532],[6.315765603460419,51.91828292199284],[6.311295596161089,51.920638537802354],[6.3017721988608795,51.919889026411596],[6.294979822294543,51.92089407891724],[6.291148724216052,51.92241536584888],[6.289653911421707,51.92548913154734],[6.291027189188706,51.9289918816972],[6.292887893284681,51.9313145849326],[6.296012605606676,51.93285750469993],[6.2956698375618405,51.93534201429544],[6.2964887244878875,51.936415584669795],[6.299831077021119,51.93846855436904],[6.303980976192912,51.9380614429621],[6.305950392418643,51.937045526496874],[6.306805612278148,51.93794109349773],[6.305763534250745,51.938821206536254],[6.308604871073356,51.93976417659054],[6.314608333238654,51.93650262540915],[6.319983037793974,51.93596844632442],[6.321735917854386,51.935188109329374],[6.326754500385384,51.92944268980928],[6.331155844359381,51.926164353613295],[6.3334215159839875,51.925468523977806],[6.333794969453785,51.925717455070874],[6.335450072189397,51.925845943353494],[6.335755617432369,51.92605520425071],[6.336843799291701,51.926105226241084],[6.338039718853423,51.92489160653399],[6.338939604698267,51.9248333171868],[6.340052090549109,51.925689713344596],[6.342361154355173,51.925121413459195],[6.344602030332802,51.92525150550777],[6.348589478098312,51.92455925616567],[6.349172363000002,51.92371401641058],[6.352326423433124,51.92381260565173],[6.355583924736604,51.92364083707368],[6.3583967872277,51.9228719976079],[6.3593285042495955,51.92278210694429],[6.360845811024785,51.92296666095538],[6.362547700614678,51.92376817864493],[6.362554465187614,51.92377125777454],[6.371606415303448,51.927606772209934],[6.3768475603028945,51.93005102977768],[6.381312279215497,51.9333159041076],[6.381767460804635,51.93457106727711],[6.379963703384634,51.93628150493819],[6.384397714165125,51.94113460752194],[6.388231107168524,51.94497717367656],[6.396291777434494,51.95252563414266],[6.401552343779662,51.9567827361762],[6.4035862320279024,51.95732178389301],[6.407290075157417,51.96314836377705],[6.409974272078382,51.96588671949281],[6.416082414052359,51.97262184684499],[6.42558838050237,51.97259394383619],[6.426923226513057,51.971996888669906],[6.430123983805285,51.97182834873557],[6.434802354635401,51.97207533492325],[6.434888052904416,51.97097280287009],[6.437041397458985,51.97072430350928],[6.437505924571915,51.971574750032445],[6.43906196591252,51.971555080868185],[6.43935139039831,51.97210068423229],[6.441293081898765,51.971729713485146],[6.441336912110156,51.97085700897347],[6.447502400871142,51.96970827443885],[6.451791123236641,51.97179708126114],[6.453098304578466,51.97167179359822],[6.460194875220203,51.97355713351284],[6.461519161132323,51.97514776500395],[6.463129722043128,51.97530503611546],[6.462595342569608,51.97621530643326],[6.466710657619086,51.977056385804936],[6.467851116867682,51.97821887722478],[6.473198773784631,51.97604013021179],[6.481470483215706,51.973885888707855]]]]},"properties":{"type":"boundary","gemeente":"Oude IJsselstreek","code":"GM1509"}}]}