{"type":"FeatureCollection","metadata":{"gemeente":"Peel en Maas","slug":"peel-en-maas","code":"GM1894","generated_at":"2026-06-07T19:22:09.578Z","total_passenger":115,"total_freight":2,"bounds":[5.832074198072435,51.26575854867454,6.123252008771363,51.39572861301977],"operators":["E-Flux by Road","EQUANS","Eneco","Fastned","Laadnet","Opcharge","Pluq","SMA eMobility Portal","Tanx","Vattenfall InCharge"]},"features":[{"type":"Feature","geometry":{"type":"Point","coordinates":[5.918701,51.371237]},"properties":{"type":"charge","layer":"passenger","locationId":"692840c7358c31563ffe055d","name":"Hanneke Valerius 's station","address":"belgenhoek 7","city":"grashoek","operatorName":"E-Flux by Road","maxPowerKw":11,"isMegawatt":false,"status":"AVAILABLE","source":"ndw","priceKwh":0.58}},{"type":"Feature","geometry":{"type":"Point","coordinates":[6.093189,51.330049]},"properties":{"type":"charge","layer":"passenger","locationId":"94ca7d66-f88b-4855-b6df-a8d4d3773856","name":"Albert Neuhuysstraat","address":"Albert Neuhuysstraat 19","city":"Baarlo","operatorName":"Vattenfall InCharge","maxPowerKw":11,"isMegawatt":false,"status":"AVAILABLE","source":"ndw"}},{"type":"Feature","geometry":{"type":"Point","coordinates":[6.00296,51.32473]},"properties":{"type":"charge","layer":"passenger","locationId":"7f295a70f5c44062a0069eac44338712","name":"Asperge 20","address":"Asperge 20","city":"Helden","operatorName":"Vattenfall InCharge","maxPowerKw":11,"isMegawatt":false,"status":"AVAILABLE","source":"ndw"}},{"type":"Feature","geometry":{"type":"Point","coordinates":[5.88613,51.345956]},"properties":{"type":"charge","layer":"passenger","locationId":"cd52723f2326aa9f04122a852c60293e","name":"Kurversweg 2","address":"Kurversweg 2","city":"Meijel","operatorName":"Vattenfall InCharge","maxPowerKw":11,"isMegawatt":false,"status":"AVAILABLE","source":"ndw"}},{"type":"Feature","geometry":{"type":"Point","coordinates":[6.037483,51.285289]},"properties":{"type":"charge","layer":"passenger","locationId":"4c5d84b6-fc35-11ec-bcd8-42010aa4001d","name":"Eneco eMobility Karreweg-Noord 47 Kessel","address":"Karreweg-Noord 47","city":"Kessel","operatorName":"Eneco","maxPowerKw":22,"isMegawatt":false,"status":"AVAILABLE","source":"ndw","priceKwh":0.25}},{"type":"Feature","geometry":{"type":"Point","coordinates":[5.988934,51.323506]},"properties":{"type":"charge","layer":"passenger","locationId":"d9da5c26-2005-452d-bafd-32040fff9c12","name":"Burgemeester Janssenring 24","address":"Burgemeester Janssenring 24","city":"Panningen","operatorName":"Vattenfall InCharge","maxPowerKw":11,"isMegawatt":false,"status":"AVAILABLE","source":"ndw"}},{"type":"Feature","geometry":{"type":"Point","coordinates":[5.99,51.31]},"properties":{"type":"charge","layer":"passenger","locationId":"3117855","name":"Laadnet Here","address":"Roggelseweg 56","city":"Helden","operatorName":"Laadnet","maxPowerKw":11,"isMegawatt":false,"status":"UNAVAILABLE","source":"ndw"}},{"type":"Feature","geometry":{"type":"Point","coordinates":[5.979297,51.330354]},"properties":{"type":"charge","layer":"passenger","locationId":"ce743d3da278a2d38c0c280a3b243442","name":"Wilhelminastraat 20","address":"Wilhelminastraat 20","city":"Panningen","operatorName":"Vattenfall InCharge","maxPowerKw":11,"isMegawatt":false,"status":"AVAILABLE","source":"ndw"}},{"type":"Feature","geometry":{"type":"Point","coordinates":[5.876128,51.350056]},"properties":{"type":"charge","layer":"passenger","locationId":"41e29fc9-2004-4e49-b051-45ae2004abfc","name":"Molenhaagweg","address":"Molenhaagweg 3","city":"Meijel","operatorName":"Vattenfall InCharge","maxPowerKw":11,"isMegawatt":false,"status":"AVAILABLE","source":"ndw"}},{"type":"Feature","geometry":{"type":"Point","coordinates":[6.023882,51.317802]},"properties":{"type":"charge","layer":"passenger","locationId":"60ec2c34d7c476b2f50086ca","name":"Receptie 's station","address":"De Heldense Bossen 6","city":"Helden","operatorName":"E-Flux by Road","maxPowerKw":22,"isMegawatt":false,"status":"UNAVAILABLE","source":"ndw","priceKwh":0.53}},{"type":"Feature","geometry":{"type":"Point","coordinates":[6.06303,51.36377]},"properties":{"type":"charge","layer":"passenger","locationId":"29E44EEA-B7E9-4455-81B9-E96A09FAFFB0","name":"Eneco eMobility Voltaweg 3 Maasbree","address":"Voltaweg 3","city":"Maasbree","operatorName":"Eneco","maxPowerKw":22,"isMegawatt":false,"status":"UNAVAILABLE","source":"ndw","priceKwh":0.32}},{"type":"Feature","geometry":{"type":"Point","coordinates":[6.046519,51.358228]},"properties":{"type":"charge","layer":"passenger","locationId":"0990462b-116c-4619-b508-2069a63e86dd","name":"Piet Petersstraat 18","address":"Piet Petersstraat 18","city":"Maasbree","operatorName":"Vattenfall InCharge","maxPowerKw":11,"isMegawatt":false,"status":"CHARGING","source":"ndw"}},{"type":"Feature","geometry":{"type":"Point","coordinates":[5.997276,51.325115]},"properties":{"type":"charge","layer":"passenger","locationId":"10bd8336c726e50bdd419289c5d128cd","name":"Valkappel 1","address":"Valkappel 1","city":"Helden","operatorName":"Vattenfall InCharge","maxPowerKw":11,"isMegawatt":false,"status":"AVAILABLE","source":"ndw"}},{"type":"Feature","geometry":{"type":"Point","coordinates":[6.083063,51.33286]},"properties":{"type":"charge","layer":"passenger","locationId":"9E88E133-F9ED-4696-A19B-400EB21B681F","name":"Eneco eMobility PostNL Baarlo","address":"Bongardweide 2","city":"Baarlo","operatorName":"Eneco","maxPowerKw":22,"isMegawatt":false,"status":"AVAILABLE","source":"ndw","priceKwh":0.28}},{"type":"Feature","geometry":{"type":"Point","coordinates":[6.021195,51.317916]},"properties":{"type":"charge","layer":"passenger","locationId":"65e58db961fb15001c8198c3","name":"Openbaar toegankelijk (ingang camping)","address":"De Heldense Bossen 6","city":"Helden","operatorName":"E-Flux by Road","maxPowerKw":19,"isMegawatt":false,"status":"AVAILABLE","source":"ndw","priceKwh":0.53}},{"type":"Feature","geometry":{"type":"Point","coordinates":[5.983418,51.329364]},"properties":{"type":"charge","layer":"passenger","locationId":"406914F8-B69E-473E-9673-7668AA74A130","name":"Eneco eMobility Albert Heijn - Kepringelehof 3","address":"Kepringelehof 3","city":"Panningen","operatorName":"Eneco","maxPowerKw":50,"isMegawatt":false,"status":"AVAILABLE","source":"ndw","priceKwh":0.62}},{"type":"Feature","geometry":{"type":"Point","coordinates":[5.967637,51.330284]},"properties":{"type":"charge","layer":"passenger","locationId":"e4ca239c-7a53-439a-b6b7-ba47635c44b1","name":"J. F. Kennedylaan","address":"J. F. Kennedylaan 212","city":"Panningen","operatorName":"Vattenfall InCharge","maxPowerKw":11,"isMegawatt":false,"status":"AVAILABLE","source":"ndw"}},{"type":"Feature","geometry":{"type":"Point","coordinates":[5.999525,51.319909]},"properties":{"type":"charge","layer":"passenger","locationId":"bb39818d-e7af-44c2-9eda-50c177e3a248","name":"Mariaplein","address":"Mariaplein 28","city":"Helden","operatorName":"Vattenfall InCharge","maxPowerKw":11,"isMegawatt":false,"status":"AVAILABLE","source":"ndw"}},{"type":"Feature","geometry":{"type":"Point","coordinates":[6.00446,51.31746]},"properties":{"type":"charge","layer":"passenger","locationId":"3478f59da83f48408e7a","name":"Golfbaan Eykenduyn - Helden, Kesselseweg","address":"Kesselseweg 9","city":"Helden","operatorName":"Opcharge","maxPowerKw":11,"isMegawatt":false,"status":"AVAILABLE","source":"ndw","priceKwh":0.49}},{"type":"Feature","geometry":{"type":"Point","coordinates":[6.051105,51.293314]},"properties":{"type":"charge","layer":"passenger","locationId":"3f71aabc-2415-4272-86ee-d68a07c85ca1","name":"Schijfweg-Zuid","address":"Schijfweg-Zuid 9","city":"Kessel","operatorName":"Vattenfall InCharge","maxPowerKw":11,"isMegawatt":false,"status":"AVAILABLE","source":"ndw"}},{"type":"Feature","geometry":{"type":"Point","coordinates":[6.090292,51.320794]},"properties":{"type":"charge","layer":"passenger","locationId":"2717632","name":"Laadnet H. Rutten","address":"Bosbeeklaan 59","city":"Baarlo","operatorName":"Laadnet","maxPowerKw":22,"isMegawatt":false,"status":"CHARGING","source":"ndw"}},{"type":"Feature","geometry":{"type":"Point","coordinates":[5.944619,51.338123]},"properties":{"type":"charge","layer":"passenger","locationId":"596f3769-9505-40d9-964a-b5d3b1dac2ab","name":"Kanaalstraat","address":"Kanaalstraat 104","city":"Beringe","operatorName":"Vattenfall InCharge","maxPowerKw":11,"isMegawatt":false,"status":"AVAILABLE","source":"ndw"}},{"type":"Feature","geometry":{"type":"Point","coordinates":[6.000499,51.378047]},"properties":{"type":"charge","layer":"passenger","locationId":"6139b363db678d4b6ea5066a","name":"Shell Vissers Deersels (A67 Maasbree)","address":"Rijksweg A67 nr. 8","city":"Maasbree","operatorName":"Tanx","maxPowerKw":160,"isMegawatt":false,"status":"AVAILABLE","source":"ndw","priceKwh":0.6}},{"type":"Feature","geometry":{"type":"Point","coordinates":[5.991391,51.318394]},"properties":{"type":"charge","layer":"passenger","locationId":"09632f27-3a41-48ca-a6dc-a0348da85e69","name":"Marie Notermansstraat","address":"Marie Notermansstraat 6","city":"Helden","operatorName":"Vattenfall InCharge","maxPowerKw":11,"isMegawatt":false,"status":"AVAILABLE","source":"ndw"}},{"type":"Feature","geometry":{"type":"Point","coordinates":[5.9863,51.33019]},"properties":{"type":"charge","layer":"passenger","locationId":"dc43d3109126defee8d33668c3226aae","name":"Beekstraat 32","address":"Beekstraat 32","city":"Panningen","operatorName":"Vattenfall InCharge","maxPowerKw":11,"isMegawatt":false,"status":"AVAILABLE","source":"ndw"}},{"type":"Feature","geometry":{"type":"Point","coordinates":[5.98459,51.3286]},"properties":{"type":"charge","layer":"passenger","locationId":"35ef7064d8a9e857fd0ba3c6c9e6bbe8","name":"Panningerveld 7","address":"Panningerveld 7","city":"Panningen","operatorName":"Vattenfall InCharge","maxPowerKw":11,"isMegawatt":false,"status":"AVAILABLE","source":"ndw"}},{"type":"Feature","geometry":{"type":"Point","coordinates":[5.99729,51.334804]},"properties":{"type":"charge","layer":"passenger","locationId":"62b32c7aba2067ddd868ae2e","name":"Esso Vissers Helden Panningen","address":"Maasbreeseweg 29","city":"Panningen","operatorName":"Tanx","maxPowerKw":60,"isMegawatt":false,"status":"UNAVAILABLE","source":"ndw","priceKwh":0.6}},{"type":"Feature","geometry":{"type":"Point","coordinates":[6.00446,51.31746]},"properties":{"type":"charge","layer":"passenger","locationId":"47250533b09647ee9684","name":"Golfbaan Eyckenduyn - Helden, Kesselseweg","address":"Kesselseweg 9","city":"Helden","operatorName":"Opcharge","maxPowerKw":22,"isMegawatt":false,"status":"AVAILABLE","source":"ndw","priceKwh":0.49}},{"type":"Feature","geometry":{"type":"Point","coordinates":[6.091259,51.331279]},"properties":{"type":"charge","layer":"passenger","locationId":"66fbc529e6837b001c9d170e","name":"Chinees Restaurant Peking Garden V.O.F.","address":"Napoleonsbaan Noord 46","city":"Baarlo","operatorName":"Pluq","maxPowerKw":22,"isMegawatt":false,"status":"AVAILABLE","source":"ndw","priceKwh":0.4}},{"type":"Feature","geometry":{"type":"Point","coordinates":[5.969958,51.327188]},"properties":{"type":"charge","layer":"passenger","locationId":"68e5120bfa216e8e797dd4c5","name":"Regio Service  Laadpalen","address":"J. F. Kennedylaan 18B","city":"Panningen","operatorName":"E-Flux by Road","maxPowerKw":17,"isMegawatt":false,"status":"AVAILABLE","source":"ndw","priceKwh":0.44}},{"type":"Feature","geometry":{"type":"Point","coordinates":[6.088404,51.326]},"properties":{"type":"charge","layer":"passenger","locationId":"4238490","name":"Laadnet C&C Parts bv","address":"De Voort 5A","city":"Baarlo","operatorName":"Laadnet","maxPowerKw":22,"isMegawatt":false,"status":"AVAILABLE","source":"ndw"}},{"type":"Feature","geometry":{"type":"Point","coordinates":[6.097708,51.329261]},"properties":{"type":"charge","layer":"passenger","locationId":"708c105e-2ed7-4169-88f9-9da409df4b2d","name":"Heermahof","address":"Heermahof 12","city":"Baarlo","operatorName":"Vattenfall InCharge","maxPowerKw":11,"isMegawatt":false,"status":"AVAILABLE","source":"ndw"}},{"type":"Feature","geometry":{"type":"Point","coordinates":[5.9843,51.32699]},"properties":{"type":"charge","layer":"passenger","locationId":"E524ED9E-051E-4B00-9572-2EB1019178F8","name":"Eneco eMobility Tandartsenpraktijk DuoDent - Wietelweg 4 - Panningen","address":"Wietelweg 4","city":"Panningen","operatorName":"Eneco","maxPowerKw":22,"isMegawatt":false,"status":"AVAILABLE","source":"ndw","priceKwh":0.32}},{"type":"Feature","geometry":{"type":"Point","coordinates":[5.887827,51.346189]},"properties":{"type":"charge","layer":"passenger","locationId":"e92104ed070d079162df4a76a22844a4","name":"Kurversweg 15","address":"Kurversweg 15","city":"Meijel","operatorName":"Vattenfall InCharge","maxPowerKw":11,"isMegawatt":false,"status":"AVAILABLE","source":"ndw"}},{"type":"Feature","geometry":{"type":"Point","coordinates":[6.05272,51.362994]},"properties":{"type":"charge","layer":"passenger","locationId":"86274a4177af045cbd2891afb5102df4","name":"Van Vegcheltstraat 14","address":"Van Vegcheltstraat 14","city":"Maasbree","operatorName":"Vattenfall InCharge","maxPowerKw":11,"isMegawatt":false,"status":"AVAILABLE","source":"ndw"}},{"type":"Feature","geometry":{"type":"Point","coordinates":[6.081159,51.32525]},"properties":{"type":"charge","layer":"passenger","locationId":"89596377","name":"EQUANS Fletcher Fletcher Hotel Baarlo","address":"Raayerveldlaan 6","city":"Baarlo","operatorName":"EQUANS","maxPowerKw":0,"isMegawatt":false,"status":"AVAILABLE","source":"ndw"}},{"type":"Feature","geometry":{"type":"Point","coordinates":[6.001193,51.321127]},"properties":{"type":"charge","layer":"passenger","locationId":"f5d3463c-6a25-47bd-b3f3-45f145f2e33a","name":"Burgemeester van Cannstraat","address":"Burgemeester van Cannstraat 4","city":"Helden","operatorName":"Vattenfall InCharge","maxPowerKw":11,"isMegawatt":false,"status":"AVAILABLE","source":"ndw"}},{"type":"Feature","geometry":{"type":"Point","coordinates":[6.037483,51.285289]},"properties":{"type":"charge","layer":"passenger","locationId":"4B598C61-8CF2-4E5B-A985-6673931EBFEB","name":"Eneco eMobility Karreweg-Noord 47 Kessel","address":"Karreweg-Noord 47","city":"Kessel","operatorName":"Eneco","maxPowerKw":22,"isMegawatt":false,"status":"AVAILABLE","source":"ndw","priceKwh":0.25}},{"type":"Feature","geometry":{"type":"Point","coordinates":[5.983605,51.328523]},"properties":{"type":"charge","layer":"passenger","locationId":"1c1a097b-b16f-42c8-9b82-0cbef77777ae","name":"Beekstraat","address":"Beekstraat 2","city":"Panningen","operatorName":"Vattenfall InCharge","maxPowerKw":11,"isMegawatt":false,"status":"AVAILABLE","source":"ndw"}},{"type":"Feature","geometry":{"type":"Point","coordinates":[6.003808,51.324047]},"properties":{"type":"charge","layer":"passenger","locationId":"ea363af6-3dcf-4c01-b724-5f7f043d686c","name":"Deken Jaspersstraat 105","address":"Deken Jaspersstraat 105","city":"Helden","operatorName":"Vattenfall InCharge","maxPowerKw":11,"isMegawatt":false,"status":"AVAILABLE","source":"ndw"}},{"type":"Feature","geometry":{"type":"Point","coordinates":[5.987004,51.326596]},"properties":{"type":"charge","layer":"passenger","locationId":"ff71c980-fc1d-495a-bc4f-fa951fb61d53","name":"Ruijsstraat","address":"Ruijsstraat 53","city":"Panningen","operatorName":"Vattenfall InCharge","maxPowerKw":11,"isMegawatt":false,"status":"AVAILABLE","source":"ndw"}},{"type":"Feature","geometry":{"type":"Point","coordinates":[5.972633,51.322695]},"properties":{"type":"charge","layer":"passenger","locationId":"d3b3bba6-bd21-465b-9bdf-2e731452b8bf","name":"Gouverneur Houbenstraat","address":"Gouverneur Houbenstraat 22","city":"Panningen","operatorName":"Vattenfall InCharge","maxPowerKw":11,"isMegawatt":false,"status":"AVAILABLE","source":"ndw"}},{"type":"Feature","geometry":{"type":"Point","coordinates":[5.978863,51.324671]},"properties":{"type":"charge","layer":"passenger","locationId":"5a366865-dcb3-408a-bc5f-6c5aa0dfcbf9","name":"Doctor Ariensstraat","address":"Doctor Ariensstraat 27","city":"Panningen","operatorName":"Vattenfall InCharge","maxPowerKw":11,"isMegawatt":false,"status":"AVAILABLE","source":"ndw"}},{"type":"Feature","geometry":{"type":"Point","coordinates":[5.970762,51.329876]},"properties":{"type":"charge","layer":"passenger","locationId":"68417ee6fe1263d5e43a542c","name":"PanSana Centrum voor Zorg & Welzijn","address":"John F. Kennedylaan 8","city":"Panningen","operatorName":"SMA eMobility Portal","maxPowerKw":17,"isMegawatt":false,"status":"AVAILABLE","source":"ndw","priceKwh":0.53}},{"type":"Feature","geometry":{"type":"Point","coordinates":[5.99352,51.35802]},"properties":{"type":"charge","layer":"passenger","locationId":"cc148e02639378ab4f24ff8700444c0d","name":"Meester Caelersstraat 24","address":"Meester Caelersstraat 24","city":"Koningslust","operatorName":"Vattenfall InCharge","maxPowerKw":11,"isMegawatt":false,"status":"AVAILABLE","source":"ndw"}},{"type":"Feature","geometry":{"type":"Point","coordinates":[6.081159,51.32525]},"properties":{"type":"charge","layer":"passenger","locationId":"f053ec6c-d971-11ed-b363-42010aa40fc0","name":"EQUANS Fletcher Fletcher Hotel Baarlo","address":"Raayerveldlaan 6","city":"Baarlo","operatorName":"EQUANS","maxPowerKw":0,"isMegawatt":false,"status":"AVAILABLE","source":"ndw","priceKwh":0.4}},{"type":"Feature","geometry":{"type":"Point","coordinates":[6.050291,51.356477]},"properties":{"type":"charge","layer":"passenger","locationId":"0d0bd22b39495e99245a76cdb971625a","name":"Goriusstraat 2a","address":"Goriusstraat 2a","city":"Maasbree","operatorName":"Vattenfall InCharge","maxPowerKw":11,"isMegawatt":false,"status":"AVAILABLE","source":"ndw"}},{"type":"Feature","geometry":{"type":"Point","coordinates":[5.995285,51.324985]},"properties":{"type":"charge","layer":"passenger","locationId":"897410091ebef5426affd1113f17b8f6","name":"Reinette 24","address":"Reinette 24","city":"Helden","operatorName":"Vattenfall InCharge","maxPowerKw":11,"isMegawatt":false,"status":"AVAILABLE","source":"ndw"}},{"type":"Feature","geometry":{"type":"Point","coordinates":[5.980624,51.332128]},"properties":{"type":"charge","layer":"passenger","locationId":"82a5ff3d-aa8f-416e-a66e-1db6b6a59c70","name":"Wilhelminastraat","address":"Wilhelminastraat 42","city":"Panningen","operatorName":"Vattenfall InCharge","maxPowerKw":11,"isMegawatt":false,"status":"AVAILABLE","source":"ndw"}},{"type":"Feature","geometry":{"type":"Point","coordinates":[6.090676,51.323295]},"properties":{"type":"charge","layer":"passenger","locationId":"1c5d953e-1735-42e8-9d77-9796d4e77ca9","name":"Rubensstraat","address":"Rubensstraat 2","city":"Baarlo","operatorName":"Vattenfall InCharge","maxPowerKw":11,"isMegawatt":false,"status":"CHARGING","source":"ndw"}},{"type":"Feature","geometry":{"type":"Point","coordinates":[5.94702,51.339482]},"properties":{"type":"charge","layer":"passenger","locationId":"e471b893442a74dc6a6d41a76a26dc34","name":"Beukenhof 8","address":"Beukenhof 8","city":"Beringe","operatorName":"Vattenfall InCharge","maxPowerKw":11,"isMegawatt":false,"status":"AVAILABLE","source":"ndw"}},{"type":"Feature","geometry":{"type":"Point","coordinates":[5.88394,51.34013]},"properties":{"type":"charge","layer":"passenger","locationId":"a9aa343dd6413265fbe24464e966d298","name":"Churchilllaan 71","address":"Churchilllaan 71","city":"Meijel","operatorName":"Vattenfall InCharge","maxPowerKw":11,"isMegawatt":false,"status":"AVAILABLE","source":"ndw"}},{"type":"Feature","geometry":{"type":"Point","coordinates":[6.060698,51.374868]},"properties":{"type":"charge","layer":"passenger","locationId":"649d4bd54377d3001c70907b","name":"Vakantiepark BreeBronne","address":"Lange Heide 9","city":"Maasbree","operatorName":"E-Flux by Road","maxPowerKw":22,"isMegawatt":false,"status":"AVAILABLE","source":"ndw","priceKwh":0.58}},{"type":"Feature","geometry":{"type":"Point","coordinates":[6.02501,51.27982]},"properties":{"type":"charge","layer":"passenger","locationId":"7b87d57e493e07c1cb35545cc2a05984","name":"Kapelweg 12","address":"Kapelweg 12","city":"Kessel","operatorName":"Vattenfall InCharge","maxPowerKw":11,"isMegawatt":false,"status":"AVAILABLE","source":"ndw"}},{"type":"Feature","geometry":{"type":"Point","coordinates":[6.021032,51.282029]},"properties":{"type":"charge","layer":"passenger","locationId":"689f152e6ad83fc99b716a84","name":"Pleisterplaats Kessel","address":"Rijksweg 5","city":"Kessel","operatorName":"Tanx","maxPowerKw":30,"isMegawatt":false,"status":"AVAILABLE","source":"ndw","priceKwh":0.43}},{"type":"Feature","geometry":{"type":"Point","coordinates":[6.094296,51.327075]},"properties":{"type":"charge","layer":"passenger","locationId":"40fc0bf8-eb1c-4b52-b661-119c5ad228dc","name":"Slotvoogdstraat","address":"Slotvoogdstraat 18","city":"Baarlo","operatorName":"Vattenfall InCharge","maxPowerKw":11,"isMegawatt":false,"status":"AVAILABLE","source":"ndw"}},{"type":"Feature","geometry":{"type":"Point","coordinates":[5.886897,51.344417]},"properties":{"type":"charge","layer":"passenger","locationId":"69e1d87971897cded03f9f13","name":"groepsaccommodatie Peel en Maas","address":"Kerkstraat 1","city":"Meijel","operatorName":"E-Flux by Road","maxPowerKw":11,"isMegawatt":false,"status":"AVAILABLE","source":"ndw","priceKwh":0.35}},{"type":"Feature","geometry":{"type":"Point","coordinates":[5.987308,51.31788]},"properties":{"type":"charge","layer":"passenger","locationId":"97a24fa9-2002-4c5d-a7de-f6d3dabcc17b","name":"Pastoor Hoemoetstraat 13","address":"Pastoor Hoemoetstraat 13","city":"Helden","operatorName":"Vattenfall InCharge","maxPowerKw":11,"isMegawatt":false,"status":"AVAILABLE","source":"ndw"}},{"type":"Feature","geometry":{"type":"Point","coordinates":[6.054401,51.296588]},"properties":{"type":"charge","layer":"passenger","locationId":"1f569cec-a364-406a-b42c-be448b55dab0","name":"Rembrandtstraa","address":"Rembrandtstraa 19","city":"Kessel","operatorName":"Vattenfall InCharge","maxPowerKw":11,"isMegawatt":false,"status":"AVAILABLE","source":"ndw"}},{"type":"Feature","geometry":{"type":"Point","coordinates":[6.09072,51.32271]},"properties":{"type":"charge","layer":"passenger","locationId":"203742c57184b708d0693a3eef4db7ba","name":"Van Goghstraat 26","address":"Van Goghstraat 26","city":"Baarlo","operatorName":"Vattenfall InCharge","maxPowerKw":11,"isMegawatt":false,"status":"AVAILABLE","source":"ndw"}},{"type":"Feature","geometry":{"type":"Point","coordinates":[5.88926,51.34865]},"properties":{"type":"charge","layer":"passenger","locationId":"45dbc69144a9127d5351272382c6003f","name":"Rijtakker  13","address":"Rijtakker  13","city":"Meijel","operatorName":"Vattenfall InCharge","maxPowerKw":11,"isMegawatt":false,"status":"AVAILABLE","source":"ndw"}},{"type":"Feature","geometry":{"type":"Point","coordinates":[5.882778,51.346667]},"properties":{"type":"charge","layer":"passenger","locationId":"758ed6ad-4d74-45ce-8ae3-9586e52fce75","name":"Zonnedauw","address":"Zonnedauw 4","city":"Meijel","operatorName":"Vattenfall InCharge","maxPowerKw":11,"isMegawatt":false,"status":"AVAILABLE","source":"ndw"}},{"type":"Feature","geometry":{"type":"Point","coordinates":[5.974971,51.326439]},"properties":{"type":"charge","layer":"passenger","locationId":"e8f29b69-0b4e-4ad8-afca-d06d4c518965","name":"Doctor Ariënsstraat","address":"Doctor Ariënsstraat 1","city":"Panningen","operatorName":"Vattenfall InCharge","maxPowerKw":11,"isMegawatt":false,"status":"AVAILABLE","source":"ndw"}},{"type":"Feature","geometry":{"type":"Point","coordinates":[6.0069,51.323238]},"properties":{"type":"charge","layer":"passenger","locationId":"0b83c8f2-d6a4-4f90-a38d-8d64dea52628","name":"Tarwe","address":"Tarwe 41","city":"Helden","operatorName":"Vattenfall InCharge","maxPowerKw":11,"isMegawatt":false,"status":"AVAILABLE","source":"ndw"}},{"type":"Feature","geometry":{"type":"Point","coordinates":[6.057894,51.346344]},"properties":{"type":"charge","layer":"passenger","locationId":"68aec572f2261a13794738c2","name":"Blokhut Jong Nederland Maasbree 's station","address":"Breestraat 11","city":"Maasbree","operatorName":"E-Flux by Road","maxPowerKw":11,"isMegawatt":false,"status":"AVAILABLE","source":"ndw","priceKwh":0.38}},{"type":"Feature","geometry":{"type":"Point","coordinates":[5.94732,51.335479]},"properties":{"type":"charge","layer":"passenger","locationId":"497d772c-a79d-4492-a6ca-14084b89c67d","name":"Rubensstraat","address":"Rubensstraat 21 ","city":"Beringe","operatorName":"Vattenfall InCharge","maxPowerKw":11,"isMegawatt":false,"status":"CHARGING","source":"ndw"}},{"type":"Feature","geometry":{"type":"Point","coordinates":[6.055544,51.356757]},"properties":{"type":"charge","layer":"passenger","locationId":"6dfdc959-4aee-4751-8097-bef38fb85796","name":"Broekstraat","address":"Broekstraat 89","city":"Maasbree","operatorName":"Vattenfall InCharge","maxPowerKw":11,"isMegawatt":false,"status":"AVAILABLE","source":"ndw"}},{"type":"Feature","geometry":{"type":"Point","coordinates":[5.891977,51.343155]},"properties":{"type":"charge","layer":"passenger","locationId":"7f2aa13f6d69726e8500cc5c597bb741","name":"Pastpaedje 44","address":"Pastpaedje 44","city":"Meijel","operatorName":"Vattenfall InCharge","maxPowerKw":11,"isMegawatt":false,"status":"AVAILABLE","source":"ndw"}},{"type":"Feature","geometry":{"type":"Point","coordinates":[5.946192,51.338014]},"properties":{"type":"charge","layer":"passenger","locationId":"cdc7b882-38ef-4f31-8854-6e1d419c45d9","name":"Kanaalstraat  88","address":"Kanaalstraat  88","city":"Beringe","operatorName":"Vattenfall InCharge","maxPowerKw":11,"isMegawatt":false,"status":"AVAILABLE","source":"ndw"}},{"type":"Feature","geometry":{"type":"Point","coordinates":[5.884634,51.341827]},"properties":{"type":"charge","layer":"passenger","locationId":"218f9b43-947f-45a4-9508-e66e2b3c2c07","name":"Van der Steenstraat","address":"Van der Steenstraat 14","city":"Meijel","operatorName":"Vattenfall InCharge","maxPowerKw":11,"isMegawatt":false,"status":"AVAILABLE","source":"ndw"}},{"type":"Feature","geometry":{"type":"Point","coordinates":[5.98023,51.32685]},"properties":{"type":"charge","layer":"passenger","locationId":"cd48d327-b983-472b-b97b-d9de206e9de8","name":"Paterstraat 26","address":"Paterstraat 26","city":"Panningen","operatorName":"Vattenfall InCharge","maxPowerKw":11,"isMegawatt":false,"status":"AVAILABLE","source":"ndw"}},{"type":"Feature","geometry":{"type":"Point","coordinates":[5.997025,51.324037]},"properties":{"type":"charge","layer":"passenger","locationId":"61391010-31b0-4829-b2b1-16c7a2d02a39","name":"51.32404, 5.997030","address":"Sterappel 56","city":"Helden","operatorName":"Vattenfall InCharge","maxPowerKw":11,"isMegawatt":false,"status":"AVAILABLE","source":"ndw"}},{"type":"Feature","geometry":{"type":"Point","coordinates":[6.093495,51.3246]},"properties":{"type":"charge","layer":"passenger","locationId":"34a65743-e4c5-4c43-bbea-aac5ef7390ee","name":"Kuiperstraat","address":"Kuiperstraat 1","city":"Baarlo","operatorName":"Vattenfall InCharge","maxPowerKw":11,"isMegawatt":false,"status":"AVAILABLE","source":"ndw"}},{"type":"Feature","geometry":{"type":"Point","coordinates":[6.057468,51.355883]},"properties":{"type":"charge","layer":"passenger","locationId":"64e70a0f0e1cb9001d5a51de","name":"Groenrijk Maasbree","address":"Kanaalweg 7","city":"Maasbree","operatorName":"SMA eMobility Portal","maxPowerKw":22,"isMegawatt":false,"status":"AVAILABLE","source":"ndw","priceKwh":0.43}},{"type":"Feature","geometry":{"type":"Point","coordinates":[5.95073,51.33456]},"properties":{"type":"charge","layer":"passenger","locationId":"3f3d07b6e4b49f45004f845c4869145e","name":"Pastoor van Basten Batenburglaan 54","address":"Pastoor van Basten Batenburglaan 54","city":"Beringe","operatorName":"Vattenfall InCharge","maxPowerKw":11,"isMegawatt":false,"status":"AVAILABLE","source":"ndw"}},{"type":"Feature","geometry":{"type":"Point","coordinates":[5.88706,51.349105]},"properties":{"type":"charge","layer":"passenger","locationId":"2a5b4b8a-0a4c-4b65-8ee4-921ccd114d38","name":"Groenveld 1","address":"Groenveld 1","city":"Meijel","operatorName":"Vattenfall InCharge","maxPowerKw":11,"isMegawatt":false,"status":"UNAVAILABLE","source":"ndw"}},{"type":"Feature","geometry":{"type":"Point","coordinates":[5.963456,51.358026]},"properties":{"type":"charge","layer":"passenger","locationId":"65f57bfdd52823001ca52982","name":"Grashoek","address":"Vliegertsdijk 7","city":"Grashoek","operatorName":"E-Flux by Road","maxPowerKw":11,"isMegawatt":false,"status":"UNAVAILABLE","source":"ndw"}},{"type":"Feature","geometry":{"type":"Point","coordinates":[5.978018,51.329613]},"properties":{"type":"charge","layer":"passenger","locationId":"0318ce70-e9b3-43c4-b304-871795e6c02c","name":"wilhelminaplein 1","address":"wilhelminaplein 1","city":"panningen","operatorName":"Vattenfall InCharge","maxPowerKw":11,"isMegawatt":false,"status":"AVAILABLE","source":"ndw"}},{"type":"Feature","geometry":{"type":"Point","coordinates":[6.047137,51.360444]},"properties":{"type":"charge","layer":"passenger","locationId":"52778d67-ee0d-496c-8ba0-b7399023c4e6","name":"Klaproosstraat","address":"Klaproosstraat 2","city":"Maasbree","operatorName":"Vattenfall InCharge","maxPowerKw":11,"isMegawatt":false,"status":"UNAVAILABLE","source":"ndw"}},{"type":"Feature","geometry":{"type":"Point","coordinates":[5.971721,51.317065]},"properties":{"type":"charge","layer":"passenger","locationId":"b90eb75708c34791b869340da8f3b05d","name":"Wethouder Tielenstraat 44","address":"Wethouder Tielenstraat 44","city":"Egchel","operatorName":"Vattenfall InCharge","maxPowerKw":11,"isMegawatt":false,"status":"AVAILABLE","source":"ndw"}},{"type":"Feature","geometry":{"type":"Point","coordinates":[6.04538,51.360444]},"properties":{"type":"charge","layer":"passenger","locationId":"896a6d2a901a46e84fd5597ea9075dae","name":"Heierveldlaan 43","address":"Heierveldlaan 43","city":"Maasbree","operatorName":"Vattenfall InCharge","maxPowerKw":11,"isMegawatt":false,"status":"AVAILABLE","source":"ndw"}},{"type":"Feature","geometry":{"type":"Point","coordinates":[5.979171,51.322958]},"properties":{"type":"charge","layer":"passenger","locationId":"0a1d3b1c-1dae-42fb-89aa-01d94a7fd1ad","name":"Piushof","address":"Piushof 10","city":"Panningen","operatorName":"Vattenfall InCharge","maxPowerKw":11,"isMegawatt":false,"status":"AVAILABLE","source":"ndw"}},{"type":"Feature","geometry":{"type":"Point","coordinates":[5.87958,51.34736]},"properties":{"type":"charge","layer":"passenger","locationId":"8af0b5e601e5384684e7c610b00616fc","name":"In de Haag 9","address":"In de Haag 9","city":"Meijel","operatorName":"Vattenfall InCharge","maxPowerKw":11,"isMegawatt":false,"status":"AVAILABLE","source":"ndw"}},{"type":"Feature","geometry":{"type":"Point","coordinates":[5.977885,51.326325]},"properties":{"type":"charge","layer":"passenger","locationId":"5706b1b46038ffa9a9c7444951ec1e9a","name":"Dokter Poelsplein 16","address":"Dokter Poelsplein 16","city":"Panningen","operatorName":"Vattenfall InCharge","maxPowerKw":11,"isMegawatt":false,"status":"CHARGING","source":"ndw"}},{"type":"Feature","geometry":{"type":"Point","coordinates":[6.057624,51.292133]},"properties":{"type":"charge","layer":"passenger","locationId":"41861423-f02c-4cc0-a748-5fda7bc17afc","name":"Baarloseweg","address":"Baarloseweg 3","city":"Kessel","operatorName":"Vattenfall InCharge","maxPowerKw":11,"isMegawatt":false,"status":"AVAILABLE","source":"ndw"}},{"type":"Feature","geometry":{"type":"Point","coordinates":[5.88718,51.34867]},"properties":{"type":"charge","layer":"passenger","locationId":"035261eea60a3d61bd39c679960716f4","name":"Straatakker 11","address":"Straatakker 11","city":"Meijel","operatorName":"Vattenfall InCharge","maxPowerKw":11,"isMegawatt":false,"status":"CHARGING","source":"ndw"}},{"type":"Feature","geometry":{"type":"Point","coordinates":[6.018384,51.317722]},"properties":{"type":"charge","layer":"passenger","locationId":"60ec2acc5cd2942a3b505e54","name":"Toiletgebouw T3 station","address":"De Heldense Bossen 6","city":"Helden","operatorName":"E-Flux by Road","maxPowerKw":22,"isMegawatt":false,"status":"AVAILABLE","source":"ndw","priceKwh":0.53}},{"type":"Feature","geometry":{"type":"Point","coordinates":[6.056282,51.291564]},"properties":{"type":"charge","layer":"passenger","locationId":"ed1bd3d4-966f-4170-a356-b6b75a4ff3af","name":"Dorpstraat 2A","address":"Dorpstraat 2A","city":"Kessel","operatorName":"Vattenfall InCharge","maxPowerKw":11,"isMegawatt":false,"status":"AVAILABLE","source":"ndw"}},{"type":"Feature","geometry":{"type":"Point","coordinates":[5.88427,51.34675]},"properties":{"type":"charge","layer":"passenger","locationId":"2bd95e72337f993b717dc95eed4920f3","name":"Zonnedauw 20","address":"Zonnedauw 20","city":"Meijel","operatorName":"Vattenfall InCharge","maxPowerKw":11,"isMegawatt":false,"status":"AVAILABLE","source":"ndw"}},{"type":"Feature","geometry":{"type":"Point","coordinates":[5.975252,51.322027]},"properties":{"type":"charge","layer":"passenger","locationId":"fa61c18f-a34e-49b8-a9ba-6f2f5d45926b","name":"Emmastraat","address":"Emmastraat 39","city":"Panningen","operatorName":"Vattenfall InCharge","maxPowerKw":11,"isMegawatt":false,"status":"AVAILABLE","source":"ndw"}},{"type":"Feature","geometry":{"type":"Point","coordinates":[6.094254,51.331784]},"properties":{"type":"charge","layer":"passenger","locationId":"7dc94f8cc4725d24042b75d89403c820","name":"Mgr. Thijssenstraat 4","address":"Mgr. Thijssenstraat 4","city":"Baarlo","operatorName":"Vattenfall InCharge","maxPowerKw":11,"isMegawatt":false,"status":"AVAILABLE","source":"ndw"}},{"type":"Feature","geometry":{"type":"Point","coordinates":[5.976238,51.32768]},"properties":{"type":"charge","layer":"passenger","locationId":"6024a21b-41a6-465b-8802-e4f364475167","name":"Kerkstraat","address":"Kerkstraat 32","city":"Panningen","operatorName":"Vattenfall InCharge","maxPowerKw":11,"isMegawatt":false,"status":"AVAILABLE","source":"ndw"}},{"type":"Feature","geometry":{"type":"Point","coordinates":[5.986315,51.323616]},"properties":{"type":"charge","layer":"passenger","locationId":"62dc2596-2361-43a5-b0da-aadc9444d059","name":"Schoutenring","address":"Schoutenring 36","city":"Panningen","operatorName":"Vattenfall InCharge","maxPowerKw":11,"isMegawatt":false,"status":"CHARGING","source":"ndw"}},{"type":"Feature","geometry":{"type":"Point","coordinates":[5.876129,51.350052]},"properties":{"type":"charge","layer":"passenger","locationId":"89207fdb-897f-454f-b02d-71d520dd267d","name":"Molenhaagweg 55","address":"Molenhaagweg 55","city":"Meijel","operatorName":"Vattenfall InCharge","maxPowerKw":11,"isMegawatt":false,"status":"AVAILABLE","source":"ndw"}},{"type":"Feature","geometry":{"type":"Point","coordinates":[6.05138,51.29466]},"properties":{"type":"charge","layer":"passenger","locationId":"9361d6b1-dee3-4ae2-adf1-dd76931daaca","name":"Grevenbroekstraat","address":"Grevenbroekstraat 1","city":"Kessel","operatorName":"Vattenfall InCharge","maxPowerKw":11,"isMegawatt":false,"status":"AVAILABLE","source":"ndw"}},{"type":"Feature","geometry":{"type":"Point","coordinates":[6.097589,51.332303]},"properties":{"type":"charge","layer":"passenger","locationId":"22e7b035a4a8cacb73cfff07391f7e24","name":"Tiendvrij 13","address":"Tiendvrij 13","city":"Baarlo","operatorName":"Vattenfall InCharge","maxPowerKw":11,"isMegawatt":false,"status":"AVAILABLE","source":"ndw"}},{"type":"Feature","geometry":{"type":"Point","coordinates":[6.05628,51.293374]},"properties":{"type":"charge","layer":"passenger","locationId":"7b2aa21707d8018c4e9c052cd72b4b47","name":"Gelrestraat 2","address":"Gelrestraat 2","city":"Kessel","operatorName":"Vattenfall InCharge","maxPowerKw":11,"isMegawatt":false,"status":"AVAILABLE","source":"ndw"}},{"type":"Feature","geometry":{"type":"Point","coordinates":[6.055419,51.357723]},"properties":{"type":"charge","layer":"passenger","locationId":"9c86f3f7-9ac8-4888-9e17-48aff9a87f7e","name":"Monseigneur Nolensplein 5","address":"Monseigneur Nolensplein 5","city":"Maasbree","operatorName":"Vattenfall InCharge","maxPowerKw":11,"isMegawatt":false,"status":"AVAILABLE","source":"ndw"}},{"type":"Feature","geometry":{"type":"Point","coordinates":[5.972072,51.327175]},"properties":{"type":"charge","layer":"passenger","locationId":"512d9266-6b48-468f-b58c-da775dd867c3","name":"Ringovenpark","address":"Ringovenpark 18","city":"Panningen","operatorName":"Vattenfall InCharge","maxPowerKw":11,"isMegawatt":false,"status":"AVAILABLE","source":"ndw"}},{"type":"Feature","geometry":{"type":"Point","coordinates":[6.048584,51.356239]},"properties":{"type":"charge","layer":"passenger","locationId":"9d5458f2-0c52-4f19-ab74-c6a25ff8531a","name":"Bijendonk 3","address":"Bijendonk 3","city":"Maasbree","operatorName":"Vattenfall InCharge","maxPowerKw":11,"isMegawatt":false,"status":"AVAILABLE","source":"ndw"}},{"type":"Feature","geometry":{"type":"Point","coordinates":[5.891135,51.347036]},"properties":{"type":"charge","layer":"passenger","locationId":"bcc92901-57b3-4160-9efb-81399a9192c7","name":"Schrank","address":"Schrank 1","city":"Meijel","operatorName":"Vattenfall InCharge","maxPowerKw":11,"isMegawatt":false,"status":"AVAILABLE","source":"ndw"}},{"type":"Feature","geometry":{"type":"Point","coordinates":[5.98183,51.323358]},"properties":{"type":"charge","layer":"passenger","locationId":"b0611e61-3c54-496c-afa2-4c2786cc278f","name":"Schout van Merwijckstraat","address":"Schout van Merwijckstraat 28","city":"Panningen","operatorName":"Vattenfall InCharge","maxPowerKw":11,"isMegawatt":false,"status":"AVAILABLE","source":"ndw"}},{"type":"Feature","geometry":{"type":"Point","coordinates":[5.99015,51.32143]},"properties":{"type":"charge","layer":"passenger","locationId":"d2b5836e1c722d486df5a282af7439e0","name":"Servaashof 32","address":"Servaashof 32","city":"Helden","operatorName":"Vattenfall InCharge","maxPowerKw":11,"isMegawatt":false,"status":"AVAILABLE","source":"ndw"}},{"type":"Feature","geometry":{"type":"Point","coordinates":[5.98359,51.320893]},"properties":{"type":"charge","layer":"passenger","locationId":"14adf78e-9312-43ba-be0c-07fc13215fbc","name":"Veldmaarschalk Montgomeryhof","address":"Veldmaarschalk Montgomeryhof 3","city":"Panningen","operatorName":"Vattenfall InCharge","maxPowerKw":11,"isMegawatt":false,"status":"AVAILABLE","source":"ndw"}},{"type":"Feature","geometry":{"type":"Point","coordinates":[6.03644,51.36008]},"properties":{"type":"charge","layer":"passenger","locationId":"398677775293e4903c7aa36cf20ca0fe","name":"Tesselmansgoed 12","address":"Tesselmansgoed 12","city":"Maasbree","operatorName":"Vattenfall InCharge","maxPowerKw":11,"isMegawatt":false,"status":"AVAILABLE","source":"ndw"}},{"type":"Feature","geometry":{"type":"Point","coordinates":[5.882527,51.343337]},"properties":{"type":"charge","layer":"passenger","locationId":"c5a25248-df04-40d7-8ee0-95bcc4e30578","name":"Jan Truijenstraat","address":"Jan Truijenstraat 21","city":"Meijel","operatorName":"Vattenfall InCharge","maxPowerKw":11,"isMegawatt":false,"status":"AVAILABLE","source":"ndw"}},{"type":"Feature","geometry":{"type":"Point","coordinates":[5.9857,51.325469]},"properties":{"type":"charge","layer":"passenger","locationId":"BE97D9DC-3C12-4FF7-BD3E-543331648EF8","name":"Eneco eMobility Schout Saelbergenplantsoen 22 Panningen","address":"Schout Saelbergenplantsoen 22","city":"Panningen","operatorName":"Eneco","maxPowerKw":0,"isMegawatt":false,"status":"UNAVAILABLE","source":"ndw","priceKwh":0.32}},{"type":"Feature","geometry":{"type":"Point","coordinates":[6.04762,51.35702]},"properties":{"type":"charge","layer":"passenger","locationId":"ff11b136afb53e3840ff25c2a834d419","name":"Kennedyplein 2","address":"Kennedyplein 2","city":"Maasbree","operatorName":"Vattenfall InCharge","maxPowerKw":11,"isMegawatt":false,"status":"AVAILABLE","source":"ndw"}},{"type":"Feature","geometry":{"type":"Point","coordinates":[5.978119,51.329519]},"properties":{"type":"charge","layer":"passenger","locationId":"77dc0956-4322-4450-bfff-5809e114362a","name":"Wilhelminaplein 1","address":"Wilhelminaplein 1","city":"Panningen","operatorName":"Vattenfall InCharge","maxPowerKw":11,"isMegawatt":false,"status":"CHARGING","source":"ndw"}},{"type":"Feature","geometry":{"type":"Point","coordinates":[6.098546,51.333282]},"properties":{"type":"charge","layer":"passenger","locationId":"90a122a3-8081-4544-8903-627bab168161","name":"Voorste Horst","address":"Voorste Horst 16","city":"Baarlo","operatorName":"Vattenfall InCharge","maxPowerKw":11,"isMegawatt":false,"status":"AVAILABLE","source":"ndw"}},{"type":"Feature","geometry":{"type":"Point","coordinates":[5.971094,51.324426]},"properties":{"type":"charge","layer":"passenger","locationId":"7bffac0c-1501-48fd-b43a-d98d831668d9","name":"Egchelseweg","address":"Egchelseweg 2","city":"Panningen","operatorName":"Vattenfall InCharge","maxPowerKw":11,"isMegawatt":false,"status":"AVAILABLE","source":"ndw"}},{"type":"Feature","geometry":{"type":"Point","coordinates":[6.056409,51.360082]},"properties":{"type":"charge","layer":"passenger","locationId":"b7a88dbb48571a72671d4994338f1e3b","name":"Venloseweg 1","address":"Venloseweg 1","city":"Maasbree","operatorName":"Vattenfall InCharge","maxPowerKw":11,"isMegawatt":false,"status":"AVAILABLE","source":"ndw"}},{"type":"Feature","geometry":{"type":"Point","coordinates":[6.051448,51.361453]},"properties":{"type":"charge","layer":"passenger","locationId":"c0626d86-d09a-40ab-925b-962da4337688","name":"Van Lommstraat","address":"Van Lommstraat 9","city":"Maasbree","operatorName":"Vattenfall InCharge","maxPowerKw":11,"isMegawatt":false,"status":"AVAILABLE","source":"ndw"}},{"type":"Feature","geometry":{"type":"Point","coordinates":[6.00309,51.32275]},"properties":{"type":"charge","layer":"passenger","locationId":"2c56722cb6872fa921cd4c3cf2191435","name":"Jan van de Boschstraat 3","address":"Jan van de Boschstraat 3","city":"Helden","operatorName":"Vattenfall InCharge","maxPowerKw":11,"isMegawatt":false,"status":"AVAILABLE","source":"ndw"}},{"type":"Feature","geometry":{"type":"Point","coordinates":[5.983031,51.329838]},"properties":{"type":"charge","layer":"passenger","locationId":"6f9a12eb-2dc3-465c-91f8-26b4f0bb75a4","name":"Bernhardstraat","address":"Bernhardstraat 9","city":"Panningen","operatorName":"Vattenfall InCharge","maxPowerKw":11,"isMegawatt":false,"status":"AVAILABLE","source":"ndw"}},{"type":"Feature","geometry":{"type":"Point","coordinates":[5.985265,51.376448]},"properties":{"type":"charge","layer":"freight","locationId":"50826","name":"Fastned Midden Peelweg","address":"Middenpeelweg 6","city":"Maasbree","operatorName":"Fastned","maxPowerKw":400,"isMegawatt":false,"status":"AVAILABLE","source":"ndw","priceKwh":0.6364}},{"type":"Feature","geometry":{"type":"Point","coordinates":[5.98502,51.376634]},"properties":{"type":"charge","layer":"freight","locationId":"00aee53e-98cd-11ed-b333-42010aa40055","name":"Fastned Midden Peelweg","address":"Middenpeelweg 6","city":"Maasbree","operatorName":"Fastned","maxPowerKw":400,"isMegawatt":false,"status":"AVAILABLE","source":"ndw"}},{"type":"Feature","geometry":{"type":"MultiPolygon","coordinates":[[[[6.073124182653429,51.39572861301977],[6.074368317827668,51.39390861686201],[6.07736699959971,51.394272438188494],[6.084215156436391,51.391721516921514],[6.087599269090185,51.38954119863356],[6.088916101849842,51.389233804307814],[6.090371918029682,51.38910946495519],[6.090457125091534,51.385910626271546],[6.077585387960668,51.37817226124299],[6.087191149680766,51.371657102490964],[6.090757494438906,51.37148284126318],[6.0949370869217345,51.36560483758849],[6.099653110320779,51.357096221360656],[6.101836217801378,51.356794606433205],[6.1070981878733335,51.35600235438563],[6.112465119722867,51.3516239757216],[6.1187710716544155,51.34593093297376],[6.119593466338941,51.3464783079341],[6.123252008771363,51.343369626120634],[6.118793987130754,51.3410167792743],[6.116655532553272,51.33910932808],[6.117062408593302,51.33376778219038],[6.118198361431178,51.32992465481021],[6.11743126922424,51.32699149934501],[6.11735136646487,51.32681641190932],[6.115387596725657,51.321999201723735],[6.10933198840216,51.316180167513735],[6.107875328493796,51.31447770599167],[6.105929465300248,51.312162553879084],[6.1004514758515995,51.307213833635664],[6.0922801199889935,51.30132187032149],[6.0891367283006606,51.29923971751388],[6.0847151456150534,51.297454033734624],[6.070888826927674,51.29367650315955],[6.069972556684869,51.29143054389994],[6.066816742613738,51.288881019039735],[6.0632757243535735,51.28869730204366],[6.058878015571029,51.28967153512127],[6.058423113688165,51.29024621202604],[6.049372199370569,51.2870729111701],[6.042264466543088,51.28238401811383],[6.041619061807299,51.28186006063222],[6.0305342082881,51.274026472691894],[6.0293541169261395,51.27098332819976],[6.029352784571321,51.27097844823214],[6.028195590724072,51.26805584075704],[6.026281771062755,51.266897368606315],[6.020661201835224,51.26587084452667],[6.0117719382856345,51.26637502188919],[6.009609683400282,51.26575854867454],[6.011012456971875,51.27155213968555],[6.008269242073302,51.277528915902266],[5.986679528657569,51.28660423951045],[5.971170588720311,51.293162214806195],[5.954703693892762,51.30027964362711],[5.9336015637079935,51.30605339911294],[5.919325184609749,51.30998983590068],[5.915332141473037,51.3110934611531],[5.907565077481491,51.31324029878693],[5.909946390962844,51.30792176270023],[5.886737747640587,51.314753758675806],[5.877821707907305,51.316577050038866],[5.859189046171487,51.31955154705957],[5.852140168488334,51.3207017129753],[5.8404418301566725,51.330844054620194],[5.832074198072435,51.33804600836927],[5.840192206544887,51.34687655839136],[5.858465125523401,51.350294211167146],[5.870357955769315,51.35253441402911],[5.873529664808959,51.353127093205465],[5.8794390922436195,51.35594382278012],[5.895271607367351,51.364728755773704],[5.89577680654263,51.36500988919901],[5.922448212024897,51.37984134203075],[5.9312856897955095,51.3847521341652],[5.947325488731075,51.38313347433347],[5.957894809521122,51.37804935251607],[5.982107289489692,51.378148535000555],[5.989831210182633,51.37822059158224],[6.00685485210889,51.37997437039014],[6.018763884914079,51.38225610409944],[6.035821299315106,51.38652073155825],[6.07009709734444,51.395153186276744],[6.073124182653429,51.39572861301977]]]]},"properties":{"type":"boundary","gemeente":"Peel en Maas","code":"GM1894"}}]}