{"type":"FeatureCollection","metadata":{"gemeente":"Raalte","slug":"raalte","code":"GM0177","generated_at":"2026-06-02T13:19:22.438Z","total_passenger":148,"total_freight":0,"bounds":[6.144146534900879,52.300597213858666,6.405169845244335,52.47438869732056],"operators":["Allego","DAEN Mobility","E-Flux by Road","EQUANS","Eneco","Laadnet","Lanova Laadpalen","Opcharge","Pluq","Vattenfall InCharge"]},"features":[{"type":"Feature","geometry":{"type":"Point","coordinates":[6.286801,52.393551]},"properties":{"type":"charge","layer":"passenger","locationId":"NLLOC012395","name":"NL, Kwartel 1, 8103EA, Raalte","address":"Kwartel 1","city":"Raalte","operatorName":"Allego","maxPowerKw":0,"isMegawatt":false,"status":"AVAILABLE","source":"ndw"}},{"type":"Feature","geometry":{"type":"Point","coordinates":[6.28471,52.37965]},"properties":{"type":"charge","layer":"passenger","locationId":"B7361340-5CD9-4E65-B476-8982104AE5FD","name":"Eneco eMobility Broekhuis Peugeot Raalte","address":"Aakstraat 12","city":"Raalte","operatorName":"Eneco","maxPowerKw":22,"isMegawatt":false,"status":"AVAILABLE","source":"ndw"}},{"type":"Feature","geometry":{"type":"Point","coordinates":[6.353904,52.319792]},"properties":{"type":"charge","layer":"passenger","locationId":"5ff36254cc63b124078a757a20cff7d6","name":"Marissinkhof 32","address":"Marissinkhof 32","city":"Nieuw Heeten","operatorName":"Vattenfall InCharge","maxPowerKw":11,"isMegawatt":false,"status":"AVAILABLE","source":"ndw"}},{"type":"Feature","geometry":{"type":"Point","coordinates":[6.267707,52.374219]},"properties":{"type":"charge","layer":"passenger","locationId":"cac22638-366e-4cdf-914c-bba8c2a91cea","name":"Het Wolfseind","address":"Het Wolfseind 58","city":"Raalte","operatorName":"Vattenfall InCharge","maxPowerKw":11,"isMegawatt":false,"status":"AVAILABLE","source":"ndw"}},{"type":"Feature","geometry":{"type":"Point","coordinates":[6.262652,52.381077]},"properties":{"type":"charge","layer":"passenger","locationId":"835d2a1b-7afc-4e00-a3e9-0dc4acd6aa1b","name":"De Braak 24B","address":"De Braak 24B","city":"Raalte","operatorName":"Vattenfall InCharge","maxPowerKw":11,"isMegawatt":false,"status":"AVAILABLE","source":"ndw"}},{"type":"Feature","geometry":{"type":"Point","coordinates":[6.271564,52.38775]},"properties":{"type":"charge","layer":"passenger","locationId":"9bdce98a-58f6-11ea-a4ce-42010a840003","name":"NL, Zwolsestraat 16, 8101AC, Raalte","address":"Zwolsestraat 16","city":"Raalte","operatorName":"Allego","maxPowerKw":0,"isMegawatt":false,"status":"CHARGING","source":"ndw"}},{"type":"Feature","geometry":{"type":"Point","coordinates":[6.286801,52.393551]},"properties":{"type":"charge","layer":"passenger","locationId":"ea11397e-0b8a-11ec-bd93-42010a840003","name":"NL, Kwartel 1, 8103EA, Raalte","address":"Kwartel 1","city":"Raalte","operatorName":"Allego","maxPowerKw":0,"isMegawatt":false,"status":"AVAILABLE","source":"ndw"}},{"type":"Feature","geometry":{"type":"Point","coordinates":[6.278161,52.401148]},"properties":{"type":"charge","layer":"passenger","locationId":"84572aa1-6c46-47d9-a963-16b87ea41f91","name":"Gerner","address":"Gerner 38","city":"Raalte","operatorName":"Vattenfall InCharge","maxPowerKw":11,"isMegawatt":false,"status":"AVAILABLE","source":"ndw"}},{"type":"Feature","geometry":{"type":"Point","coordinates":[6.229848,52.430229]},"properties":{"type":"charge","layer":"passenger","locationId":"d88e88e6-2c8c-11ec-bf86-42010a840003","name":"NL, Hazelaar 6, 8141 TH Heino","address":"Hazelaar 6","city":"Heino","operatorName":"Allego","maxPowerKw":0,"isMegawatt":false,"status":"AVAILABLE","source":"ndw"}},{"type":"Feature","geometry":{"type":"Point","coordinates":[6.197487,52.453807]},"properties":{"type":"charge","layer":"passenger","locationId":"f532f83921dd40fb9ca2","name":"Laag Zuthem - Havezathe den Alerdinck","address":"Den Alerdinckweg 1","city":"Laag Zuthem","operatorName":"Opcharge","maxPowerKw":22,"isMegawatt":false,"status":"AVAILABLE","source":"ndw"}},{"type":"Feature","geometry":{"type":"Point","coordinates":[6.259721,52.383023]},"properties":{"type":"charge","layer":"passenger","locationId":"0c617906-6977-11ea-9ca6-42010a840003","name":"NL, De Maten 62, 8101 GD, Raalte","address":"De Maten 62","city":"Raalte","operatorName":"Allego","maxPowerKw":0,"isMegawatt":false,"status":"AVAILABLE","source":"ndw"}},{"type":"Feature","geometry":{"type":"Point","coordinates":[6.344033,52.327645]},"properties":{"type":"charge","layer":"passenger","locationId":"5f9ec694-5376-11ea-a464-42010a840003","name":"NLD, Zwarteweg 24, 8112 AD Nieuw Heeten","address":"Zwarteweg 24","city":"Nieuw Heeten","operatorName":"Allego","maxPowerKw":0,"isMegawatt":false,"status":"AVAILABLE","source":"ndw"}},{"type":"Feature","geometry":{"type":"Point","coordinates":[6.28471,52.37965]},"properties":{"type":"charge","layer":"passenger","locationId":"0619668a-8a34-11ee-a757-42010aa40fc0","name":"Eneco eMobility Broekhuis Peugeot Raalte","address":"Aakstraat 12","city":"Raalte","operatorName":"Eneco","maxPowerKw":22,"isMegawatt":false,"status":"AVAILABLE","source":"ndw"}},{"type":"Feature","geometry":{"type":"Point","coordinates":[6.278205,52.395935]},"properties":{"type":"charge","layer":"passenger","locationId":"NLLOC005228","name":"NLD, Oosterveen 30, 8103 PE, Raalte","address":"Oosterveen 30","city":"Raalte","operatorName":"Allego","maxPowerKw":0,"isMegawatt":false,"status":"AVAILABLE","source":"ndw"}},{"type":"Feature","geometry":{"type":"Point","coordinates":[6.268134,52.394353]},"properties":{"type":"charge","layer":"passenger","locationId":"09e98cf1-a574-4ba4-8917-0b65275e46ff","name":"Zwolsestraat 63A","address":"Zwolsestraat 63A","city":"Raalte","operatorName":"Vattenfall InCharge","maxPowerKw":11,"isMegawatt":false,"status":"AVAILABLE","source":"ndw"}},{"type":"Feature","geometry":{"type":"Point","coordinates":[6.288567,52.37024]},"properties":{"type":"charge","layer":"passenger","locationId":"686bca933b3449f89b798324","name":"Charging Connect 's Ratio","address":"Newtonstraat 2","city":"Raalte","operatorName":"E-Flux by Road","maxPowerKw":22,"isMegawatt":false,"status":"AVAILABLE","source":"ndw"}},{"type":"Feature","geometry":{"type":"Point","coordinates":[6.280306,52.333282]},"properties":{"type":"charge","layer":"passenger","locationId":"673935b4-34ee-40f8-ae38-e3291c65427b","name":"Dorpsstraat","address":"Dorpsstraat 16","city":"Heeten","operatorName":"Vattenfall InCharge","maxPowerKw":11,"isMegawatt":false,"status":"AVAILABLE","source":"ndw"}},{"type":"Feature","geometry":{"type":"Point","coordinates":[6.268112,52.387632]},"properties":{"type":"charge","layer":"passenger","locationId":"69cd18fa16252f3395510563","name":"De Berk","address":"Burgemeester Kerssemakersstraat 32B","city":"Raalte","operatorName":"Lanova Laadpalen","maxPowerKw":11,"isMegawatt":false,"status":"AVAILABLE","source":"ndw"}},{"type":"Feature","geometry":{"type":"Point","coordinates":[6.199511,52.363374]},"properties":{"type":"charge","layer":"passenger","locationId":"a3d7f654-543f-11ea-a86d-42010a840003","name":"NL, Pereland 10, 8107 BM, Broekland","address":"Pereland 10","city":"Broekland","operatorName":"Allego","maxPowerKw":0,"isMegawatt":false,"status":"AVAILABLE","source":"ndw"}},{"type":"Feature","geometry":{"type":"Point","coordinates":[6.267872,52.404166]},"properties":{"type":"charge","layer":"passenger","locationId":"c91ef2f6-42f5-11ea-9652-42010a840003","name":"NL, Voorhof 2, 8101MH, Raalte","address":"Voorhof 2","city":"Raalte","operatorName":"Allego","maxPowerKw":0,"isMegawatt":false,"status":"AVAILABLE","source":"ndw"}},{"type":"Feature","geometry":{"type":"Point","coordinates":[6.261071,52.385172]},"properties":{"type":"charge","layer":"passenger","locationId":"261f1f1d-fdf4-4d75-97e6-b37b23fff575","name":"Het Woold","address":"Het Woold 34","city":"Raalte","operatorName":"Vattenfall InCharge","maxPowerKw":11,"isMegawatt":false,"status":"AVAILABLE","source":"ndw"}},{"type":"Feature","geometry":{"type":"Point","coordinates":[6.275244,52.387426]},"properties":{"type":"charge","layer":"passenger","locationId":"772872d1c7344072b3ce","name":"Raalte Hotel De Zwaan","address":"Kerkstraat 2","city":"Raalte","operatorName":"Opcharge","maxPowerKw":22,"isMegawatt":false,"status":"AVAILABLE","source":"ndw"}},{"type":"Feature","geometry":{"type":"Point","coordinates":[6.276124,52.399904]},"properties":{"type":"charge","layer":"passenger","locationId":"66105d0efd74d2001cbb1e49","name":"Peter Kloosterman 's station","address":"Rutenberg 22","city":"Raalte","operatorName":"E-Flux by Road","maxPowerKw":11,"isMegawatt":false,"status":"AVAILABLE","source":"ndw"}},{"type":"Feature","geometry":{"type":"Point","coordinates":[6.272711,52.400749]},"properties":{"type":"charge","layer":"passenger","locationId":"6213c028-5376-11ea-a65a-42010a840003","name":"NL, Schuilenburg 38, 8103 RC, Raalte","address":"Schuilenburg 38","city":"Raalte","operatorName":"Allego","maxPowerKw":0,"isMegawatt":false,"status":"AVAILABLE","source":"ndw"}},{"type":"Feature","geometry":{"type":"Point","coordinates":[6.255757,52.372057]},"properties":{"type":"charge","layer":"passenger","locationId":"68f20c5af729ff141f251096","name":"The Green East 1","address":"Drosteweg 8","city":"Raalte","operatorName":"Lanova Laadpalen","maxPowerKw":11,"isMegawatt":false,"status":"CHARGING","source":"ndw"}},{"type":"Feature","geometry":{"type":"Point","coordinates":[6.278205,52.395935]},"properties":{"type":"charge","layer":"passenger","locationId":"d7519546-f457-11e9-b5c7-42010a840003","name":"NLD, Oosterveen 30, 8103 PE, Raalte","address":"Oosterveen 30","city":"Raalte","operatorName":"Allego","maxPowerKw":0,"isMegawatt":false,"status":"AVAILABLE","source":"ndw"}},{"type":"Feature","geometry":{"type":"Point","coordinates":[6.285779,52.379445]},"properties":{"type":"charge","layer":"passenger","locationId":"655380061d7415001c8e54b3","name":"Laadstation De Kaag Raalte","address":"Kaagstraat  10","city":"Raalte","operatorName":"Lanova Laadpalen","maxPowerKw":11,"isMegawatt":false,"status":"AVAILABLE","source":"ndw"}},{"type":"Feature","geometry":{"type":"Point","coordinates":[6.272711,52.400749]},"properties":{"type":"charge","layer":"passenger","locationId":"NLLOC006541","name":"NL, Schuilenburg 38, 8103 RC, Raalte","address":"Schuilenburg 38","city":"Raalte","operatorName":"Allego","maxPowerKw":0,"isMegawatt":false,"status":"AVAILABLE","source":"ndw"}},{"type":"Feature","geometry":{"type":"Point","coordinates":[6.173578,52.459235]},"properties":{"type":"charge","layer":"passenger","locationId":"2e391d2c-a238-11eb-834b-42010a840003","name":"NL, Kolkweg 24, 8055PV, Laag Zuthem","address":"Kolkweg 24","city":"Laag Zuthem","operatorName":"Allego","maxPowerKw":0,"isMegawatt":false,"status":"AVAILABLE","source":"ndw"}},{"type":"Feature","geometry":{"type":"Point","coordinates":[6.272183,52.441945]},"properties":{"type":"charge","layer":"passenger","locationId":"68ac2e7d59340c563cd9e295","name":"Tea Bannink 's station","address":"Kleinjansweg  6","city":"Heino","operatorName":"E-Flux by Road","maxPowerKw":22,"isMegawatt":false,"status":"AVAILABLE","source":"ndw"}},{"type":"Feature","geometry":{"type":"Point","coordinates":[6.287274,52.398531]},"properties":{"type":"charge","layer":"passenger","locationId":"ed336bf59489ac79267916b9867131a2","name":"Weidelaan 257","address":"Weidelaan 257","city":"Raalte","operatorName":"Vattenfall InCharge","maxPowerKw":11,"isMegawatt":false,"status":"AVAILABLE","source":"ndw"}},{"type":"Feature","geometry":{"type":"Point","coordinates":[6.255805,52.371943]},"properties":{"type":"charge","layer":"passenger","locationId":"68f20b97e6755634c6e7de3b","name":"The Green East 2","address":"Drosteweg 8","city":"Raalte","operatorName":"Lanova Laadpalen","maxPowerKw":11,"isMegawatt":false,"status":"AVAILABLE","source":"ndw"}},{"type":"Feature","geometry":{"type":"Point","coordinates":[6.368893,52.403806]},"properties":{"type":"charge","layer":"passenger","locationId":"e7bb86ba-22bc-11ea-8388-42010a840003","name":"NLD, Butzelaarstraat 27, 8105 AP, Luttenberg","address":"Butzelaarstraat 27","city":"Luttenberg","operatorName":"Allego","maxPowerKw":0,"isMegawatt":false,"status":"CHARGING","source":"ndw"}},{"type":"Feature","geometry":{"type":"Point","coordinates":[6.268029,52.406012]},"properties":{"type":"charge","layer":"passenger","locationId":"5d211934-f3f8-11eb-8a62-42010a840003","name":"NL, Veldhof 6, 8102MG, Raalte","address":"Veldhof 6","city":"Raalte","operatorName":"Allego","maxPowerKw":0,"isMegawatt":false,"status":"AVAILABLE","source":"ndw"}},{"type":"Feature","geometry":{"type":"Point","coordinates":[6.277129,52.380444]},"properties":{"type":"charge","layer":"passenger","locationId":"7dc100c2-ea8a-11eb-a2c8-42010a840003","name":"NL, Esstraat 10, 8102 ZB Raalte","address":"Esstraat 10","city":"Raalte","operatorName":"Allego","maxPowerKw":0,"isMegawatt":false,"status":"AVAILABLE","source":"ndw"}},{"type":"Feature","geometry":{"type":"Point","coordinates":[6.351552,52.320491]},"properties":{"type":"charge","layer":"passenger","locationId":"de26fb08-2c8c-11ec-9880-42010a840003","name":"NL, Scholtensstraat 1, 8112AA, Nieuw Heeten","address":"Scholtensstraat 1","city":"Nieuw Heeten","operatorName":"Allego","maxPowerKw":0,"isMegawatt":false,"status":"AVAILABLE","source":"ndw"}},{"type":"Feature","geometry":{"type":"Point","coordinates":[6.32932,52.38439]},"properties":{"type":"charge","layer":"passenger","locationId":"4763544","name":"van Keulen Interieurbouw Nijboer","address":"Het Fiester 26","city":"Mariënheem","operatorName":"Laadnet","maxPowerKw":22,"isMegawatt":false,"status":"CHARGING","source":"ndw"}},{"type":"Feature","geometry":{"type":"Point","coordinates":[6.288574,52.391568]},"properties":{"type":"charge","layer":"passenger","locationId":"772ea8b5-f4a8-4c64-a289-e34fccfdf5f1","name":"Grutto","address":"Grutto 2","city":"Raalte","operatorName":"Vattenfall InCharge","maxPowerKw":11,"isMegawatt":false,"status":"CHARGING","source":"ndw"}},{"type":"Feature","geometry":{"type":"Point","coordinates":[6.263928,52.382873]},"properties":{"type":"charge","layer":"passenger","locationId":"75ff57b6-a1a0-11ed-9a65-42010aa40fc0","name":"NL, Oude Molenweg 74, 8101 EM Raalte","address":"Oude Molenweg 74","city":"Raalte","operatorName":"Allego","maxPowerKw":0,"isMegawatt":false,"status":"AVAILABLE","source":"ndw"}},{"type":"Feature","geometry":{"type":"Point","coordinates":[6.32101,52.381513]},"properties":{"type":"charge","layer":"passenger","locationId":"fc7b9dd4-4d2c-11ea-b96a-42010a840003","name":"NL, De Heemen 5, 8106 AL, Mariënheem","address":"De Heemen 5","city":"Mariënheem","operatorName":"Allego","maxPowerKw":0,"isMegawatt":false,"status":"AVAILABLE","source":"ndw"}},{"type":"Feature","geometry":{"type":"Point","coordinates":[6.268029,52.406012]},"properties":{"type":"charge","layer":"passenger","locationId":"NLLOC015777","name":"NL, Veldhof 6, 8102MG, Raalte","address":"Veldhof 6","city":"Raalte","operatorName":"Allego","maxPowerKw":0,"isMegawatt":false,"status":"AVAILABLE","source":"ndw"}},{"type":"Feature","geometry":{"type":"Point","coordinates":[6.279674,52.380159]},"properties":{"type":"charge","layer":"passenger","locationId":"bda7b388-fb07-11f0-8683-42010aa400b8","name":"EQUANS Veiligheidsregio Raalte","address":"Aakstraat 2","city":"Raalte","operatorName":"EQUANS","maxPowerKw":0,"isMegawatt":false,"status":"AVAILABLE","source":"ndw"}},{"type":"Feature","geometry":{"type":"Point","coordinates":[6.36309,52.398222]},"properties":{"type":"charge","layer":"passenger","locationId":"73727bcc-661c-11e9-b289-42010a840003","name":"NLD, Heuvelweg 40, 8105 SZ, Luttenberg","address":"Heuvelweg 40","city":"Luttenberg","operatorName":"Allego","maxPowerKw":0,"isMegawatt":false,"status":"AVAILABLE","source":"ndw"}},{"type":"Feature","geometry":{"type":"Point","coordinates":[6.277124,52.40123]},"properties":{"type":"charge","layer":"passenger","locationId":"dcba0ae8-e43f-11eb-83c2-42010a840003","name":"NL, Averbergen 2, 8103JL, Raalte","address":"Averbergen 2","city":"Raalte","operatorName":"Allego","maxPowerKw":0,"isMegawatt":false,"status":"AVAILABLE","source":"ndw"}},{"type":"Feature","geometry":{"type":"Point","coordinates":[6.274112,52.384387]},"properties":{"type":"charge","layer":"passenger","locationId":"90b513c2-46e3-11ea-bd14-42010a840003","name":"NL, Domineeskamp 4a, 8102 CC, Raalte","address":"Domineeskamp 4a","city":"Raalte","operatorName":"Allego","maxPowerKw":0,"isMegawatt":false,"status":"AVAILABLE","source":"ndw"}},{"type":"Feature","geometry":{"type":"Point","coordinates":[6.277278,52.381674]},"properties":{"type":"charge","layer":"passenger","locationId":"cf0ff9aa-d8d6-11e9-8155-42010a840003","name":"NLD, Wilgensingel 132, Raalte","address":"Wilgensingel 132","city":"Raalte","operatorName":"Allego","maxPowerKw":0,"isMegawatt":false,"status":"AVAILABLE","source":"ndw"}},{"type":"Feature","geometry":{"type":"Point","coordinates":[6.282587,52.378357]},"properties":{"type":"charge","layer":"passenger","locationId":"667ec9f7663601001c37a8d8","name":"FW station 2","address":"Praamstraat 80","city":"Raalte","operatorName":"Lanova Laadpalen","maxPowerKw":22,"isMegawatt":false,"status":"CHARGING","source":"ndw"}},{"type":"Feature","geometry":{"type":"Point","coordinates":[6.275775,52.377353]},"properties":{"type":"charge","layer":"passenger","locationId":"1d094308-7c1d-11e9-9e76-42010a840003","name":"NLD, Lijsterbesstraat 35, Raalte","address":"Lijsterbesstraat 35","city":"Raalte","operatorName":"Allego","maxPowerKw":0,"isMegawatt":false,"status":"AVAILABLE","source":"ndw"}},{"type":"Feature","geometry":{"type":"Point","coordinates":[6.267493,52.39554]},"properties":{"type":"charge","layer":"passenger","locationId":"e8cf70fc-785c-11ea-83b0-42010a840003","name":"NL, Zwolsestraat 65, 8101AB, Raalte","address":"Zwolsestraat 65","city":"Raalte","operatorName":"Allego","maxPowerKw":0,"isMegawatt":false,"status":"AVAILABLE","source":"ndw"}},{"type":"Feature","geometry":{"type":"Point","coordinates":[6.370407,52.408385]},"properties":{"type":"charge","layer":"passenger","locationId":"07722756-51e4-11ea-8b87-42010a840003","name":"NL, Sigmeyer 6, 8105BS, Luttenberg","address":"Sigmeyer 6","city":"Luttenberg","operatorName":"Allego","maxPowerKw":0,"isMegawatt":false,"status":"AVAILABLE","source":"ndw"}},{"type":"Feature","geometry":{"type":"Point","coordinates":[6.270418,52.39097]},"properties":{"type":"charge","layer":"passenger","locationId":"7ddb9798-ea8a-11eb-bd51-42010a840003","name":"NL, Dahliastraat 58, 8102 AZ Raalte","address":"Dahliastraat 58","city":"Raalte","operatorName":"Allego","maxPowerKw":0,"isMegawatt":false,"status":"AVAILABLE","source":"ndw"}},{"type":"Feature","geometry":{"type":"Point","coordinates":[6.277787,52.385047]},"properties":{"type":"charge","layer":"passenger","locationId":"17412dba-493f-11ea-bf13-42010a840003","name":"NL, Kuiperstraat 6, 8102CX, Raalte","address":"Kuiperstraat 6","city":"Raalte","operatorName":"Allego","maxPowerKw":0,"isMegawatt":false,"status":"AVAILABLE","source":"ndw"}},{"type":"Feature","geometry":{"type":"Point","coordinates":[6.278247,52.386802]},"properties":{"type":"charge","layer":"passenger","locationId":"639dcdfc-4d93-11e8-849b-42010a840002","name":"NL, Schapenstraat 1, 8102CM, Raalte","address":"Schapenstraat 1","city":"Raalte","operatorName":"Allego","maxPowerKw":0,"isMegawatt":false,"status":"AVAILABLE","source":"ndw"}},{"type":"Feature","geometry":{"type":"Point","coordinates":[6.173578,52.459235]},"properties":{"type":"charge","layer":"passenger","locationId":"NLLOC010152","name":"NL, Kolkweg 24, 8055PV, Laag Zuthem","address":"Kolkweg 24","city":"Laag Zuthem","operatorName":"Allego","maxPowerKw":0,"isMegawatt":false,"status":"AVAILABLE","source":"ndw"}},{"type":"Feature","geometry":{"type":"Point","coordinates":[6.279507,52.329902]},"properties":{"type":"charge","layer":"passenger","locationId":"61ddb4c82e11562e27c1d7f3","name":"Victor Ruiter 's Load station","address":"De Lange Slag  44","city":"Heeten","operatorName":"E-Flux by Road","maxPowerKw":6,"isMegawatt":false,"status":"AVAILABLE","source":"ndw"}},{"type":"Feature","geometry":{"type":"Point","coordinates":[6.279373,52.328102]},"properties":{"type":"charge","layer":"passenger","locationId":"9d13e16c-88c2-11eb-8649-42010a840003","name":"NL, De Schaarsen 13, 8111CP, Heeten","address":"De Schaarsen 13","city":"Heeten","operatorName":"Allego","maxPowerKw":0,"isMegawatt":false,"status":"AVAILABLE","source":"ndw"}},{"type":"Feature","geometry":{"type":"Point","coordinates":[6.270418,52.39097]},"properties":{"type":"charge","layer":"passenger","locationId":"NLLOC016647","name":"NL, Dahliastraat 58, 8102 AZ Raalte","address":"Dahliastraat 58","city":"Raalte","operatorName":"Allego","maxPowerKw":0,"isMegawatt":false,"status":"AVAILABLE","source":"ndw"}},{"type":"Feature","geometry":{"type":"Point","coordinates":[6.290435,52.390005]},"properties":{"type":"charge","layer":"passenger","locationId":"417d7b4c-77f9-11ed-acb2-42010aa40fc0","name":"NL, Lijster 34, 8103 AJ Raalte","address":"Lijster 34","city":"Raalte","operatorName":"Allego","maxPowerKw":0,"isMegawatt":false,"status":"AVAILABLE","source":"ndw"}},{"type":"Feature","geometry":{"type":"Point","coordinates":[6.264333,52.377521]},"properties":{"type":"charge","layer":"passenger","locationId":"bfb43d8b-0fcb-4c9e-a9c3-871b2103b5b3","name":"Majoraan","address":"Majoraan 41","city":"Raalte","operatorName":"Vattenfall InCharge","maxPowerKw":11,"isMegawatt":false,"status":"AVAILABLE","source":"ndw"}},{"type":"Feature","geometry":{"type":"Point","coordinates":[6.28482,52.384214]},"properties":{"type":"charge","layer":"passenger","locationId":"be80987a-dff6-4e15-8c96-f065187e89e9","name":"De Omloop","address":"De Omloop 28","city":"Raalte","operatorName":"Vattenfall InCharge","maxPowerKw":11,"isMegawatt":false,"status":"AVAILABLE","source":"ndw"}},{"type":"Feature","geometry":{"type":"Point","coordinates":[6.286892,52.393577]},"properties":{"type":"charge","layer":"passenger","locationId":"4f7658dc-e182-4584-a2b2-8c23f8f9b402","name":"Kwartel","address":"Kwartel 1","city":"Raalte","operatorName":"Vattenfall InCharge","maxPowerKw":11,"isMegawatt":false,"status":"AVAILABLE","source":"ndw"}},{"type":"Feature","geometry":{"type":"Point","coordinates":[6.277266,52.38789]},"properties":{"type":"charge","layer":"passenger","locationId":"67b5acf2ae383b5fe8b71435","name":"Parkeerplaats Schoolstraat","address":"Schoolstraat 7","city":"Raalte","operatorName":"Lanova Laadpalen","maxPowerKw":22,"isMegawatt":false,"status":"AVAILABLE","source":"ndw"}},{"type":"Feature","geometry":{"type":"Point","coordinates":[6.282533,52.331117]},"properties":{"type":"charge","layer":"passenger","locationId":"c13bfaafa0bc4e90146653e764d24b54","name":"Dorpsstraat 32","address":"Dorpsstraat 32","city":"Heeten","operatorName":"Vattenfall InCharge","maxPowerKw":11,"isMegawatt":false,"status":"AVAILABLE","source":"ndw"}},{"type":"Feature","geometry":{"type":"Point","coordinates":[6.344033,52.327645]},"properties":{"type":"charge","layer":"passenger","locationId":"NLLOC005989","name":"NLD, Zwarteweg 24, 8112 AD Nieuw Heeten","address":"Zwarteweg 24","city":"Nieuw Heeten","operatorName":"Allego","maxPowerKw":0,"isMegawatt":false,"status":"AVAILABLE","source":"ndw"}},{"type":"Feature","geometry":{"type":"Point","coordinates":[6.274112,52.384387]},"properties":{"type":"charge","layer":"passenger","locationId":"NLLOC006601","name":"NL, Domineeskamp 4a, 8102 CC, Raalte","address":"Domineeskamp 4a","city":"Raalte","operatorName":"Allego","maxPowerKw":0,"isMegawatt":false,"status":"AVAILABLE","source":"ndw"}},{"type":"Feature","geometry":{"type":"Point","coordinates":[6.368893,52.403806]},"properties":{"type":"charge","layer":"passenger","locationId":"NLLOC005978","name":"NLD, Butzelaarstraat 27, 8105 AP, Luttenberg","address":"Butzelaarstraat 27","city":"Luttenberg","operatorName":"Allego","maxPowerKw":0,"isMegawatt":false,"status":"AVAILABLE","source":"ndw"}},{"type":"Feature","geometry":{"type":"Point","coordinates":[6.277278,52.381674]},"properties":{"type":"charge","layer":"passenger","locationId":"NLLOC003730","name":"NLD, Wilgensingel 132, Raalte","address":"Wilgensingel 132","city":"Raalte","operatorName":"Allego","maxPowerKw":0,"isMegawatt":false,"status":"AVAILABLE","source":"ndw"}},{"type":"Feature","geometry":{"type":"Point","coordinates":[6.234445,52.433642]},"properties":{"type":"charge","layer":"passenger","locationId":"6b2779f3-22ba-4b64-9881-28361cdbf3e6","name":"Plataan","address":"Plataan 10","city":"Heino","operatorName":"Vattenfall InCharge","maxPowerKw":11,"isMegawatt":false,"status":"AVAILABLE","source":"ndw"}},{"type":"Feature","geometry":{"type":"Point","coordinates":[6.288653,52.370325]},"properties":{"type":"charge","layer":"passenger","locationId":"6852ac36a8d1f0f4f65aca5a","name":"Charging Connect 's Alfen","address":"Newtonstraat 2","city":"Raalte","operatorName":"E-Flux by Road","maxPowerKw":22,"isMegawatt":false,"status":"CHARGING","source":"ndw"}},{"type":"Feature","geometry":{"type":"Point","coordinates":[6.229848,52.430229]},"properties":{"type":"charge","layer":"passenger","locationId":"NLLOC013407","name":"NL, Hazelaar 6, 8141 TH Heino","address":"Hazelaar 6","city":"Heino","operatorName":"Allego","maxPowerKw":0,"isMegawatt":false,"status":"AVAILABLE","source":"ndw"}},{"type":"Feature","geometry":{"type":"Point","coordinates":[6.282587,52.378357]},"properties":{"type":"charge","layer":"passenger","locationId":"667ec9a121ac7a001cd35834","name":"FW station 1","address":"Praamstraat  80","city":"Raalte","operatorName":"Lanova Laadpalen","maxPowerKw":22,"isMegawatt":false,"status":"AVAILABLE","source":"ndw"}},{"type":"Feature","geometry":{"type":"Point","coordinates":[6.278247,52.386802]},"properties":{"type":"charge","layer":"passenger","locationId":"NLLOC006342","name":"NL, Schapenstraat 1, 8102CM, Raalte","address":"Schapenstraat 1","city":"Raalte","operatorName":"Allego","maxPowerKw":0,"isMegawatt":false,"status":"AVAILABLE","source":"ndw"}},{"type":"Feature","geometry":{"type":"Point","coordinates":[6.20187,52.360638]},"properties":{"type":"charge","layer":"passenger","locationId":"7c26c12f-e289-4c03-ab2a-88a17c4b6437","name":"Vorsterhof 43","address":"Vorsterhof 43","city":"Broekland","operatorName":"Vattenfall InCharge","maxPowerKw":11,"isMegawatt":false,"status":"AVAILABLE","source":"ndw"}},{"type":"Feature","geometry":{"type":"Point","coordinates":[6.264665,52.376052]},"properties":{"type":"charge","layer":"passenger","locationId":"c1aff69c-d2e1-4c51-b2bb-3260c645216a","name":"Rozemarijn","address":"Rozemarijn 17","city":"Raalte","operatorName":"Vattenfall InCharge","maxPowerKw":11,"isMegawatt":false,"status":"AVAILABLE","source":"ndw"}},{"type":"Feature","geometry":{"type":"Point","coordinates":[6.275775,52.377353]},"properties":{"type":"charge","layer":"passenger","locationId":"NLLOC004078","name":"NLD, Lijsterbesstraat 35, Raalte","address":"Lijsterbesstraat 35","city":"Raalte","operatorName":"Allego","maxPowerKw":0,"isMegawatt":false,"status":"AVAILABLE","source":"ndw"}},{"type":"Feature","geometry":{"type":"Point","coordinates":[6.271564,52.38775]},"properties":{"type":"charge","layer":"passenger","locationId":"NLLOC006627","name":"NL, Zwolsestraat 16, 8101AC, Raalte","address":"Zwolsestraat 16","city":"Raalte","operatorName":"Allego","maxPowerKw":0,"isMegawatt":false,"status":"CHARGING","source":"ndw"}},{"type":"Feature","geometry":{"type":"Point","coordinates":[6.279373,52.328102]},"properties":{"type":"charge","layer":"passenger","locationId":"NLLOC012995","name":"NL, De Schaarsen 13, 8111CP, Heeten","address":"De Schaarsen 13","city":"Heeten","operatorName":"Allego","maxPowerKw":0,"isMegawatt":false,"status":"AVAILABLE","source":"ndw"}},{"type":"Feature","geometry":{"type":"Point","coordinates":[6.32101,52.381513]},"properties":{"type":"charge","layer":"passenger","locationId":"NLLOC006604","name":"NL, De Heemen 5, 8106 AL, Mariënheem","address":"De Heemen 5","city":"Mariënheem","operatorName":"Allego","maxPowerKw":0,"isMegawatt":false,"status":"AVAILABLE","source":"ndw"}},{"type":"Feature","geometry":{"type":"Point","coordinates":[6.279674,52.380159]},"properties":{"type":"charge","layer":"passenger","locationId":"91114844","name":"EQUANS Veiligheidsregio Raalte","address":"Aakstraat 2","city":"Raalte","operatorName":"EQUANS","maxPowerKw":0,"isMegawatt":false,"status":"AVAILABLE","source":"ndw"}},{"type":"Feature","geometry":{"type":"Point","coordinates":[6.278454,52.396056]},"properties":{"type":"charge","layer":"passenger","locationId":"87c97c98-0fc0-494f-ab81-2222c43a5e9a","name":"Oosterveen 69","address":"Oosterveen 69","city":"Raalte","operatorName":"Vattenfall InCharge","maxPowerKw":11,"isMegawatt":false,"status":"AVAILABLE","source":"ndw"}},{"type":"Feature","geometry":{"type":"Point","coordinates":[6.277129,52.380444]},"properties":{"type":"charge","layer":"passenger","locationId":"NLLOC017300","name":"NL, Esstraat 10, 8102 ZB Raalte","address":"Esstraat 10","city":"Raalte","operatorName":"Allego","maxPowerKw":0,"isMegawatt":false,"status":"AVAILABLE","source":"ndw"}},{"type":"Feature","geometry":{"type":"Point","coordinates":[6.228624,52.443191]},"properties":{"type":"charge","layer":"passenger","locationId":"63d3a8c477496700125b5363","name":"Seine Wonen Slapen laadstation","address":"Molenweg 2","city":"Heino","operatorName":"E-Flux by Road","maxPowerKw":22,"isMegawatt":false,"status":"UNAVAILABLE","source":"ndw"}},{"type":"Feature","geometry":{"type":"Point","coordinates":[6.289371,52.392373]},"properties":{"type":"charge","layer":"passenger","locationId":"93afd7479bfdfa382fcc35f8cb74e558","name":"Grutto 28","address":"Grutto 28","city":"Raalte","operatorName":"Vattenfall InCharge","maxPowerKw":11,"isMegawatt":false,"status":"AVAILABLE","source":"ndw"}},{"type":"Feature","geometry":{"type":"Point","coordinates":[6.277787,52.385047]},"properties":{"type":"charge","layer":"passenger","locationId":"NLLOC006628","name":"NL, Kuiperstraat 6, 8102CX, Raalte","address":"Kuiperstraat 6","city":"Raalte","operatorName":"Allego","maxPowerKw":0,"isMegawatt":false,"status":"AVAILABLE","source":"ndw"}},{"type":"Feature","geometry":{"type":"Point","coordinates":[6.222713,52.435755]},"properties":{"type":"charge","layer":"passenger","locationId":"bacad423-1d67-42c5-8c22-9de7e828b925","name":"Brinkweg","address":"Brinkweg 11","city":"Heino","operatorName":"Vattenfall InCharge","maxPowerKw":11,"isMegawatt":false,"status":"AVAILABLE","source":"ndw"}},{"type":"Feature","geometry":{"type":"Point","coordinates":[6.277907,52.387378]},"properties":{"type":"charge","layer":"passenger","locationId":"9351f5c0e90216c35b9429f723be3c4e","name":"Schoolstraat 12","address":"Schoolstraat 12","city":"Raalte","operatorName":"Vattenfall InCharge","maxPowerKw":11,"isMegawatt":false,"status":"AVAILABLE","source":"ndw"}},{"type":"Feature","geometry":{"type":"Point","coordinates":[6.277124,52.40123]},"properties":{"type":"charge","layer":"passenger","locationId":"NLLOC015897","name":"NL, Averbergen 2, 8103JL, Raalte","address":"Averbergen 2","city":"Raalte","operatorName":"Allego","maxPowerKw":0,"isMegawatt":false,"status":"AVAILABLE","source":"ndw"}},{"type":"Feature","geometry":{"type":"Point","coordinates":[6.233441,52.432752]},"properties":{"type":"charge","layer":"passenger","locationId":"04354a95-0209-4231-92e0-58beebe85a03","name":"Linde","address":"Linde 46","city":"Heino","operatorName":"Vattenfall InCharge","maxPowerKw":11,"isMegawatt":false,"status":"AVAILABLE","source":"ndw"}},{"type":"Feature","geometry":{"type":"Point","coordinates":[6.267493,52.39554]},"properties":{"type":"charge","layer":"passenger","locationId":"NLLOC007511","name":"NL, Zwolsestraat 65, 8101AB, Raalte","address":"Zwolsestraat 65","city":"Raalte","operatorName":"Allego","maxPowerKw":0,"isMegawatt":false,"status":"AVAILABLE","source":"ndw"}},{"type":"Feature","geometry":{"type":"Point","coordinates":[6.278589,52.38626]},"properties":{"type":"charge","layer":"passenger","locationId":"72328c8f-0842-42b4-ad12-142d29860463","name":"Schapenstraat 3","address":"Schapenstraat 3","city":"Raalte","operatorName":"Vattenfall InCharge","maxPowerKw":11,"isMegawatt":false,"status":"AVAILABLE","source":"ndw"}},{"type":"Feature","geometry":{"type":"Point","coordinates":[6.273314,52.376658]},"properties":{"type":"charge","layer":"passenger","locationId":"57ab51358c990ed3927060b7710dec34","name":"Iepensingel 46","address":"Iepensingel 46","city":"Raalte","operatorName":"Vattenfall InCharge","maxPowerKw":11,"isMegawatt":false,"status":"AVAILABLE","source":"ndw"}},{"type":"Feature","geometry":{"type":"Point","coordinates":[6.255209,52.375835]},"properties":{"type":"charge","layer":"passenger","locationId":"67ab5732ac3a16daa8f5805a","name":"Vitalcentre","address":"Hammerweg 8b","city":"Raalte","operatorName":"Lanova Laadpalen","maxPowerKw":22,"isMegawatt":false,"status":"AVAILABLE","source":"ndw"}},{"type":"Feature","geometry":{"type":"Point","coordinates":[6.293511,52.374904]},"properties":{"type":"charge","layer":"passenger","locationId":"6584247d017687001cbe9c95","name":"Cityhub Raalte BV","address":"Wattstraat 1","city":"Raalte","operatorName":"E-Flux by Road","maxPowerKw":22,"isMegawatt":false,"status":"AVAILABLE","source":"ndw"}},{"type":"Feature","geometry":{"type":"Point","coordinates":[6.259721,52.383023]},"properties":{"type":"charge","layer":"passenger","locationId":"NLLOC008051","name":"NL, De Maten 62, 8101 GD, Raalte","address":"De Maten 62","city":"Raalte","operatorName":"Allego","maxPowerKw":0,"isMegawatt":false,"status":"AVAILABLE","source":"ndw"}},{"type":"Feature","geometry":{"type":"Point","coordinates":[6.288034,52.309196]},"properties":{"type":"charge","layer":"passenger","locationId":"66d8000bc4c494001cfb14ef","name":"De Maathoeve","address":"Witteveensweg 23","city":"Heeten","operatorName":"Pluq","maxPowerKw":14,"isMegawatt":false,"status":"AVAILABLE","source":"ndw"}},{"type":"Feature","geometry":{"type":"Point","coordinates":[6.267872,52.404166]},"properties":{"type":"charge","layer":"passenger","locationId":"NLLOC006313","name":"NL, Voorhof 2, 8101MH, Raalte","address":"Voorhof 2","city":"Raalte","operatorName":"Allego","maxPowerKw":0,"isMegawatt":false,"status":"AVAILABLE","source":"ndw"}},{"type":"Feature","geometry":{"type":"Point","coordinates":[6.370407,52.408385]},"properties":{"type":"charge","layer":"passenger","locationId":"NLLOC006626","name":"NL, Sigmeyer 6, 8105BS, Luttenberg","address":"Sigmeyer 6","city":"Luttenberg","operatorName":"Allego","maxPowerKw":0,"isMegawatt":false,"status":"AVAILABLE","source":"ndw"}},{"type":"Feature","geometry":{"type":"Point","coordinates":[6.276365,52.331584]},"properties":{"type":"charge","layer":"passenger","locationId":"e55e18b8-4afd-4264-bd77-df59ef54205a","name":"Overbrinck 28","address":"Overbrinck 28","city":"Heeten","operatorName":"Vattenfall InCharge","maxPowerKw":11,"isMegawatt":false,"status":"AVAILABLE","source":"ndw"}},{"type":"Feature","geometry":{"type":"Point","coordinates":[6.281157,52.316884]},"properties":{"type":"charge","layer":"passenger","locationId":"66d7f9feec6ad8001c0078b1","name":"Zaal-Restaurant Reimink","address":"Spanjaardsdijk 17","city":"Heeten","operatorName":"Pluq","maxPowerKw":22,"isMegawatt":false,"status":"AVAILABLE","source":"ndw"}},{"type":"Feature","geometry":{"type":"Point","coordinates":[6.230389,52.43437]},"properties":{"type":"charge","layer":"passenger","locationId":"871119b9-16e0-42b5-80f2-7be6535fa67a","name":"Rozendaelseweg","address":"Rozendaelseweg 2","city":"Heino","operatorName":"Vattenfall InCharge","maxPowerKw":11,"isMegawatt":false,"status":"AVAILABLE","source":"ndw"}},{"type":"Feature","geometry":{"type":"Point","coordinates":[6.26822,52.383018]},"properties":{"type":"charge","layer":"passenger","locationId":"1b005754b7b6952bcd752227ac3afa02","name":"Van der Wijckstraat 57","address":"Van der Wijckstraat 57","city":"Raalte","operatorName":"Vattenfall InCharge","maxPowerKw":11,"isMegawatt":false,"status":"AVAILABLE","source":"ndw"}},{"type":"Feature","geometry":{"type":"Point","coordinates":[6.36309,52.398222]},"properties":{"type":"charge","layer":"passenger","locationId":"NLLOC003573","name":"NLD, Heuvelweg 40, 8105 SZ, Luttenberg","address":"Heuvelweg 40","city":"Luttenberg","operatorName":"Allego","maxPowerKw":0,"isMegawatt":false,"status":"AVAILABLE","source":"ndw"}},{"type":"Feature","geometry":{"type":"Point","coordinates":[6.270844,52.388108]},"properties":{"type":"charge","layer":"passenger","locationId":"bc96c699-e584-4ab9-aecd-b3f9fa77240f","name":"Zwolsestraat","address":"Zwolsestraat 15","city":"Raalte","operatorName":"Vattenfall InCharge","maxPowerKw":11,"isMegawatt":false,"status":"AVAILABLE","source":"ndw"}},{"type":"Feature","geometry":{"type":"Point","coordinates":[6.206426,52.365844]},"properties":{"type":"charge","layer":"passenger","locationId":"150574a7-c6d9-4dc5-9cf0-f2481bca34e3","name":"Horstweg 11","address":"Horstweg 11","city":"Broekland","operatorName":"Vattenfall InCharge","maxPowerKw":11,"isMegawatt":false,"status":"AVAILABLE","source":"ndw"}},{"type":"Feature","geometry":{"type":"Point","coordinates":[6.271661,52.400415]},"properties":{"type":"charge","layer":"passenger","locationId":"367d01c8375bf37457a1bb03c1d2ae8e","name":"Vrieswijk 2a","address":"Vrieswijk 2a","city":"Raalte","operatorName":"Vattenfall InCharge","maxPowerKw":11,"isMegawatt":false,"status":"AVAILABLE","source":"ndw"}},{"type":"Feature","geometry":{"type":"Point","coordinates":[6.191297,52.435921]},"properties":{"type":"charge","layer":"passenger","locationId":"124305e4-d15b-449b-8187-fd16b4be2d89","name":"Kerkslagen","address":"Kerkslagen 13","city":"Lierderholthuis","operatorName":"Vattenfall InCharge","maxPowerKw":11,"isMegawatt":false,"status":"AVAILABLE","source":"ndw"}},{"type":"Feature","geometry":{"type":"Point","coordinates":[6.289989,52.392383]},"properties":{"type":"charge","layer":"passenger","locationId":"c533091a9f73b5b2403fce36636bced7","name":"Grutto 38","address":"Grutto 38","city":"Raalte","operatorName":"Vattenfall InCharge","maxPowerKw":11,"isMegawatt":false,"status":"AVAILABLE","source":"ndw"}},{"type":"Feature","geometry":{"type":"Point","coordinates":[6.27652,52.379565]},"properties":{"type":"charge","layer":"passenger","locationId":"da27fe45-5293-47f1-af9a-84d2d124cf1d","name":"Kastanjelaan","address":"Kastanjelaan 35","city":"Raalte","operatorName":"Vattenfall InCharge","maxPowerKw":11,"isMegawatt":false,"status":"AVAILABLE","source":"ndw"}},{"type":"Feature","geometry":{"type":"Point","coordinates":[6.374957,52.422236]},"properties":{"type":"charge","layer":"passenger","locationId":"672ca19f43c16d8e705e1b73","name":"Slot 's station","address":"Schanebroeksweg 10","city":"Luttenberg","operatorName":"E-Flux by Road","maxPowerKw":17,"isMegawatt":false,"status":"AVAILABLE","source":"ndw"}},{"type":"Feature","geometry":{"type":"Point","coordinates":[6.285805,52.382071]},"properties":{"type":"charge","layer":"passenger","locationId":"68a860ae07b3d1cddbe90d64","name":"Bouwbedrijf Hoogeslag BV","address":"Almelosestraat 54","city":"Raalte","operatorName":"E-Flux by Road","maxPowerKw":22,"isMegawatt":false,"status":"AVAILABLE","source":"ndw"}},{"type":"Feature","geometry":{"type":"Point","coordinates":[6.327358,52.385103]},"properties":{"type":"charge","layer":"passenger","locationId":"35c91eef-0449-45e2-ba31-31d16e8ed206","name":"Sleutelbloem 1","address":"Sleutelbloem 1","city":"Marienheem","operatorName":"Vattenfall InCharge","maxPowerKw":11,"isMegawatt":false,"status":"AVAILABLE","source":"ndw"}},{"type":"Feature","geometry":{"type":"Point","coordinates":[6.293038,52.378696]},"properties":{"type":"charge","layer":"passenger","locationId":"693125d49c5579345b2e6ddc","name":"De Boeierd station","address":"boeierstraat 10","city":"Raalte","operatorName":"E-Flux by Road","maxPowerKw":11,"isMegawatt":false,"status":"AVAILABLE","source":"ndw"}},{"type":"Feature","geometry":{"type":"Point","coordinates":[6.272043,52.383622]},"properties":{"type":"charge","layer":"passenger","locationId":"8e4d2a06-f444-454f-8bcf-b849d9630239","name":"Verheydenstraat 1","address":"Verheydenstraat 1 1","city":"Raalte","operatorName":"Vattenfall InCharge","maxPowerKw":11,"isMegawatt":false,"status":"AVAILABLE","source":"ndw"}},{"type":"Feature","geometry":{"type":"Point","coordinates":[6.281342,52.378887]},"properties":{"type":"charge","layer":"passenger","locationId":"642574bb9f016800127e59f8","name":"Nieuwenhuijse Raalte","address":"Praamstraat 1","city":"Raalte","operatorName":"E-Flux by Road","maxPowerKw":22,"isMegawatt":false,"status":"AVAILABLE","source":"ndw"}},{"type":"Feature","geometry":{"type":"Point","coordinates":[6.270682,52.400214]},"properties":{"type":"charge","layer":"passenger","locationId":"509563de-eef5-4e87-8601-21c7ce16555e","name":"Arkelstein 2","address":"Arkelstein 2","city":"Raalte","operatorName":"Vattenfall InCharge","maxPowerKw":11,"isMegawatt":false,"status":"AVAILABLE","source":"ndw"}},{"type":"Feature","geometry":{"type":"Point","coordinates":[6.394287,52.414277]},"properties":{"type":"charge","layer":"passenger","locationId":"6901fe76615d8e0558f29b7e","name":"A.B.M Rensen 's station","address":"Nieuwe Twentseweg  3","city":"Luttenberg","operatorName":"E-Flux by Road","maxPowerKw":11,"isMegawatt":false,"status":"AVAILABLE","source":"ndw"}},{"type":"Feature","geometry":{"type":"Point","coordinates":[6.288546,52.379395]},"properties":{"type":"charge","layer":"passenger","locationId":"b22832641472e5151f1480ecfa7a9162","name":"Kaagstraat 5a","address":"Kaagstraat 5a","city":"Raalte","operatorName":"Vattenfall InCharge","maxPowerKw":11,"isMegawatt":false,"status":"AVAILABLE","source":"ndw"}},{"type":"Feature","geometry":{"type":"Point","coordinates":[6.2772,52.391077]},"properties":{"type":"charge","layer":"passenger","locationId":"99fdbdd3-7afb-4f3d-8929-dbb29fc0a3a5","name":"Roggestraat","address":"Roggestraat 51","city":"Raalte","operatorName":"Vattenfall InCharge","maxPowerKw":11,"isMegawatt":false,"status":"AVAILABLE","source":"ndw"}},{"type":"Feature","geometry":{"type":"Point","coordinates":[6.272644,52.392958]},"properties":{"type":"charge","layer":"passenger","locationId":"4bbbda1c-6fd3-40c2-ac73-59969df2d86c","name":"Ceintuurbaan","address":"Ceintuurbaan 37","city":"Raalte","operatorName":"Vattenfall InCharge","maxPowerKw":11,"isMegawatt":false,"status":"AVAILABLE","source":"ndw"}},{"type":"Feature","geometry":{"type":"Point","coordinates":[6.288535,52.3944]},"properties":{"type":"charge","layer":"passenger","locationId":"7db4c5b4-fc07-435c-9eb7-103cad3f14dd","name":"Gieteling 34","address":"Gieteling 34","city":"Raalte","operatorName":"Vattenfall InCharge","maxPowerKw":11,"isMegawatt":false,"status":"AVAILABLE","source":"ndw"}},{"type":"Feature","geometry":{"type":"Point","coordinates":[6.290341,52.398446]},"properties":{"type":"charge","layer":"passenger","locationId":"f3c90aca-d5c5-43b9-8565-b31236237c6c","name":"Velduil","address":"Velduil 1","city":"Raalte","operatorName":"Vattenfall InCharge","maxPowerKw":11,"isMegawatt":false,"status":"AVAILABLE","source":"ndw"}},{"type":"Feature","geometry":{"type":"Point","coordinates":[6.271365,52.372718]},"properties":{"type":"charge","layer":"passenger","locationId":"be72d67c-4e80-4fd9-8a15-3df471302529","name":"De Deel","address":"De Deel 32","city":"Raalte","operatorName":"Vattenfall InCharge","maxPowerKw":11,"isMegawatt":false,"status":"AVAILABLE","source":"ndw"}},{"type":"Feature","geometry":{"type":"Point","coordinates":[6.199511,52.363374]},"properties":{"type":"charge","layer":"passenger","locationId":"NLLOC007510","name":"NL, Pereland 10, 8107 BM, Broekland","address":"Pereland 10","city":"Broekland","operatorName":"Allego","maxPowerKw":0,"isMegawatt":false,"status":"AVAILABLE","source":"ndw"}},{"type":"Feature","geometry":{"type":"Point","coordinates":[6.281153,52.335502]},"properties":{"type":"charge","layer":"passenger","locationId":"c349f893-1bbd-4a68-a377-63658dccbf87","name":"Dorpsstraat","address":"Dorpsstraat 4","city":"Heeten","operatorName":"Vattenfall InCharge","maxPowerKw":11,"isMegawatt":false,"status":"AVAILABLE","source":"ndw"}},{"type":"Feature","geometry":{"type":"Point","coordinates":[6.263283,52.374618]},"properties":{"type":"charge","layer":"passenger","locationId":"940ecf98-3cc0-444d-bf18-7334514d5849","name":"Kamille","address":"Kamille 1","city":"Raalte","operatorName":"Vattenfall InCharge","maxPowerKw":11,"isMegawatt":false,"status":"AVAILABLE","source":"ndw"}},{"type":"Feature","geometry":{"type":"Point","coordinates":[6.290435,52.390005]},"properties":{"type":"charge","layer":"passenger","locationId":"NLLOC023953","name":"NL, Lijster 34, 8103 AJ Raalte","address":"Lijster 34","city":"Raalte","operatorName":"Allego","maxPowerKw":0,"isMegawatt":false,"status":"AVAILABLE","source":"ndw"}},{"type":"Feature","geometry":{"type":"Point","coordinates":[6.293999,52.378292]},"properties":{"type":"charge","layer":"passenger","locationId":"4257932","name":"1 Dunlop Protective Footwear B.V.","address":"Boeierstraat 12","city":"Raalte","operatorName":"Laadnet","maxPowerKw":22,"isMegawatt":false,"status":"AVAILABLE","source":"ndw"}},{"type":"Feature","geometry":{"type":"Point","coordinates":[6.285501,52.315017]},"properties":{"type":"charge","layer":"passenger","locationId":"923188","name":"DAE-NL-2001059","address":"Witteveensweg 7","city":"Heeten","operatorName":"DAEN Mobility","maxPowerKw":22,"isMegawatt":false,"status":"CHARGING","source":"ndw"}},{"type":"Feature","geometry":{"type":"Point","coordinates":[6.274053,52.384363]},"properties":{"type":"charge","layer":"passenger","locationId":"837fe104-1af9-4f74-b165-d4a3e0737e0e","name":"Domineeskamp","address":"Domineeskamp 6","city":"Raalte","operatorName":"Vattenfall InCharge","maxPowerKw":11,"isMegawatt":false,"status":"AVAILABLE","source":"ndw"}},{"type":"Feature","geometry":{"type":"Point","coordinates":[6.175535,52.460284]},"properties":{"type":"charge","layer":"passenger","locationId":"6502eb7a689786001c37bda3","name":"Laadpaal M. v/d Bent","address":"Kleine Hagen 5","city":"Laag Zulthem","operatorName":"E-Flux by Road","maxPowerKw":22,"isMegawatt":false,"status":"AVAILABLE","source":"ndw"}},{"type":"Feature","geometry":{"type":"Point","coordinates":[6.263928,52.382873]},"properties":{"type":"charge","layer":"passenger","locationId":"NLLOC019918","name":"NL, Oude Molenweg 74, 8101 EM Raalte","address":"Oude Molenweg 74","city":"Raalte","operatorName":"Allego","maxPowerKw":0,"isMegawatt":false,"status":"AVAILABLE","source":"ndw"}},{"type":"Feature","geometry":{"type":"Point","coordinates":[6.351552,52.320491]},"properties":{"type":"charge","layer":"passenger","locationId":"NLLOC017254","name":"NL, Scholtensstraat 1, 8112AA, Nieuw Heeten","address":"Scholtensstraat 1","city":"Nieuw Heeten","operatorName":"Allego","maxPowerKw":0,"isMegawatt":false,"status":"AVAILABLE","source":"ndw"}},{"type":"Feature","geometry":{"type":"Point","coordinates":[6.279044,52.384769]},"properties":{"type":"charge","layer":"passenger","locationId":"0aa89494-1af7-498c-a8cc-ed3f2f84fba9","name":"Marktstraat ","address":"Marktstraat  65 A","city":"Raalte","operatorName":"Vattenfall InCharge","maxPowerKw":11,"isMegawatt":false,"status":"AVAILABLE","source":"ndw"}},{"type":"Feature","geometry":{"type":"Point","coordinates":[6.373274,52.396453]},"properties":{"type":"charge","layer":"passenger","locationId":"e2fcd98838368f1428896b3e077598ab","name":"Bergweg 5","address":"Bergweg 5","city":"Luttenberg","operatorName":"Vattenfall InCharge","maxPowerKw":11,"isMegawatt":false,"status":"AVAILABLE","source":"ndw"}},{"type":"Feature","geometry":{"type":"Point","coordinates":[6.230738,52.435147]},"properties":{"type":"charge","layer":"passenger","locationId":"c8064c3e-c42e-4724-b2c2-bc62bbbc7e66","name":"Kerkpad 1","address":"Kerkpad 1","city":"Heino","operatorName":"Vattenfall InCharge","maxPowerKw":11,"isMegawatt":false,"status":"AVAILABLE","source":"ndw"}},{"type":"Feature","geometry":{"type":"Point","coordinates":[6.260786,52.386464]},"properties":{"type":"charge","layer":"passenger","locationId":"e38293c53d4b24ec840b492efe47e636","name":"De Gaarden 5","address":"De Gaarden 5","city":"Raalte","operatorName":"Vattenfall InCharge","maxPowerKw":11,"isMegawatt":false,"status":"AVAILABLE","source":"ndw"}},{"type":"Feature","geometry":{"type":"Point","coordinates":[6.287969,52.390627]},"properties":{"type":"charge","layer":"passenger","locationId":"6ef786c8-d125-4e7d-a4f0-97c105e82581","name":"Merel","address":"Merel 29","city":"Raalte","operatorName":"Vattenfall InCharge","maxPowerKw":11,"isMegawatt":false,"status":"AVAILABLE","source":"ndw"}},{"type":"Feature","geometry":{"type":"Point","coordinates":[6.20207,52.364567]},"properties":{"type":"charge","layer":"passenger","locationId":"551eec9b-42ee-43d9-b32c-019d6ce5f84c","name":"Nijboershof","address":"Nijboershof 15","city":"Broekland","operatorName":"Vattenfall InCharge","maxPowerKw":11,"isMegawatt":false,"status":"AVAILABLE","source":"ndw"}},{"type":"Feature","geometry":{"type":"Point","coordinates":[6.271771,52.381949]},"properties":{"type":"charge","layer":"passenger","locationId":"843c17c1-52d9-41bd-a9e1-e2a971ede4ae","name":"Walravenstraat","address":"Walravenstraat 1","city":"Raalte","operatorName":"Vattenfall InCharge","maxPowerKw":11,"isMegawatt":false,"status":"AVAILABLE","source":"ndw"}},{"type":"Feature","geometry":{"type":"Point","coordinates":[6.274874,52.399417]},"properties":{"type":"charge","layer":"passenger","locationId":"c3b99d6b2d9544de441a17e77e3e105a","name":"Rutenberg 1","address":"Rutenberg 1","city":"Raalte","operatorName":"Vattenfall InCharge","maxPowerKw":11,"isMegawatt":false,"status":"AVAILABLE","source":"ndw"}},{"type":"Feature","geometry":{"type":"Point","coordinates":[6.274069,52.386393]},"properties":{"type":"charge","layer":"passenger","locationId":"722c2e37-9079-417d-92a8-0e04988cd4d0","name":"Schouwenhage","address":"Schouwenhage 35","city":"Raalte","operatorName":"Vattenfall InCharge","maxPowerKw":11,"isMegawatt":false,"status":"UNAVAILABLE","source":"ndw"}},{"type":"Feature","geometry":{"type":"Point","coordinates":[6.273956,52.381081]},"properties":{"type":"charge","layer":"passenger","locationId":"f7b00aab-1906-40a5-9e67-1facdd5325c3","name":"Beukensingel","address":"Beukensingel 2","city":"Raalte","operatorName":"Vattenfall InCharge","maxPowerKw":11,"isMegawatt":false,"status":"CHARGING","source":"ndw"}},{"type":"Feature","geometry":{"type":"Point","coordinates":[6.267729,52.389923]},"properties":{"type":"charge","layer":"passenger","locationId":"644ee790a9658c20e03aa90225989468","name":"Hofstedelaan 3","address":"Hofstedelaan 3","city":"Raalte","operatorName":"Vattenfall InCharge","maxPowerKw":11,"isMegawatt":false,"status":"AVAILABLE","source":"ndw"}},{"type":"Feature","geometry":{"type":"Point","coordinates":[6.280234,52.396118]},"properties":{"type":"charge","layer":"passenger","locationId":"c0904bd5-87ed-4a38-a098-4be9e12fed32","name":"Herinckhave","address":"Herinckhave 17","city":"Raalte","operatorName":"Vattenfall InCharge","maxPowerKw":11,"isMegawatt":false,"status":"AVAILABLE","source":"ndw"}},{"type":"Feature","geometry":{"type":"Point","coordinates":[6.256955,52.37704]},"properties":{"type":"charge","layer":"passenger","locationId":"43351de208542dc2886281ffddea70ec","name":"Hammerweg 8 f","address":"Hammerweg 8 f","city":"Raalte","operatorName":"Vattenfall InCharge","maxPowerKw":11,"isMegawatt":false,"status":"AVAILABLE","source":"ndw"}},{"type":"Feature","geometry":{"type":"Point","coordinates":[6.366899,52.408845]},"properties":{"type":"charge","layer":"passenger","locationId":"657e6ce99d38bba462e69c6d23def431","name":"Jagerslaan 55","address":"Jagerslaan 55","city":"Luttenberg","operatorName":"Vattenfall InCharge","maxPowerKw":11,"isMegawatt":false,"status":"AVAILABLE","source":"ndw"}},{"type":"Feature","geometry":{"type":"Point","coordinates":[6.267472,52.399699]},"properties":{"type":"charge","layer":"passenger","locationId":"2e4886e8-2f2d-4dc3-a869-13c5830daac9","name":"Nieuwe Deventerweg","address":"Nieuwe Deventerweg 2","city":"Raalte","operatorName":"Vattenfall InCharge","maxPowerKw":7,"isMegawatt":false,"status":"AVAILABLE","source":"ndw"}},{"type":"Feature","geometry":{"type":"Point","coordinates":[6.283017,52.384293]},"properties":{"type":"charge","layer":"passenger","locationId":"b0adeb46188e1327d344968e0980211f","name":"Steenzolder 13","address":"Steenzolder 13","city":"Raalte","operatorName":"Vattenfall InCharge","maxPowerKw":11,"isMegawatt":false,"status":"AVAILABLE","source":"ndw"}},{"type":"Feature","geometry":{"type":"MultiPolygon","coordinates":[[[[6.162496140377375,52.47438869732056],[6.1700926792394055,52.468922579424046],[6.174485789287011,52.468401563320796],[6.1770595319923105,52.47058153401206],[6.178022543654797,52.470635957795984],[6.186673862116166,52.4684179423458],[6.190950303419535,52.46844125891532],[6.193854487661814,52.468046645243895],[6.196861178249094,52.46854103040137],[6.199747375468517,52.46839693819255],[6.202420357002063,52.46874462546351],[6.206097959786027,52.467592967644464],[6.211419145277849,52.464854846152605],[6.218724400227656,52.464833587243376],[6.236257743734631,52.4656170801099],[6.245413815050549,52.46387526932885],[6.256432030872326,52.462318641936704],[6.267766557693292,52.459511317507946],[6.27823890443067,52.45704346664667],[6.278637717708196,52.44744044752309],[6.289948512910073,52.446445062986655],[6.289316375454864,52.44380825082531],[6.291714155157116,52.43589531725747],[6.291581187141218,52.43588438209681],[6.291825911331556,52.43472173864667],[6.301834736313053,52.43522881129235],[6.302263516841305,52.43144394133713],[6.303720046787131,52.43163337249641],[6.314438803316306,52.433028499471796],[6.318944588918168,52.43206759640723],[6.3285232892424945,52.42805977222842],[6.334331701252547,52.42449150316923],[6.337110080955985,52.42772287949888],[6.343136913514047,52.42597088757263],[6.3433455010776605,52.4253104800748],[6.349579047148876,52.424906023661215],[6.3500579764281015,52.42640766333653],[6.355537650685099,52.42595483164943],[6.356254816516744,52.42910466788355],[6.368319497564327,52.427751968092544],[6.380398966586014,52.427799466477865],[6.380573051395154,52.429816440337575],[6.390315435099695,52.42814480864913],[6.405169845244335,52.41554184897478],[6.401364689008624,52.40632773625732],[6.394470684261399,52.392207023681614],[6.388649291920908,52.3803126737731],[6.3824748441234425,52.38064938950894],[6.357262367752256,52.377030616404255],[6.34308224467151,52.37003197103038],[6.335939304553149,52.35620859770061],[6.33350173320525,52.351398175244334],[6.336206044785307,52.34651590311789],[6.342387644351875,52.3331689926944],[6.350176934780287,52.324062348943954],[6.356015359116919,52.31821846735881],[6.355471536116156,52.31792710009422],[6.341193467600894,52.30907812470657],[6.326529564245166,52.30163116051497],[6.306115713841444,52.300597213858666],[6.267238455662445,52.30080440135171],[6.25564120318385,52.30580333233985],[6.235133569663395,52.31445505265867],[6.235355202766707,52.319820105779435],[6.2355633071036936,52.32845576968486],[6.232483000005874,52.32960702618791],[6.231878792507645,52.33561285139567],[6.235665625326306,52.33990236939062],[6.224235836177743,52.34649652144903],[6.222961769737053,52.34723681378884],[6.196859677130386,52.35211184681125],[6.196213855195133,52.35861360250566],[6.194659221581287,52.35864618277591],[6.191451593882379,52.36119804369934],[6.1889633078916,52.36426595525823],[6.1884996177734095,52.370927262860775],[6.189456797803435,52.375746186462],[6.195468186558398,52.37417533646713],[6.196691371206522,52.372214712248294],[6.200164764712579,52.37112240494646],[6.201338053368197,52.371395049613824],[6.201480832241421,52.37412041331632],[6.200337745343696,52.37500400991549],[6.201960144440387,52.375580635500924],[6.201975587008032,52.37586623007645],[6.203577364085119,52.37826939604253],[6.200826182020916,52.38033594985567],[6.201607731382368,52.38350804477855],[6.2073002367981776,52.38264265559783],[6.207572805550001,52.3838620162244],[6.206521468575718,52.38470597212579],[6.202355526301299,52.385180337831756],[6.203988620972548,52.386899430805556],[6.216404289350788,52.38638822871243],[6.218497159223939,52.38530026395149],[6.220231348031748,52.38636061427976],[6.226821875484313,52.388369919908875],[6.229932542997035,52.38996824337678],[6.230865285357093,52.391914164736974],[6.232120890665723,52.393313219478614],[6.23198965378994,52.394794097819705],[6.230946590712899,52.39819887549001],[6.222080238769294,52.40841763483758],[6.230959211029214,52.42349991881735],[6.209896574916886,52.42531675805165],[6.207648451820098,52.42553917285276],[6.208342636578738,52.42781587613902],[6.206483954525368,52.42820988689459],[6.196552281591982,52.42712166893869],[6.193494347581754,52.42832455355863],[6.192586560549084,52.43096390656524],[6.191058944521719,52.43269019670028],[6.177454019529249,52.43127087729792],[6.174722615031643,52.43359059931117],[6.16128224061461,52.449488402303025],[6.157681585342205,52.453541389835046],[6.154915672038541,52.45318338789831],[6.152286285917532,52.45780379355169],[6.151591830959606,52.46177042722214],[6.147492701543183,52.46573239009865],[6.144146534900879,52.46766511003085],[6.151315373306407,52.47108746830722],[6.152228208335543,52.47083688716595],[6.162496140377375,52.47438869732056]]]]},"properties":{"type":"boundary","gemeente":"Raalte","code":"GM0177"}}]}