{"type":"FeatureCollection","metadata":{"gemeente":"Reusel-De Mierden","slug":"reusel-de-mierden","code":"GM1667","generated_at":"2026-06-07T19:22:09.578Z","total_passenger":28,"total_freight":0,"bounds":[5.0711813312574865,51.31031650962191,5.204697576930302,51.43217416922327],"operators":["Heijmans","Laadnet","Pluq","PowerGo","Vattenfall InCharge"]},"features":[{"type":"Feature","geometry":{"type":"Point","coordinates":[5.142799,51.420261]},"properties":{"type":"charge","layer":"passenger","locationId":"4c715c58-5794-11f0-8a17-42010aa400b8","name":"TopParken - Resort de Brabantse Kempen (PowerGo)","address":"Wellenseind 9","city":"Lage Mierde","operatorName":"PowerGo","maxPowerKw":0,"isMegawatt":false,"status":"AVAILABLE","source":"ndw"}},{"type":"Feature","geometry":{"type":"Point","coordinates":[5.175977,51.3905]},"properties":{"type":"charge","layer":"passenger","locationId":"c3e009730cad38d707991d6dd39eddbf","name":"Hoogendries 11","address":"Hoogendries 11","city":"Hulsel","operatorName":"Vattenfall InCharge","maxPowerKw":11,"isMegawatt":false,"status":"CHARGING","source":"ndw"}},{"type":"Feature","geometry":{"type":"Point","coordinates":[5.142799,51.420261]},"properties":{"type":"charge","layer":"passenger","locationId":"4c715c58-5794-11f0-8a17-42010aa400b8","name":"TopParken - Resort de Brabantse Kempen (PowerGo)","address":"Wellenseind 9","city":"Lage Mierde","operatorName":"PowerGo","maxPowerKw":0,"isMegawatt":false,"status":"AVAILABLE","source":"ndw"}},{"type":"Feature","geometry":{"type":"Point","coordinates":[5.12603,51.38867]},"properties":{"type":"charge","layer":"passenger","locationId":"d6c2dc10-a1b5-420c-b8a0-90d1dec3c62d","name":"Poelshof","address":"Poelshof 21","city":"Hooge Mierde","operatorName":"Vattenfall InCharge","maxPowerKw":11,"isMegawatt":false,"status":"AVAILABLE","source":"ndw"}},{"type":"Feature","geometry":{"type":"Point","coordinates":[5.130954,51.386553]},"properties":{"type":"charge","layer":"passenger","locationId":"53294457-ce0c-4f8f-abc3-8112ff4f81e8","name":"Schoolstraat","address":"Schoolstraat 19","city":"Hooge Mierde","operatorName":"Vattenfall InCharge","maxPowerKw":11,"isMegawatt":false,"status":"AVAILABLE","source":"ndw"}},{"type":"Feature","geometry":{"type":"Point","coordinates":[5.157219,51.417427]},"properties":{"type":"charge","layer":"passenger","locationId":"2684881","name":"Laadnet Ontmoetingscentrum Voor Anker","address":"Dunsedijk 3a","city":"Lage Mierde","operatorName":"Laadnet","maxPowerKw":22,"isMegawatt":false,"status":"UNAVAILABLE","source":"ndw"}},{"type":"Feature","geometry":{"type":"Point","coordinates":[5.17131,51.3681]},"properties":{"type":"charge","layer":"passenger","locationId":"4edfd2a9-06e9-434c-afc7-a16609633a78","name":"Schutsboom","address":"Schutsboom 26","city":"Reusel","operatorName":"Vattenfall InCharge","maxPowerKw":11,"isMegawatt":false,"status":"AVAILABLE","source":"ndw"}},{"type":"Feature","geometry":{"type":"Point","coordinates":[5.128874,51.385978]},"properties":{"type":"charge","layer":"passenger","locationId":"696f4dd42376837cbd596cdb","name":"t Bogtje 8, Hooge Mierde","address":"t Bogtje 8","city":"Hooge Mierde","operatorName":"Heijmans","maxPowerKw":11,"isMegawatt":false,"status":"AVAILABLE","source":"ndw","priceKwh":0.4}},{"type":"Feature","geometry":{"type":"Point","coordinates":[5.171113,51.369478]},"properties":{"type":"charge","layer":"passenger","locationId":"cf0ff107b3bd33eb6ac3d834e759ed89","name":"Ten Einde 13","address":"Ten Einde 13","city":"Reusel","operatorName":"Vattenfall InCharge","maxPowerKw":11,"isMegawatt":false,"status":"AVAILABLE","source":"ndw"}},{"type":"Feature","geometry":{"type":"Point","coordinates":[5.148611,51.408767]},"properties":{"type":"charge","layer":"passenger","locationId":"99b77b9c-01d3-490b-a15b-10313cf2081c","name":"Het Laar","address":"Het Laar 44","city":"Lage Mierde","operatorName":"Vattenfall InCharge","maxPowerKw":11,"isMegawatt":false,"status":"AVAILABLE","source":"ndw"}},{"type":"Feature","geometry":{"type":"Point","coordinates":[5.159017,51.358419]},"properties":{"type":"charge","layer":"passenger","locationId":"07038b07-1084-4848-846a-21ae245336fc","name":"Kremer","address":"Kremer 18","city":"Reusel","operatorName":"Vattenfall InCharge","maxPowerKw":11,"isMegawatt":false,"status":"AVAILABLE","source":"ndw"}},{"type":"Feature","geometry":{"type":"Point","coordinates":[5.17561,51.388484]},"properties":{"type":"charge","layer":"passenger","locationId":"2f1c1f017081a3eb2b62ef119e52ada8","name":"Van Wagenbergstraat 2","address":"Van Wagenbergstraat 2","city":"Hulsel","operatorName":"Vattenfall InCharge","maxPowerKw":11,"isMegawatt":false,"status":"AVAILABLE","source":"ndw"}},{"type":"Feature","geometry":{"type":"Point","coordinates":[5.162091,51.356725]},"properties":{"type":"charge","layer":"passenger","locationId":"9bb78a3c-5340-42d1-864e-ca92a31d73a8","name":"Groeneweg","address":"Groeneweg 27","city":"Reusel","operatorName":"Vattenfall InCharge","maxPowerKw":11,"isMegawatt":false,"status":"AVAILABLE","source":"ndw"}},{"type":"Feature","geometry":{"type":"Point","coordinates":[5.159937,51.365419]},"properties":{"type":"charge","layer":"passenger","locationId":"00bd05a0-4eb2-4cab-b1f0-c0bb5ea793cc","name":"Hoogakker","address":"Hoogakker 17","city":"Reusel","operatorName":"Vattenfall InCharge","maxPowerKw":11,"isMegawatt":false,"status":"AVAILABLE","source":"ndw"}},{"type":"Feature","geometry":{"type":"Point","coordinates":[5.165755,51.357555]},"properties":{"type":"charge","layer":"passenger","locationId":"32114d02-e26d-4d7d-a8de-0299e2675e21","name":"Boegent","address":"Boegent 1","city":"Reusel","operatorName":"Vattenfall InCharge","maxPowerKw":11,"isMegawatt":false,"status":"AVAILABLE","source":"ndw"}},{"type":"Feature","geometry":{"type":"Point","coordinates":[5.146886,51.403192]},"properties":{"type":"charge","layer":"passenger","locationId":"3dbe3b6e53e5ba9ffce85a8e5c5584a3","name":"Roobeemd 1","address":"Roobeemd 1","city":"Lage Mierde","operatorName":"Vattenfall InCharge","maxPowerKw":11,"isMegawatt":false,"status":"AVAILABLE","source":"ndw"}},{"type":"Feature","geometry":{"type":"Point","coordinates":[5.164532,51.359892]},"properties":{"type":"charge","layer":"passenger","locationId":"7ba5abefc5fe9a4a53e6887becc4b29d","name":"Marialaan 59","address":"Marialaan 59","city":"Reusel","operatorName":"Vattenfall InCharge","maxPowerKw":11,"isMegawatt":false,"status":"AVAILABLE","source":"ndw"}},{"type":"Feature","geometry":{"type":"Point","coordinates":[5.142796,51.420311]},"properties":{"type":"charge","layer":"passenger","locationId":"699dcbd8dfd1c83d9320cab0","name":"TP - Resort de Brabantse Kempen","address":"Wellenseind 9","city":"Lage Mierde","operatorName":"Pluq","maxPowerKw":22,"isMegawatt":false,"status":"AVAILABLE","source":"ndw","priceKwh":0.4}},{"type":"Feature","geometry":{"type":"Point","coordinates":[5.158602,51.368964]},"properties":{"type":"charge","layer":"passenger","locationId":"a24d019dfdf5b38904515c13f6148d55","name":"Polderke 18","address":"Polderke 18","city":"Reusel","operatorName":"Vattenfall InCharge","maxPowerKw":11,"isMegawatt":false,"status":"AVAILABLE","source":"ndw"}},{"type":"Feature","geometry":{"type":"Point","coordinates":[5.161258,51.355705]},"properties":{"type":"charge","layer":"passenger","locationId":"4583d6213e6338a2dbc19825483e7e87","name":"Den Dries 15","address":"Den Dries 15","city":"Reusel","operatorName":"Vattenfall InCharge","maxPowerKw":11,"isMegawatt":false,"status":"AVAILABLE","source":"ndw"}},{"type":"Feature","geometry":{"type":"Point","coordinates":[5.128661,51.387199]},"properties":{"type":"charge","layer":"passenger","locationId":"dc928041-37fd-4026-aa8c-96cdd53b464a","name":"Myrthaplein","address":"Myrthaplein 2","city":"Hooge Mierde","operatorName":"Vattenfall InCharge","maxPowerKw":11,"isMegawatt":false,"status":"AVAILABLE","source":"ndw"}},{"type":"Feature","geometry":{"type":"Point","coordinates":[5.174553,51.365654]},"properties":{"type":"charge","layer":"passenger","locationId":"63ff29c3ca3676582d81804f232d6feb","name":"Denestraat 17","address":"Denestraat 17","city":"Reusel","operatorName":"Vattenfall InCharge","maxPowerKw":11,"isMegawatt":false,"status":"AVAILABLE","source":"ndw"}},{"type":"Feature","geometry":{"type":"Point","coordinates":[5.145014,51.406908]},"properties":{"type":"charge","layer":"passenger","locationId":"15d20627-1d91-4acc-a2b3-705ba7e3562b","name":"Broekkant","address":"Broekkant 38","city":"Lage Mierde","operatorName":"Vattenfall InCharge","maxPowerKw":11,"isMegawatt":false,"status":"UNAVAILABLE","source":"ndw"}},{"type":"Feature","geometry":{"type":"Point","coordinates":[5.174655,51.365684]},"properties":{"type":"charge","layer":"passenger","locationId":"db557882-6f36-4bf1-9ac9-0a368f98aa2e","name":"Lange Voren","address":"Lange Voren 46","city":"Reusel","operatorName":"Vattenfall InCharge","maxPowerKw":11,"isMegawatt":false,"status":"AVAILABLE","source":"ndw"}},{"type":"Feature","geometry":{"type":"Point","coordinates":[5.173128,51.360421]},"properties":{"type":"charge","layer":"passenger","locationId":"a1d808260e98525de6d4cd05d3e838e3","name":"Blokekker 65","address":"Blokekker 65","city":"Reusel","operatorName":"Vattenfall InCharge","maxPowerKw":11,"isMegawatt":false,"status":"AVAILABLE","source":"ndw"}},{"type":"Feature","geometry":{"type":"Point","coordinates":[5.128237,51.389838]},"properties":{"type":"charge","layer":"passenger","locationId":"cc0070e0-1aa8-49a8-9308-8019d08bbe9f","name":"Leendestraat","address":"Leendestraat 5","city":"Hooge Mierde","operatorName":"Vattenfall InCharge","maxPowerKw":11,"isMegawatt":false,"status":"AVAILABLE","source":"ndw"}},{"type":"Feature","geometry":{"type":"Point","coordinates":[5.165869,51.367789]},"properties":{"type":"charge","layer":"passenger","locationId":"3cc1b866b1684ce658ae40e9834ff617","name":"De Kuil 4","address":"De Kuil 4","city":"Reusel","operatorName":"Vattenfall InCharge","maxPowerKw":11,"isMegawatt":false,"status":"AVAILABLE","source":"ndw"}},{"type":"Feature","geometry":{"type":"Point","coordinates":[5.168927,51.362515]},"properties":{"type":"charge","layer":"passenger","locationId":"2fd079435899a629a2683fa0ef0fb31d","name":"Wilhelminalaan 81D","address":"Wilhelminalaan 81D","city":"Reusel","operatorName":"Vattenfall InCharge","maxPowerKw":11,"isMegawatt":false,"status":"AVAILABLE","source":"ndw"}},{"type":"Feature","geometry":{"type":"MultiPolygon","coordinates":[[[[5.170765070658849,51.42973299504489],[5.1734577771129775,51.428240131100964],[5.1781529438434655,51.430260934230986],[5.184980199199877,51.42876393313779],[5.1901818655420575,51.430112304266764],[5.1910193877286,51.43021572710834],[5.190850974773345,51.41821077095843],[5.194748870455729,51.39995510979717],[5.199920552105414,51.39170730932529],[5.200958897962788,51.390065853625046],[5.1974021620611675,51.38401776743024],[5.199268394353882,51.382307984412094],[5.193013792767259,51.37826397240795],[5.188508003732791,51.3776203461761],[5.18798736505854,51.37451303270553],[5.185414285649496,51.37584065309184],[5.183215397454965,51.375786030718196],[5.18434667552266,51.37476309331724],[5.190658728087027,51.37190496779416],[5.192101519080328,51.36676922851386],[5.190604472079942,51.36622665477737],[5.1921376478165575,51.36479660225289],[5.19742269969358,51.362724577813395],[5.195391473376121,51.362291377683874],[5.196424449251109,51.361587151901844],[5.191942246203437,51.361467764717325],[5.191913348367974,51.356273650997345],[5.192339151448961,51.350737314421586],[5.194494220660881,51.35107540972721],[5.196292586915424,51.34984201804314],[5.196068321003605,51.34799559631572],[5.193865015095343,51.34522599405434],[5.204697576930302,51.325438358284856],[5.200254898111748,51.32266107956677],[5.19656459053186,51.320359108778256],[5.190556140330672,51.32007003227382],[5.173062696061986,51.315771536929304],[5.162639734652881,51.31031650962191],[5.134353219981445,51.31550038439676],[5.131710781155986,51.34677444262657],[5.1262824214811,51.35022833549811],[5.1194016144810375,51.35563960500153],[5.116570199918031,51.36111794254878],[5.0711813312574865,51.393487415009574],[5.095455963778622,51.422500602992024],[5.102020065028805,51.428922654082996],[5.119458625920564,51.42827476042716],[5.152499293750855,51.428968466840615],[5.153211012051682,51.428354240692094],[5.157947723274363,51.42883077338051],[5.158552674154031,51.43217416922327],[5.170765070658849,51.42973299504489]]]]},"properties":{"type":"boundary","gemeente":"Reusel-De Mierden","code":"GM1667"}}]}