{"type":"FeatureCollection","metadata":{"gemeente":"Rhenen","slug":"rhenen","code":"GM0340","generated_at":"2026-06-02T13:19:22.438Z","total_passenger":72,"total_freight":0,"bounds":[5.477664050955791,51.94312468990061,5.627308699285775,52.01851603404941],"operators":["Allego","Eneco","Opcharge","Pluq","Shell Recharge","TotalEnergies","Ubitricity","Vattenfall InCharge"]},"features":[{"type":"Feature","geometry":{"type":"Point","coordinates":[5.529929,51.972485]},"properties":{"type":"charge","layer":"passenger","locationId":"591a1d10-d48e-11f0-90bf-42010aa400b8","name":"Shell Recharge Tasveld 38","address":"Tasveld 38","city":"Rhenen","operatorName":"Shell Recharge","maxPowerKw":50,"isMegawatt":false,"status":"AVAILABLE","source":"ndw"}},{"type":"Feature","geometry":{"type":"Point","coordinates":[5.582185,51.959606]},"properties":{"type":"charge","layer":"passenger","locationId":"3d7c55a0-98d1-45bf-a265-81b1321bd6da","name":"TNLP034101","address":"Van Abcoudehof 56","city":"Rhenen","operatorName":"TotalEnergies","maxPowerKw":14,"isMegawatt":false,"status":"AVAILABLE","source":"ndw"}},{"type":"Feature","geometry":{"type":"Point","coordinates":[5.568659,51.959015]},"properties":{"type":"charge","layer":"passenger","locationId":"60b42f3c-bcd9-11ec-9b20-42010a84006e","name":"TNLP007145","address":"Molenstraat 41","city":"Rhenen","operatorName":"TotalEnergies","maxPowerKw":17,"isMegawatt":false,"status":"AVAILABLE","source":"ndw"}},{"type":"Feature","geometry":{"type":"Point","coordinates":[5.4971661,51.9888522]},"properties":{"type":"charge","layer":"passenger","locationId":"2123","name":"Shell Recharge NL De Klamp 27","address":"De Klamp 27","city":"Elst Ut","operatorName":"Ubitricity","maxPowerKw":22,"isMegawatt":false,"status":"CHARGING","source":"ndw"}},{"type":"Feature","geometry":{"type":"Point","coordinates":[5.565726,51.961527]},"properties":{"type":"charge","layer":"passenger","locationId":"853cd02a-4f3c-11e8-a6f4-42010a840002","name":"NLD, Rhenen, Groeneweg 58","address":"Groeneweg 58","city":"Rhenen","operatorName":"Allego","maxPowerKw":0,"isMegawatt":false,"status":"UNAVAILABLE","source":"ndw"}},{"type":"Feature","geometry":{"type":"Point","coordinates":[5.499341,51.98533]},"properties":{"type":"charge","layer":"passenger","locationId":"b3e034e8-ce88-11eb-919c-42010a840030","name":"TNLP006327","address":"Nassaustraat 1","city":"Elst","operatorName":"TotalEnergies","maxPowerKw":17,"isMegawatt":false,"status":"AVAILABLE","source":"ndw"}},{"type":"Feature","geometry":{"type":"Point","coordinates":[5.529929,51.972485]},"properties":{"type":"charge","layer":"passenger","locationId":"5221","name":"Shell Recharge NL9303 - Karwei Rhenen","address":"Tasveld 38","city":"Rhenen","operatorName":"Shell Recharge","maxPowerKw":50,"isMegawatt":false,"status":"AVAILABLE","source":"ndw"}},{"type":"Feature","geometry":{"type":"Point","coordinates":[5.568711,51.956648]},"properties":{"type":"charge","layer":"passenger","locationId":"688a8dbc-c902-11eb-88a1-42010a840009","name":"TNLP006309","address":"Bontekoestraat 3","city":"Rhenen","operatorName":"TotalEnergies","maxPowerKw":17,"isMegawatt":false,"status":"CHARGING","source":"ndw"}},{"type":"Feature","geometry":{"type":"Point","coordinates":[5.570133,51.961202]},"properties":{"type":"charge","layer":"passenger","locationId":"bf1bb4e6-1596-11f0-bb60-42010aa400b8","name":"Shell Recharge NL Prunuslaan 1, Rhenen, [AN null]","address":"Prunuslaan 1","city":"Rhenen","operatorName":"Ubitricity","maxPowerKw":22,"isMegawatt":false,"status":"AVAILABLE","source":"ndw"}},{"type":"Feature","geometry":{"type":"Point","coordinates":[5.58609,51.973155]},"properties":{"type":"charge","layer":"passenger","locationId":"NLLOC004253","name":"NLD Achterbergsestraatweg 184a, 3911 CX Rhenen","address":"Achterbergsestraatweg 184a","city":"Rhenen","operatorName":"Allego","maxPowerKw":0,"isMegawatt":false,"status":"AVAILABLE","source":"ndw"}},{"type":"Feature","geometry":{"type":"Point","coordinates":[5.578193,51.957819]},"properties":{"type":"charge","layer":"passenger","locationId":"b9388a78-af76-11e8-a52c-42010a840002","name":"Eneco eMobility NS Stationsplein 1 Rhenen","address":"Stationsplein 1","city":"Rhenen","operatorName":"Eneco","maxPowerKw":0,"isMegawatt":false,"status":"AVAILABLE","source":"ndw"}},{"type":"Feature","geometry":{"type":"Point","coordinates":[5.56327,51.965992]},"properties":{"type":"charge","layer":"passenger","locationId":"b033f5ec-4f3c-11e8-b265-42010a840002","name":"NLD, Rhenen, De Toltoren 27","address":"De Toltoren 27","city":"Rhenen","operatorName":"Allego","maxPowerKw":0,"isMegawatt":false,"status":"AVAILABLE","source":"ndw"}},{"type":"Feature","geometry":{"type":"Point","coordinates":[5.561015,51.96188]},"properties":{"type":"charge","layer":"passenger","locationId":"179dbc40-aed0-11f0-b348-42010aa400b8","name":"TNLP007175","address":"Donderberg 43","city":"Rhenen","operatorName":"TotalEnergies","maxPowerKw":17,"isMegawatt":false,"status":"AVAILABLE","source":"ndw"}},{"type":"Feature","geometry":{"type":"Point","coordinates":[5.568322,51.956814]},"properties":{"type":"charge","layer":"passenger","locationId":"aa6aba3a-70f5-11e8-94a1-42010a840002","name":"NLD, Rhenen, Buitenomme 8, 3911 AE","address":"Buitenomme 8","city":"Rhenen","operatorName":"Allego","maxPowerKw":0,"isMegawatt":false,"status":"AVAILABLE","source":"ndw"}},{"type":"Feature","geometry":{"type":"Point","coordinates":[5.565344,51.956187]},"properties":{"type":"charge","layer":"passenger","locationId":"0c9b4dee-1c44-11ec-b081-42010a84002c","name":"TNLP006590","address":"Rijnstraat 20","city":"Rhenen","operatorName":"TotalEnergies","maxPowerKw":17,"isMegawatt":false,"status":"AVAILABLE","source":"ndw"}},{"type":"Feature","geometry":{"type":"Point","coordinates":[5.57202,51.965551]},"properties":{"type":"charge","layer":"passenger","locationId":"91d00320-d54e-11f0-b376-42010aa400b8","name":"TNLP008154","address":"Papaverstraat 1G","city":"Rhenen","operatorName":"TotalEnergies","maxPowerKw":17,"isMegawatt":false,"status":"AVAILABLE","source":"ndw"}},{"type":"Feature","geometry":{"type":"Point","coordinates":[5.592034,51.956137]},"properties":{"type":"charge","layer":"passenger","locationId":"d9ba75aa104c4696a72747b924885f73","name":"Ouwehands Dierenpark Rhenen","address":"Grebbeweg 111","city":"Rhenen","operatorName":"Opcharge","maxPowerKw":22,"isMegawatt":false,"status":"AVAILABLE","source":"ndw"}},{"type":"Feature","geometry":{"type":"Point","coordinates":[5.563933,51.957841]},"properties":{"type":"charge","layer":"passenger","locationId":"982357be-9808-11f0-b160-42010aa400b8","name":"Shell Recharge NL Frederik van de Paltshof 8, Rhenen","address":"Frederik van de Paltshof 8","city":"Rhenen","operatorName":"Ubitricity","maxPowerKw":22,"isMegawatt":false,"status":"AVAILABLE","source":"ndw"}},{"type":"Feature","geometry":{"type":"Point","coordinates":[5.58068,51.956023]},"properties":{"type":"charge","layer":"passenger","locationId":"40320be2-ca4c-11f0-aa5a-42010aa400b8","name":"TNLP008491","address":"Majoor Landzaatweg 44","city":"Rhenen","operatorName":"TotalEnergies","maxPowerKw":14,"isMegawatt":false,"status":"AVAILABLE","source":"ndw"}},{"type":"Feature","geometry":{"type":"Point","coordinates":[5.5719137,51.9583367]},"properties":{"type":"charge","layer":"passenger","locationId":"2807","name":"Shell Recharge NL Achterbergsestraatweg 8","address":"Achterbergsestraatweg 8","city":"Rhenen","operatorName":"Ubitricity","maxPowerKw":22,"isMegawatt":false,"status":"AVAILABLE","source":"ndw"}},{"type":"Feature","geometry":{"type":"Point","coordinates":[5.58609,51.973155]},"properties":{"type":"charge","layer":"passenger","locationId":"09c98b16-8e30-11e9-9597-42010a840003","name":"NLD Achterbergsestraatweg 184a, 3911 CX Rhenen","address":"Achterbergsestraatweg 184a","city":"Rhenen","operatorName":"Allego","maxPowerKw":0,"isMegawatt":false,"status":"AVAILABLE","source":"ndw"}},{"type":"Feature","geometry":{"type":"Point","coordinates":[5.58011,51.954536]},"properties":{"type":"charge","layer":"passenger","locationId":"51d20036-96fa-11ea-afcc-42010a840003","name":"NL, Zanglijster 103, 3911er, Rhenen","address":"Zanglijster 103","city":"Rhenen","operatorName":"Allego","maxPowerKw":0,"isMegawatt":false,"status":"AVAILABLE","source":"ndw"}},{"type":"Feature","geometry":{"type":"Point","coordinates":[5.568711,51.956648]},"properties":{"type":"charge","layer":"passenger","locationId":"aa6aba3a-70f5-11e8-94a1-42010a840002","name":"TNLP006309","address":"Bontekoestraat 3","city":"Rhenen","operatorName":"TotalEnergies","maxPowerKw":17,"isMegawatt":false,"status":"CHARGING","source":"ndw"}},{"type":"Feature","geometry":{"type":"Point","coordinates":[5.573709,51.963647]},"properties":{"type":"charge","layer":"passenger","locationId":"f6f95b50-9c54-11e9-b438-42010a840003","name":"NLD, Verlengde Acacialaan 41, 3911 GA Rhenen","address":"Verlengde Acacialaan 41","city":"Rhenen","operatorName":"Allego","maxPowerKw":0,"isMegawatt":false,"status":"AVAILABLE","source":"ndw"}},{"type":"Feature","geometry":{"type":"Point","coordinates":[5.49607,51.985811]},"properties":{"type":"charge","layer":"passenger","locationId":"29aac6ec-0285-11ea-b19d-42010a840003","name":"NLD, Schoolweg 19, Elst","address":"Schoolweg 19","city":"Elst","operatorName":"Allego","maxPowerKw":0,"isMegawatt":false,"status":"AVAILABLE","source":"ndw"}},{"type":"Feature","geometry":{"type":"Point","coordinates":[5.570429,51.968008]},"properties":{"type":"charge","layer":"passenger","locationId":"4129e6d4-ba3e-11ee-b408-42010aa40fc0","name":"TNLP008466","address":"Beukenlaan 38","city":"Rhenen","operatorName":"TotalEnergies","maxPowerKw":14,"isMegawatt":false,"status":"AVAILABLE","source":"ndw"}},{"type":"Feature","geometry":{"type":"Point","coordinates":[5.572638,51.966119]},"properties":{"type":"charge","layer":"passenger","locationId":"9a61c2fc-005c-11f0-8ce6-42010aa400b8","name":"TNLP015192","address":"Korenbloemstraat 93","city":"Rhenen","operatorName":"TotalEnergies","maxPowerKw":17,"isMegawatt":false,"status":"AVAILABLE","source":"ndw"}},{"type":"Feature","geometry":{"type":"Point","coordinates":[5.567875,51.967814]},"properties":{"type":"charge","layer":"passenger","locationId":"7cd5289c-78f8-11e9-b8be-42010a840003","name":"NLD Asterstraat 19, 3911 WE Rhenen","address":"Asterstraat 19","city":"Rhenen","operatorName":"Allego","maxPowerKw":0,"isMegawatt":false,"status":"AVAILABLE","source":"ndw"}},{"type":"Feature","geometry":{"type":"Point","coordinates":[5.56251,51.963063]},"properties":{"type":"charge","layer":"passenger","locationId":"7cecb0f2-78f8-11e9-bde7-42010a840003","name":"NLD Van Bentheimhof 39, 3911 JM Rhenen","address":"Van bentheimhof 39","city":"Rhenen","operatorName":"Allego","maxPowerKw":0,"isMegawatt":false,"status":"AVAILABLE","source":"ndw"}},{"type":"Feature","geometry":{"type":"Point","coordinates":[5.568659,51.959015]},"properties":{"type":"charge","layer":"passenger","locationId":"135f4a9a-c33e-11f0-ab31-42010aa400b8","name":"TNLP007145","address":"Molenstraat 41","city":"Rhenen","operatorName":"TotalEnergies","maxPowerKw":17,"isMegawatt":false,"status":"AVAILABLE","source":"ndw"}},{"type":"Feature","geometry":{"type":"Point","coordinates":[5.578406,51.954603]},"properties":{"type":"charge","layer":"passenger","locationId":"7bfd42f0-79cb-11ee-8cfc-42010aa40fc0","name":"TNLP008415","address":"Zanglijster 56","city":"Rhenen","operatorName":"TotalEnergies","maxPowerKw":14,"isMegawatt":false,"status":"AVAILABLE","source":"ndw"}},{"type":"Feature","geometry":{"type":"Point","coordinates":[5.495859,51.987683]},"properties":{"type":"charge","layer":"passenger","locationId":"a1adfc6e-71f2-11ee-8a34-42010aa40fc0","name":"TNLP008309","address":"Tabaksweg 20","city":"Elst","operatorName":"TotalEnergies","maxPowerKw":14,"isMegawatt":false,"status":"AVAILABLE","source":"ndw"}},{"type":"Feature","geometry":{"type":"Point","coordinates":[5.563202,51.957844]},"properties":{"type":"charge","layer":"passenger","locationId":"856d6096-4f3c-11e8-ac39-42010a840002","name":"NLD, Rhenen, Koningshof 24","address":"Koningshof 24","city":"Rhenen","operatorName":"Allego","maxPowerKw":0,"isMegawatt":false,"status":"AVAILABLE","source":"ndw"}},{"type":"Feature","geometry":{"type":"Point","coordinates":[5.584149,51.972649]},"properties":{"type":"charge","layer":"passenger","locationId":"06a35a5c-cc51-11ee-8549-42010aa40fc0","name":"TNLP008556","address":"Stuivenes 33","city":"Rhenen","operatorName":"TotalEnergies","maxPowerKw":14,"isMegawatt":false,"status":"AVAILABLE","source":"ndw"}},{"type":"Feature","geometry":{"type":"Point","coordinates":[5.564292,51.964711]},"properties":{"type":"charge","layer":"passenger","locationId":"a51d1e3a-2b2b-11ec-a12c-42010a840003","name":"TNLP006531","address":"Koerheuvelweg 9","city":"Rhenen","operatorName":"TotalEnergies","maxPowerKw":17,"isMegawatt":false,"status":"AVAILABLE","source":"ndw"}},{"type":"Feature","geometry":{"type":"Point","coordinates":[5.497543,51.987889]},"properties":{"type":"charge","layer":"passenger","locationId":"7d4a82cc-3436-11eb-853f-42010a840003","name":"NL, Kleingeel 3, 3921 EM, Elst","address":"Kleingeel 3","city":"Elst, gem Rhenen","operatorName":"Allego","maxPowerKw":0,"isMegawatt":false,"status":"AVAILABLE","source":"ndw"}},{"type":"Feature","geometry":{"type":"Point","coordinates":[5.5701326,51.9612015]},"properties":{"type":"charge","layer":"passenger","locationId":"901","name":"Shell Recharge NL Prunuslaan 1","address":"Prunuslaan 1","city":"Rhenen","operatorName":"Ubitricity","maxPowerKw":22,"isMegawatt":false,"status":"AVAILABLE","source":"ndw"}},{"type":"Feature","geometry":{"type":"Point","coordinates":[5.49607,51.985811]},"properties":{"type":"charge","layer":"passenger","locationId":"NLLOC005481","name":"NLD, Schoolweg 19, Elst","address":"Schoolweg 19","city":"Elst","operatorName":"Allego","maxPowerKw":0,"isMegawatt":false,"status":"AVAILABLE","source":"ndw"}},{"type":"Feature","geometry":{"type":"Point","coordinates":[5.565778,51.958982]},"properties":{"type":"charge","layer":"passenger","locationId":"c7ec3738-6034-11eb-a4cb-42010a840003","name":"NL, Grutterstraat 17, 3911KV, Rhenen","address":"Grutterstraat 17","city":"Rhenen","operatorName":"Allego","maxPowerKw":0,"isMegawatt":false,"status":"AVAILABLE","source":"ndw"}},{"type":"Feature","geometry":{"type":"Point","coordinates":[5.566051,51.962215]},"properties":{"type":"charge","layer":"passenger","locationId":"3da0f551-73b5-4ab2-8a0c-adc6d06a5954","name":"TNLP034369","address":"Groeneweg 58","city":"Rhenen","operatorName":"TotalEnergies","maxPowerKw":14,"isMegawatt":false,"status":"AVAILABLE","source":"ndw"}},{"type":"Feature","geometry":{"type":"Point","coordinates":[5.582185,51.959606]},"properties":{"type":"charge","layer":"passenger","locationId":"9fc5ca9c-9286-11f0-a777-42010aa400b8","name":"TNLP034101","address":"Van Abcoudehof 56","city":"Rhenen","operatorName":"TotalEnergies","maxPowerKw":14,"isMegawatt":false,"status":"AVAILABLE","source":"ndw"}},{"type":"Feature","geometry":{"type":"Point","coordinates":[5.573903,51.95723]},"properties":{"type":"charge","layer":"passenger","locationId":"cf8ecfe4-6d5f-11ec-971b-42010a84002a","name":"TNLP006801","address":"Stationsweg 2","city":"Rhenen","operatorName":"TotalEnergies","maxPowerKw":17,"isMegawatt":false,"status":"AVAILABLE","source":"ndw"}},{"type":"Feature","geometry":{"type":"Point","coordinates":[5.573885,51.965094]},"properties":{"type":"charge","layer":"passenger","locationId":"1b304584-7904-11ee-9cb3-42010aa40fc0","name":"TNLP008428","address":"Anjerlaan 1","city":"Rhenen","operatorName":"TotalEnergies","maxPowerKw":14,"isMegawatt":false,"status":"CHARGING","source":"ndw"}},{"type":"Feature","geometry":{"type":"Point","coordinates":[5.565979,51.962205]},"properties":{"type":"charge","layer":"passenger","locationId":"ae82196c-50fc-11f0-8cc3-42010aa400b8","name":"TNLP034150","address":"Groeneweg 58","city":"Rhenen","operatorName":"TotalEnergies","maxPowerKw":14,"isMegawatt":false,"status":"AVAILABLE","source":"ndw"}},{"type":"Feature","geometry":{"type":"Point","coordinates":[5.570689,51.957499]},"properties":{"type":"charge","layer":"passenger","locationId":"eeb4e022-6d38-11ee-a1f8-42010aa40fc0","name":"TNLP008389","address":"Achterbergsestraatweg 1a","city":"Rhenen","operatorName":"TotalEnergies","maxPowerKw":14,"isMegawatt":false,"status":"UNAVAILABLE","source":"ndw"}},{"type":"Feature","geometry":{"type":"Point","coordinates":[5.57805,51.964117]},"properties":{"type":"charge","layer":"passenger","locationId":"d6275236-7a6a-11ed-bb48-42010aa40fc0","name":"TNLP007828","address":"Ribeslaan 1","city":"Rhenen","operatorName":"TotalEnergies","maxPowerKw":17,"isMegawatt":false,"status":"AVAILABLE","source":"ndw"}},{"type":"Feature","geometry":{"type":"Point","coordinates":[5.504789,51.984245]},"properties":{"type":"charge","layer":"passenger","locationId":"6bdf65b8-8529-11f0-ad08-42010aa400b8","name":"TNLP008438","address":"Heideweg 74","city":"Elst","operatorName":"TotalEnergies","maxPowerKw":14,"isMegawatt":false,"status":"AVAILABLE","source":"ndw"}},{"type":"Feature","geometry":{"type":"Point","coordinates":[5.562948,51.960793]},"properties":{"type":"charge","layer":"passenger","locationId":"b3ea278c-ce88-11eb-8663-42010a840030","name":"TNLP006329","address":"Teldersweg 99","city":"Rhenen","operatorName":"TotalEnergies","maxPowerKw":17,"isMegawatt":false,"status":"AVAILABLE","source":"ndw"}},{"type":"Feature","geometry":{"type":"Point","coordinates":[5.581676,51.955032]},"properties":{"type":"charge","layer":"passenger","locationId":"5edaedf0-c7f1-11f0-b459-42010aa400b8","name":"TNLP008157","address":"Zanglijster 130","city":"Rhenen","operatorName":"TotalEnergies","maxPowerKw":17,"isMegawatt":false,"status":"AVAILABLE","source":"ndw"}},{"type":"Feature","geometry":{"type":"Point","coordinates":[5.58011,51.954536]},"properties":{"type":"charge","layer":"passenger","locationId":"NLLOC006880","name":"NL, Zanglijster 103, 3911er, Rhenen","address":"Zanglijster 103","city":"Rhenen","operatorName":"Allego","maxPowerKw":0,"isMegawatt":false,"status":"AVAILABLE","source":"ndw"}},{"type":"Feature","geometry":{"type":"Point","coordinates":[5.578193,51.957819]},"properties":{"type":"charge","layer":"passenger","locationId":"D2860FDF-3F99-4410-989A-4B7C9C6B269D","name":"Eneco eMobility NS Stationsplein 1 Rhenen","address":"Stationsplein 1","city":"Rhenen","operatorName":"Eneco","maxPowerKw":0,"isMegawatt":false,"status":"AVAILABLE","source":"ndw"}},{"type":"Feature","geometry":{"type":"Point","coordinates":[5.567875,51.967814]},"properties":{"type":"charge","layer":"passenger","locationId":"NLLOC004056","name":"NLD Asterstraat 19, 3911 WE Rhenen","address":"Asterstraat 19","city":"Rhenen","operatorName":"Allego","maxPowerKw":0,"isMegawatt":false,"status":"AVAILABLE","source":"ndw"}},{"type":"Feature","geometry":{"type":"Point","coordinates":[5.565778,51.958982]},"properties":{"type":"charge","layer":"passenger","locationId":"NLLOC008617","name":"NL, Grutterstraat 17, 3911KV, Rhenen","address":"Grutterstraat 17","city":"Rhenen","operatorName":"Allego","maxPowerKw":0,"isMegawatt":false,"status":"AVAILABLE","source":"ndw"}},{"type":"Feature","geometry":{"type":"Point","coordinates":[5.565726,51.961527]},"properties":{"type":"charge","layer":"passenger","locationId":"NLLOC001969","name":"NLD, Rhenen, Groeneweg 58","address":"Groeneweg 58","city":"Rhenen","operatorName":"Allego","maxPowerKw":0,"isMegawatt":false,"status":"UNAVAILABLE","source":"ndw"}},{"type":"Feature","geometry":{"type":"Point","coordinates":[5.569113,51.966655]},"properties":{"type":"charge","layer":"passenger","locationId":"fdf87ada-fa5e-4d86-86d0-39c30f77ca06","name":"TNLP034367","address":"Petuniastraat 13","city":"Rhenen","operatorName":"TotalEnergies","maxPowerKw":14,"isMegawatt":false,"status":"AVAILABLE","source":"ndw"}},{"type":"Feature","geometry":{"type":"Point","coordinates":[5.572638,51.966119]},"properties":{"type":"charge","layer":"passenger","locationId":"b3da1363-afb4-424f-93ad-4ec1fd57d75a","name":"TNLP015192","address":"Korenbloemstraat 93","city":"Rhenen","operatorName":"TotalEnergies","maxPowerKw":17,"isMegawatt":false,"status":"AVAILABLE","source":"ndw"}},{"type":"Feature","geometry":{"type":"Point","coordinates":[5.53964,52.006103]},"properties":{"type":"charge","layer":"passenger","locationId":"66dab337d0d381001cd1cc35","name":"Restaurant & Lounge bar 3 Zussen Rhenen B.V.","address":"Kerkewijk 115","city":"Rhenen","operatorName":"Pluq","maxPowerKw":22,"isMegawatt":false,"status":"AVAILABLE","source":"ndw"}},{"type":"Feature","geometry":{"type":"Point","coordinates":[5.497313,51.986805]},"properties":{"type":"charge","layer":"passenger","locationId":"86df1f2aed14420369b1112ef85b70cd","name":"Schoolweg 59","address":"Schoolweg 59","city":"Elst Ut","operatorName":"Vattenfall InCharge","maxPowerKw":11,"isMegawatt":false,"status":"AVAILABLE","source":"ndw"}},{"type":"Feature","geometry":{"type":"Point","coordinates":[5.537513,51.970673]},"properties":{"type":"charge","layer":"passenger","locationId":"A7563936-10C2-4F97-B337-3ACAE07F63D5","name":"Eneco eMobility Remmerden 5 Rhenen","address":"Remmerden 5","city":"Rhenen","operatorName":"Eneco","maxPowerKw":0,"isMegawatt":false,"status":"UNAVAILABLE","source":"ndw"}},{"type":"Feature","geometry":{"type":"Point","coordinates":[5.574861,51.962794]},"properties":{"type":"charge","layer":"passenger","locationId":"cc79e659-dd18-4fa2-9d01-23f456ec3b6b","name":"TNLP034364","address":"Lijsterberg 72","city":"Rhenen","operatorName":"TotalEnergies","maxPowerKw":14,"isMegawatt":false,"status":"AVAILABLE","source":"ndw"}},{"type":"Feature","geometry":{"type":"Point","coordinates":[5.5663,51.962247]},"properties":{"type":"charge","layer":"passenger","locationId":"5425a725-6081-4acf-9c79-45d6a1918684","name":"TNLP034374","address":"Groeneweg 58","city":"Rhenen","operatorName":"TotalEnergies","maxPowerKw":14,"isMegawatt":false,"status":"AVAILABLE","source":"ndw"}},{"type":"Feature","geometry":{"type":"Point","coordinates":[5.5055421,51.9858701]},"properties":{"type":"charge","layer":"passenger","locationId":"1971","name":"Shell Recharge NL Koninginneweg 50","address":"Koninginneweg 50","city":"Elst Ut","operatorName":"Ubitricity","maxPowerKw":22,"isMegawatt":false,"status":"AVAILABLE","source":"ndw"}},{"type":"Feature","geometry":{"type":"Point","coordinates":[5.5639333,51.9578411]},"properties":{"type":"charge","layer":"passenger","locationId":"1840","name":"Shell Recharge NL Frederik van de Paltshof 8","address":"Frederik van de Paltshof 8","city":"Rhenen","operatorName":"Ubitricity","maxPowerKw":22,"isMegawatt":false,"status":"AVAILABLE","source":"ndw"}},{"type":"Feature","geometry":{"type":"Point","coordinates":[5.56251,51.963063]},"properties":{"type":"charge","layer":"passenger","locationId":"NLLOC004058","name":"NLD Van Bentheimhof 39, 3911 JM Rhenen","address":"Van bentheimhof 39","city":"Rhenen","operatorName":"Allego","maxPowerKw":0,"isMegawatt":false,"status":"AVAILABLE","source":"ndw"}},{"type":"Feature","geometry":{"type":"Point","coordinates":[5.497543,51.987889]},"properties":{"type":"charge","layer":"passenger","locationId":"NLLOC009558","name":"NL, Kleingeel 3, 3921 EM, Elst","address":"Kleingeel 3","city":"Elst, gem Rhenen","operatorName":"Allego","maxPowerKw":0,"isMegawatt":false,"status":"AVAILABLE","source":"ndw"}},{"type":"Feature","geometry":{"type":"Point","coordinates":[5.607218,51.955347]},"properties":{"type":"charge","layer":"passenger","locationId":"66d9a2775c52bb001c27aa92","name":"Villa Grebbeoord","address":"Grebbeweg 160","city":"Rhenen","operatorName":"Pluq","maxPowerKw":22,"isMegawatt":false,"status":"AVAILABLE","source":"ndw"}},{"type":"Feature","geometry":{"type":"Point","coordinates":[5.563202,51.957844]},"properties":{"type":"charge","layer":"passenger","locationId":"NLLOC001968","name":"NLD, Rhenen, Koningshof 24","address":"Koningshof 24","city":"Rhenen","operatorName":"Allego","maxPowerKw":0,"isMegawatt":false,"status":"AVAILABLE","source":"ndw"}},{"type":"Feature","geometry":{"type":"Point","coordinates":[5.568322,51.956814]},"properties":{"type":"charge","layer":"passenger","locationId":"NLLOC002368","name":"NLD, Rhenen, Buitenomme 8, 3911 AE","address":"Buitenomme 8","city":"Rhenen","operatorName":"Allego","maxPowerKw":0,"isMegawatt":false,"status":"AVAILABLE","source":"ndw"}},{"type":"Feature","geometry":{"type":"Point","coordinates":[5.5659822,51.9638369]},"properties":{"type":"charge","layer":"passenger","locationId":"2455","name":"Shell Recharge NL Platanenlaan 49","address":"Platanenlaan 49","city":"Rhenen","operatorName":"Ubitricity","maxPowerKw":22,"isMegawatt":false,"status":"UNAVAILABLE","source":"ndw"}},{"type":"Feature","geometry":{"type":"Point","coordinates":[5.573709,51.963647]},"properties":{"type":"charge","layer":"passenger","locationId":"NLLOC004357","name":"NLD, Verlengde Acacialaan 41, 3911 GA Rhenen","address":"Verlengde Acacialaan 41","city":"Rhenen","operatorName":"Allego","maxPowerKw":0,"isMegawatt":false,"status":"AVAILABLE","source":"ndw"}},{"type":"Feature","geometry":{"type":"Point","coordinates":[5.499157,51.987082]},"properties":{"type":"charge","layer":"passenger","locationId":"f8b6a561ae4fa994e4dc6b2d8a9e49a6","name":"Margrietstraat 21","address":"Margrietstraat 21","city":"Elst Ut","operatorName":"Vattenfall InCharge","maxPowerKw":11,"isMegawatt":false,"status":"AVAILABLE","source":"ndw"}},{"type":"Feature","geometry":{"type":"Point","coordinates":[5.56327,51.965992]},"properties":{"type":"charge","layer":"passenger","locationId":"NLLOC001922","name":"NLD, Rhenen, De Toltoren 27","address":"De Toltoren 27","city":"Rhenen","operatorName":"Allego","maxPowerKw":0,"isMegawatt":false,"status":"AVAILABLE","source":"ndw"}},{"type":"Feature","geometry":{"type":"MultiPolygon","coordinates":[[[[5.548336372241255,52.00164691961347],[5.553228983381824,51.99903074704829],[5.554429572110342,52.00018204511824],[5.558044814085113,52.003631917556554],[5.561352956742085,52.00185271505739],[5.570478377483419,51.99695824334161],[5.573244717992078,51.99876595133995],[5.5820879900148554,52.004475259404146],[5.589488588968606,52.009455375935595],[5.591112554719796,52.0073013252777],[5.590807990962315,52.00302465676512],[5.591997538710364,52.001392144854464],[5.59655619077781,51.99920138670778],[5.602514928590894,51.99499767078971],[5.606016941466754,51.994164188740555],[5.609972206734906,51.993691364892165],[5.613812768403021,51.99034260868056],[5.615059950233054,51.982716775267214],[5.619888340017703,51.97771017876914],[5.626064250760591,51.97406988960198],[5.624855756617822,51.970448199252125],[5.620258296249782,51.96658217567588],[5.62321364585549,51.96256459073045],[5.626495307227726,51.95736559918897],[5.627308699285775,51.95247316763022],[5.625027570414318,51.951614698125574],[5.623446607053282,51.95194543000212],[5.620162613113861,51.95149798799527],[5.620437397385176,51.94832466320546],[5.616428042276996,51.94935343014928],[5.605939713923702,51.94312468990061],[5.603911140436063,51.94388317840186],[5.592736547483571,51.94918246919891],[5.586616538178616,51.95082886036091],[5.575574263148438,51.95282646959742],[5.561252308969734,51.95450171802286],[5.556933551978607,51.9557109506468],[5.549560810722379,51.959196822423735],[5.540207824858125,51.967281441851526],[5.537520164884423,51.968285263341485],[5.527112676282416,51.97021900485558],[5.518829174644289,51.971573553638855],[5.518221743139957,51.97169333079114],[5.5109789569145775,51.97364316758348],[5.500750580344955,51.97859198975458],[5.4862135673753345,51.98382638887078],[5.477664050955791,51.98347261725088],[5.477849378029511,51.987691660942005],[5.480554697544854,51.98874793462992],[5.47925874633913,51.99019949250198],[5.480300253641873,51.991093986589405],[5.484594292454842,51.98775952287515],[5.486083763334669,51.9908525821519],[5.485293410690199,51.990964976964044],[5.490897313064996,51.99656100277726],[5.492874322067688,51.996094570372215],[5.494201269836863,51.99490100815412],[5.507886548458229,52.012311048968215],[5.511022299426759,52.01642021688087],[5.512591840645124,52.01851603404941],[5.524646710124884,52.01448972998254],[5.53345504062266,52.01237350460086],[5.532365701958386,52.010900045173166],[5.536690177244535,52.00831972202342],[5.539183508519721,52.007407896911516],[5.540234736350546,52.007021048492476],[5.548336372241255,52.00164691961347]]]]},"properties":{"type":"boundary","gemeente":"Rhenen","code":"GM0340"}}]}