{"type":"FeatureCollection","metadata":{"gemeente":"Rucphen","slug":"rucphen","code":"GM0840","generated_at":"2026-06-07T19:22:09.578Z","total_passenger":47,"total_freight":0,"bounds":[4.485405442381401,51.473312449680414,4.640109804570277,51.5685587939394],"operators":["E-Flux by Road","E.ON Drive","Fastned","Laadnet","Lidl","PowerGo","Vattenfall InCharge","bp pulse"]},"features":[{"type":"Feature","geometry":{"type":"Point","coordinates":[4.528306,51.547618]},"properties":{"type":"charge","layer":"passenger","locationId":"ce432ae6-651a-11ed-afe8-42010aa40fc0","name":"bp pulse Mastpolder","address":"Rijksweg-Zuid 86","city":"Rucphen","operatorName":"bp pulse","maxPowerKw":150,"isMegawatt":false,"status":"AVAILABLE","source":"ndw","priceKwh":0.7}},{"type":"Feature","geometry":{"type":"Point","coordinates":[4.530389,51.547724]},"properties":{"type":"charge","layer":"passenger","locationId":"50004","name":"Fastned Mastpolder","address":"Mastpolder A58","city":"Rucphen","operatorName":"Fastned","maxPowerKw":175,"isMegawatt":false,"status":"AVAILABLE","source":"ndw","priceKwh":0.6364}},{"type":"Feature","geometry":{"type":"Point","coordinates":[4.528306,51.547618]},"properties":{"type":"charge","layer":"passenger","locationId":"ce432ae6-651a-11ed-afe8-42010aa40fc0","name":"bp pulse Mastpolder","address":"Rijksweg-Zuid 86","city":"Rucphen","operatorName":"bp pulse","maxPowerKw":150,"isMegawatt":false,"status":"UNAVAILABLE","source":"ndw","priceKwh":0.7}},{"type":"Feature","geometry":{"type":"Point","coordinates":[4.590181,51.545586]},"properties":{"type":"charge","layer":"passenger","locationId":"4591a1b2-5805-11ee-bba8-42010aa40fc0","name":"Jumbo 5128 St. Willebrord Kievitstraat (PowerGo)","address":"Kievitstraat 17","city":"Sint Willebrord","operatorName":"PowerGo","maxPowerKw":0,"isMegawatt":false,"status":"AVAILABLE","source":"ndw"}},{"type":"Feature","geometry":{"type":"Point","coordinates":[4.590552,51.554454]},"properties":{"type":"charge","layer":"passenger","locationId":"fe617690-bb7a-4c3e-b587-ef377449dd43","name":"Dorpsstraat","address":"Dorpsstraat 149Q","city":"Sint Willebrord","operatorName":"Vattenfall InCharge","maxPowerKw":11,"isMegawatt":false,"status":"AVAILABLE","source":"ndw"}},{"type":"Feature","geometry":{"type":"Point","coordinates":[4.590181,51.545586]},"properties":{"type":"charge","layer":"passenger","locationId":"4591a1b2-5805-11ee-bba8-42010aa40fc0","name":"Jumbo 5128 St. Willebrord Kievitstraat (PowerGo)","address":"Kievitstraat 17","city":"Sint Willebrord","operatorName":"PowerGo","maxPowerKw":0,"isMegawatt":false,"status":"AVAILABLE","source":"ndw"}},{"type":"Feature","geometry":{"type":"Point","coordinates":[4.506302,51.545295]},"properties":{"type":"charge","layer":"passenger","locationId":"2665","name":"E.ON Drive Public - NL AH, Rijksweg-Noord 28, Zegge","address":"Rijksweg-Noord 28","city":"Zegge","operatorName":"E.ON Drive","maxPowerKw":50,"isMegawatt":false,"status":"AVAILABLE","source":"ndw","priceKwh":0.5372}},{"type":"Feature","geometry":{"type":"Point","coordinates":[4.562604,51.532432]},"properties":{"type":"charge","layer":"passenger","locationId":"d11be788-4f3c-11e8-922a-42010a840002","name":"Lidl Rucphen","address":"Raadhuisstraat","city":"Rucphen","operatorName":"Lidl","maxPowerKw":11,"isMegawatt":false,"status":"AVAILABLE","source":"ndw","priceKwh":0.45}},{"type":"Feature","geometry":{"type":"Point","coordinates":[4.530389,51.547724]},"properties":{"type":"charge","layer":"passenger","locationId":"2f7d1d20-5d19-11e9-90a1-42010a840fe7","name":"Fastned Mastpolder","address":"Mastpolder A58","city":"Rucphen","operatorName":"Fastned","maxPowerKw":175,"isMegawatt":false,"status":"AVAILABLE","source":"ndw"}},{"type":"Feature","geometry":{"type":"Point","coordinates":[4.5901809,51.5455856]},"properties":{"type":"charge","layer":"passenger","locationId":"17725","name":"Jumbo 5128 St. Willebrord Kievitstraat (PowerGo)","address":"Kievitstraat 17","city":"Sint Willebrord","operatorName":"PowerGo","maxPowerKw":0,"isMegawatt":false,"status":"AVAILABLE","source":"ndw"}},{"type":"Feature","geometry":{"type":"Point","coordinates":[4.557068,51.53151]},"properties":{"type":"charge","layer":"passenger","locationId":"480ca014-fc26-4d90-8adb-6e7fbc4ec29c","name":"Goedevaart","address":"Goedevaart 10","city":"Rucphen","operatorName":"Vattenfall InCharge","maxPowerKw":11,"isMegawatt":false,"status":"AVAILABLE","source":"ndw"}},{"type":"Feature","geometry":{"type":"Point","coordinates":[4.529072,51.54884]},"properties":{"type":"charge","layer":"passenger","locationId":"caf86b00-5798-11e9-933e-42010a840025","name":"Fastned Hoezaar","address":"Hoezaar A58","city":"Rucphen","operatorName":"Fastned","maxPowerKw":175,"isMegawatt":false,"status":"AVAILABLE","source":"ndw"}},{"type":"Feature","geometry":{"type":"Point","coordinates":[4.506302,51.545295]},"properties":{"type":"charge","layer":"passenger","locationId":"0fd0161a-9cdf-11ef-8b43-42010aa400b8","name":"AH, Rijksweg-Noord 28, Zegge","address":"Rijksweg-Noord 28","city":"Zegge","operatorName":"E.ON Drive","maxPowerKw":50,"isMegawatt":false,"status":"AVAILABLE","source":"ndw"}},{"type":"Feature","geometry":{"type":"Point","coordinates":[4.529072,51.54884]},"properties":{"type":"charge","layer":"passenger","locationId":"50002","name":"Fastned Hoezaar","address":"Hoezaar A58","city":"Rucphen","operatorName":"Fastned","maxPowerKw":175,"isMegawatt":false,"status":"AVAILABLE","source":"ndw","priceKwh":0.6364}},{"type":"Feature","geometry":{"type":"Point","coordinates":[4.621086,51.518963]},"properties":{"type":"charge","layer":"passenger","locationId":"4234490","name":"Laadnet Pure Water Systems","address":"Kolkstraat 12A","city":"Sprundel","operatorName":"Laadnet","maxPowerKw":22,"isMegawatt":false,"status":"AVAILABLE","source":"ndw"}},{"type":"Feature","geometry":{"type":"Point","coordinates":[4.59579,51.547656]},"properties":{"type":"charge","layer":"passenger","locationId":"7113ebde-82f7-47ab-abd7-95545f285133","name":"Elzenrijs","address":"Elzenrijs 2","city":"Sint Willebrord","operatorName":"Vattenfall InCharge","maxPowerKw":11,"isMegawatt":false,"status":"AVAILABLE","source":"ndw"}},{"type":"Feature","geometry":{"type":"Point","coordinates":[4.562604,51.532432]},"properties":{"type":"charge","layer":"passenger","locationId":"f478d4d8-e9e8-44f2-bd1e-77d10e1f0156","name":"Lidl Rucphen","address":"Raadhuisstraat","city":"Rucphen","operatorName":"Lidl","maxPowerKw":11,"isMegawatt":false,"status":"AVAILABLE","source":"ndw"}},{"type":"Feature","geometry":{"type":"Point","coordinates":[4.558468,51.532634]},"properties":{"type":"charge","layer":"passenger","locationId":"8b2642b2-b91b-4c65-906e-de583b4b31a6","name":"Raadhuisstraat 32","address":"Raadhuisstraat 32","city":"Rucphen","operatorName":"Vattenfall InCharge","maxPowerKw":11,"isMegawatt":false,"status":"AVAILABLE","source":"ndw"}},{"type":"Feature","geometry":{"type":"Point","coordinates":[4.594751,51.557392]},"properties":{"type":"charge","layer":"passenger","locationId":"8401fef8-d3c3-449a-8b30-83bc19389138","name":"Máximastraat","address":"Máximastraat 7","city":"Sint Willebrord","operatorName":"Vattenfall InCharge","maxPowerKw":11,"isMegawatt":false,"status":"CHARGING","source":"ndw"}},{"type":"Feature","geometry":{"type":"Point","coordinates":[4.579492,51.537234]},"properties":{"type":"charge","layer":"passenger","locationId":"61d2f1c3a4a97f6e0afbfa57","name":"Verstraaten Autoschade","address":"Kraaihei 17","city":"Rucphen","operatorName":"E-Flux by Road","maxPowerKw":22,"isMegawatt":false,"status":"AVAILABLE","source":"ndw","priceKwh":0.28}},{"type":"Feature","geometry":{"type":"Point","coordinates":[4.59145,51.552443]},"properties":{"type":"charge","layer":"passenger","locationId":"82ef3a3f-e081-44c5-8ae2-e0fa88cf3585","name":"Dorpsstraat","address":"Dorpsstraat 123","city":"Sint Willebrord","operatorName":"Vattenfall InCharge","maxPowerKw":11,"isMegawatt":false,"status":"AVAILABLE","source":"ndw"}},{"type":"Feature","geometry":{"type":"Point","coordinates":[4.550331,51.530143]},"properties":{"type":"charge","layer":"passenger","locationId":"f83345e9e9a2dc1d6bdc5e33309c4ca2","name":"Egelstraat 9","address":"Egelstraat 9","city":"Rucphen","operatorName":"Vattenfall InCharge","maxPowerKw":11,"isMegawatt":false,"status":"AVAILABLE","source":"ndw"}},{"type":"Feature","geometry":{"type":"Point","coordinates":[4.561069,51.531839]},"properties":{"type":"charge","layer":"passenger","locationId":"67bed22b96b85143381e6398","name":"Maurice Akkermans 's station","address":"van Slotendreef 35","city":"Rucphen","operatorName":"E-Flux by Road","maxPowerKw":22,"isMegawatt":false,"status":"AVAILABLE","source":"ndw","priceKwh":0.35}},{"type":"Feature","geometry":{"type":"Point","coordinates":[4.591934,51.536497]},"properties":{"type":"charge","layer":"passenger","locationId":"70fa79f7-2ea1-4bf8-a557-f1df4caf0003","name":"Graaf Ansfriedstraat","address":"Graaf Ansfriedstraat 19","city":"Sprundel","operatorName":"Vattenfall InCharge","maxPowerKw":11,"isMegawatt":false,"status":"AVAILABLE","source":"ndw"}},{"type":"Feature","geometry":{"type":"Point","coordinates":[4.585603,51.556028]},"properties":{"type":"charge","layer":"passenger","locationId":"dd54b385-b012-4ff3-977b-e1fb2985484e","name":"Bremstraat","address":"Bremstraat 68","city":"Sint Willebrord","operatorName":"Vattenfall InCharge","maxPowerKw":11,"isMegawatt":false,"status":"AVAILABLE","source":"ndw"}},{"type":"Feature","geometry":{"type":"Point","coordinates":[4.594342,51.554745]},"properties":{"type":"charge","layer":"passenger","locationId":"cceef95e-d4c8-4968-8d9b-836b9ef38bcd","name":"Emmastraat","address":"Emmastraat 106","city":"Sint Willebrord","operatorName":"Vattenfall InCharge","maxPowerKw":11,"isMegawatt":false,"status":"AVAILABLE","source":"ndw"}},{"type":"Feature","geometry":{"type":"Point","coordinates":[4.586704,51.544745]},"properties":{"type":"charge","layer":"passenger","locationId":"870468a0-fe10-4448-94ce-594a3216c175","name":"Merelstraat","address":"Merelstraat 46","city":"Sint Willebrord","operatorName":"Vattenfall InCharge","maxPowerKw":11,"isMegawatt":false,"status":"AVAILABLE","source":"ndw"}},{"type":"Feature","geometry":{"type":"Point","coordinates":[4.559601,51.534709]},"properties":{"type":"charge","layer":"passenger","locationId":"812dafbb-25e5-4b79-87ca-c7ba55bad26f","name":"Van Marxhemstraat","address":"Van Marxhemstraat 6","city":"Rucphen","operatorName":"Vattenfall InCharge","maxPowerKw":11,"isMegawatt":false,"status":"AVAILABLE","source":"ndw"}},{"type":"Feature","geometry":{"type":"Point","coordinates":[4.590128,51.546385]},"properties":{"type":"charge","layer":"passenger","locationId":"027fd294-aa18-4c3b-9052-c0b7eaef4c99","name":"Kanariestraat","address":"Kanariestraat 13","city":"Sint Willebrord","operatorName":"Vattenfall InCharge","maxPowerKw":11,"isMegawatt":false,"status":"AVAILABLE","source":"ndw"}},{"type":"Feature","geometry":{"type":"Point","coordinates":[4.554185,51.531326]},"properties":{"type":"charge","layer":"passenger","locationId":"61f15cdf-5501-4b11-bb59-0d03b0a22efd","name":"Turfgreef","address":"Turfgreef 31","city":"Rucphen","operatorName":"Vattenfall InCharge","maxPowerKw":11,"isMegawatt":false,"status":"AVAILABLE","source":"ndw"}},{"type":"Feature","geometry":{"type":"Point","coordinates":[4.595294,51.551634]},"properties":{"type":"charge","layer":"passenger","locationId":"bd1dd6e0-7f47-4b33-9cad-6fd10c2c6591","name":"Händelstraat","address":"Händelstraat 4 ","city":"Sint Willebrord","operatorName":"Vattenfall InCharge","maxPowerKw":11,"isMegawatt":false,"status":"AVAILABLE","source":"ndw"}},{"type":"Feature","geometry":{"type":"Point","coordinates":[4.517514,51.555498]},"properties":{"type":"charge","layer":"passenger","locationId":"93d00fdd-3568-46b7-88a7-78fb1a3e3e23","name":"Jacob van Lennepstraat","address":"Jacob van Lennepstraat 24","city":"Zegge","operatorName":"Vattenfall InCharge","maxPowerKw":11,"isMegawatt":false,"status":"AVAILABLE","source":"ndw"}},{"type":"Feature","geometry":{"type":"Point","coordinates":[4.578507,51.538788]},"properties":{"type":"charge","layer":"passenger","locationId":"7cf66d8d-c21e-44f8-b8c3-9c0c97f15d7b","name":"Binnentuin 1","address":"Binnentuin 1","city":"Rucphen","operatorName":"Vattenfall InCharge","maxPowerKw":11,"isMegawatt":false,"status":"AVAILABLE","source":"ndw"}},{"type":"Feature","geometry":{"type":"Point","coordinates":[4.559654,51.500004]},"properties":{"type":"charge","layer":"passenger","locationId":"7353fe6f-7c45-437b-b04a-ea893ccd5239","name":"Pastoor van Waesstraat","address":"Pastoor van Waesstraat 2","city":"Schijf","operatorName":"Vattenfall InCharge","maxPowerKw":11,"isMegawatt":false,"status":"AVAILABLE","source":"ndw"}},{"type":"Feature","geometry":{"type":"Point","coordinates":[4.559349,51.533722]},"properties":{"type":"charge","layer":"passenger","locationId":"924aae21-ab08-4dff-841b-4e1e7c78e8c8","name":"Van Glymesstraat","address":"Van Glymesstraat 12","city":"Rucphen","operatorName":"Vattenfall InCharge","maxPowerKw":11,"isMegawatt":false,"status":"AVAILABLE","source":"ndw"}},{"type":"Feature","geometry":{"type":"Point","coordinates":[4.557015,51.53598]},"properties":{"type":"charge","layer":"passenger","locationId":"9104bd70-4008-43b6-9b5f-106732a197d7","name":"Rubensstraat","address":"Rubensstraat 7","city":"Rucphen","operatorName":"Vattenfall InCharge","maxPowerKw":11,"isMegawatt":false,"status":"AVAILABLE","source":"ndw"}},{"type":"Feature","geometry":{"type":"Point","coordinates":[4.513814,51.554726]},"properties":{"type":"charge","layer":"passenger","locationId":"1a9da574-bfce-4f01-95f9-54b466600767","name":"Jongeneelenstraat","address":"Jongeneelenstraat 20","city":"Zegge","operatorName":"Vattenfall InCharge","maxPowerKw":11,"isMegawatt":false,"status":"AVAILABLE","source":"ndw"}},{"type":"Feature","geometry":{"type":"Point","coordinates":[4.601417,51.538111]},"properties":{"type":"charge","layer":"passenger","locationId":"e61e5c67-c842-4824-9235-a8e46dc45cbb","name":"Hertogstraat","address":"Hertogstraat 1","city":"Sprundel","operatorName":"Vattenfall InCharge","maxPowerKw":11,"isMegawatt":false,"status":"AVAILABLE","source":"ndw"}},{"type":"Feature","geometry":{"type":"Point","coordinates":[4.551466,51.53288]},"properties":{"type":"charge","layer":"passenger","locationId":"5505753b-4a1e-4be3-9da5-c77478d4db68","name":"Burgemeester de Weertstraat","address":"Burgemeester de Weertstraat 21","city":"Rucphen","operatorName":"Vattenfall InCharge","maxPowerKw":11,"isMegawatt":false,"status":"AVAILABLE","source":"ndw"}},{"type":"Feature","geometry":{"type":"Point","coordinates":[4.518787,51.557874]},"properties":{"type":"charge","layer":"passenger","locationId":"c3d14dcb-e144-423f-b7e2-61cbd4caabe7","name":"Van Schendelstraat","address":"Van Schendelstraat 16","city":"Zegge","operatorName":"Vattenfall InCharge","maxPowerKw":11,"isMegawatt":false,"status":"UNAVAILABLE","source":"ndw"}},{"type":"Feature","geometry":{"type":"Point","coordinates":[4.559087,51.496032]},"properties":{"type":"charge","layer":"passenger","locationId":"1d6ab200-5763-40f8-ac26-0dd3f9db7a3a","name":"De Nieuwe Zoek 1","address":"De Nieuwe Zoek 1","city":"Schijf","operatorName":"Vattenfall InCharge","maxPowerKw":11,"isMegawatt":false,"status":"AVAILABLE","source":"ndw"}},{"type":"Feature","geometry":{"type":"Point","coordinates":[4.550185,51.533795]},"properties":{"type":"charge","layer":"passenger","locationId":"84632e8d-c268-4aac-96e6-3db82211769b","name":"Burgemeester Voetenstraat","address":"Burgemeester Voetenstraat 28","city":"Rucphen","operatorName":"Vattenfall InCharge","maxPowerKw":11,"isMegawatt":false,"status":"AVAILABLE","source":"ndw"}},{"type":"Feature","geometry":{"type":"Point","coordinates":[4.599594,51.538257]},"properties":{"type":"charge","layer":"passenger","locationId":"4eb171a9-3c77-4fc7-85f3-5c008f34b247","name":"Neerhof 2","address":"Neerhof 2","city":"Sprundel","operatorName":"Vattenfall InCharge","maxPowerKw":11,"isMegawatt":false,"status":"AVAILABLE","source":"ndw"}},{"type":"Feature","geometry":{"type":"Point","coordinates":[4.528306,51.547618]},"properties":{"type":"charge","layer":"passenger","locationId":"d1df7c42-a69f-4ca8-b026-d2457de35fe4","name":"bp pulse Mastpolder","address":"Rijksweg-Zuid 86","city":"Rucphen","operatorName":"bp pulse","maxPowerKw":150,"isMegawatt":false,"status":"AVAILABLE","source":"ndw","priceKwh":0.7}},{"type":"Feature","geometry":{"type":"Point","coordinates":[4.559917,51.53542]},"properties":{"type":"charge","layer":"passenger","locationId":"6c5472b0463f6837e545fdcb18de62a1","name":"De Krijntjes 1","address":"De Krijntjes 1","city":"Rucphen","operatorName":"Vattenfall InCharge","maxPowerKw":11,"isMegawatt":false,"status":"AVAILABLE","source":"ndw"}},{"type":"Feature","geometry":{"type":"Point","coordinates":[4.600937,51.539776]},"properties":{"type":"charge","layer":"passenger","locationId":"e02a1d4c-e597-456f-9950-f1b5425ab831","name":"De Branden 25","address":"De Branden 25","city":"Sprundel","operatorName":"Vattenfall InCharge","maxPowerKw":11,"isMegawatt":false,"status":"AVAILABLE","source":"ndw"}},{"type":"Feature","geometry":{"type":"Point","coordinates":[4.557734,51.499142]},"properties":{"type":"charge","layer":"passenger","locationId":"e667144f-14fe-4079-a163-cc660afce323","name":"Den Aanwas","address":"Den Aanwas 39","city":"Schijf","operatorName":"Vattenfall InCharge","maxPowerKw":11,"isMegawatt":false,"status":"AVAILABLE","source":"ndw"}},{"type":"Feature","geometry":{"type":"MultiPolygon","coordinates":[[[[4.536615837041161,51.56577643337833],[4.5309047718807705,51.55988769190085],[4.528689070517362,51.5554866359112],[4.528068338093092,51.55199885485888],[4.530357936130193,51.54925569385705],[4.533481998651988,51.54926951080243],[4.542421831243043,51.55108712393013],[4.54508329918083,51.55164560994432],[4.544639711678473,51.55294831565399],[4.54537044634325,51.553908865492104],[4.546444378704811,51.55365068131693],[4.547310175058462,51.552361476073656],[4.550492797894604,51.55271180888157],[4.566841392276185,51.555963152604946],[4.568020226208572,51.55619941431115],[4.582011191423799,51.55904791180542],[4.581750349202779,51.560266811586644],[4.582878652076228,51.56041919596512],[4.584895928859999,51.55963497908589],[4.59176096824677,51.561031721788346],[4.591857484224171,51.56089952122989],[4.5920000280488456,51.560246424100335],[4.596818886039981,51.56002095248005],[4.601658425827796,51.55869495547054],[4.606570940012871,51.556023146887284],[4.608136000266345,51.55424167255587],[4.610107517163571,51.55360293406799],[4.6110029571187665,51.5543385383979],[4.615790163529906,51.553179482209615],[4.624795444746659,51.552385637619835],[4.6258090384187085,51.54741161412677],[4.62701636230857,51.548081178322676],[4.628782094140664,51.546627135706636],[4.630077440414671,51.54716183872712],[4.631775491752563,51.543881583545314],[4.632776950742466,51.54424923859598],[4.63528542522569,51.54235145081703],[4.6360831905706865,51.54318904866721],[4.63786810734749,51.542326026726464],[4.640109804570277,51.54342321634752],[4.638715571391407,51.52441268415784],[4.631059243386646,51.52331139772968],[4.627659012543564,51.52246776482609],[4.624986047701069,51.521090143044766],[4.626401166603102,51.51892067620686],[4.621506762339062,51.51744385116739],[4.621617565995478,51.51626193386109],[4.619404737523739,51.516172008774106],[4.620538429983328,51.51073618918115],[4.618201069472534,51.510672245123494],[4.618196968350239,51.50961524944764],[4.617086194894317,51.50970684436379],[4.616378762021396,51.508087298088036],[4.615019337863686,51.508946895035955],[4.610783819103087,51.5083385931881],[4.579572663659155,51.510712699094086],[4.589730331743402,51.496737403339885],[4.583709044498042,51.495764029048324],[4.579179002714558,51.49340615194023],[4.576176745303064,51.4925393751511],[4.573975345718311,51.488468495328945],[4.5758071179183855,51.48813949769577],[4.572298282320806,51.4826747997348],[4.556099804281663,51.485634212863815],[4.548159821727381,51.473312449680414],[4.538183534469881,51.48239756326251],[4.4866805199887825,51.477352548417166],[4.485405442381401,51.481622293851174],[4.492860596677274,51.48329104790036],[4.49031238010554,51.48699138227269],[4.497892209480466,51.501432611925296],[4.498095341556095,51.50181179872328],[4.496652498018307,51.5083003252649],[4.498516047694945,51.50986331276178],[4.502178563349011,51.51672340540964],[4.502687200258686,51.51674894464634],[4.514331242157168,51.51789542531297],[4.513562638371093,51.52160139885642],[4.515952804559337,51.52152019059943],[4.517649881624021,51.52538817223003],[4.519657285063855,51.525401299197114],[4.520136195709168,51.52655802159859],[4.519578301693216,51.52708129708074],[4.521188680339106,51.52895050146954],[4.520418040990679,51.52899122408402],[4.521967770818186,51.53177561402865],[4.521407532633823,51.533094937226736],[4.523190806235292,51.542556849348664],[4.51579494849809,51.542997955450836],[4.515832443281628,51.54208777975228],[4.514443271220294,51.54190105590443],[4.511314724899096,51.543982446839124],[4.506788992704104,51.54363249070064],[4.498829835407138,51.544785103947646],[4.498788484891968,51.54570444820051],[4.497471630718601,51.546273320274196],[4.498080558711061,51.54994214987115],[4.500203575768866,51.558536424510805],[4.5016342340058895,51.56327084399634],[4.504153327183804,51.562985151188286],[4.504955084929605,51.56602643224829],[4.508712979841335,51.56554873478942],[4.509449555593975,51.5685587939394],[4.536615837041161,51.56577643337833]]]]},"properties":{"type":"boundary","gemeente":"Rucphen","code":"GM0840"}}]}