{"type":"FeatureCollection","metadata":{"gemeente":"Simpelveld","slug":"simpelveld","code":"GM0965","generated_at":"2026-06-02T13:19:22.438Z","total_passenger":32,"total_freight":0,"bounds":[5.953262441364787,50.80147056674804,6.024757031664397,50.860079536770485],"operators":["E-Flux by Road","Laadnet","Tanx","Vattenfall InCharge"]},"features":[{"type":"Feature","geometry":{"type":"Point","coordinates":[5.97832,50.83486]},"properties":{"type":"charge","layer":"passenger","locationId":"2040381","name":"EQUA EQUA","address":"Doctor Ottenstraat 7","city":"Simpelveld","operatorName":"Laadnet","maxPowerKw":22,"isMegawatt":false,"status":"AVAILABLE","source":"ndw"}},{"type":"Feature","geometry":{"type":"Point","coordinates":[6.01364,50.8175]},"properties":{"type":"charge","layer":"passenger","locationId":"7befb7d7-9eb6-4113-90bd-2e79d2bb22fc","name":"De Slag 43","address":"De Slag 43","city":"Bocholtz","operatorName":"Vattenfall InCharge","maxPowerKw":11,"isMegawatt":false,"status":"CHARGING","source":"ndw"}},{"type":"Feature","geometry":{"type":"Point","coordinates":[5.980678,50.826736]},"properties":{"type":"charge","layer":"passenger","locationId":"e2e89e73-4060-4842-a630-cb23332e3063","name":"Sportlaan","address":"Sportlaan 1","city":"Simpelveld","operatorName":"Vattenfall InCharge","maxPowerKw":11,"isMegawatt":false,"status":"AVAILABLE","source":"ndw"}},{"type":"Feature","geometry":{"type":"Point","coordinates":[5.99014,50.81877]},"properties":{"type":"charge","layer":"passenger","locationId":"dc22f728-8ebf-47b3-96e3-4e6a0f49cf14","name":"Aretsbosweg 11","address":"Aretsbosweg 11","city":"Bocholtz","operatorName":"Vattenfall InCharge","maxPowerKw":11,"isMegawatt":false,"status":"AVAILABLE","source":"ndw"}},{"type":"Feature","geometry":{"type":"Point","coordinates":[5.987218,50.832828]},"properties":{"type":"charge","layer":"passenger","locationId":"023e92739765163bd9450fe26e83095a","name":"Puntelstraat 28","address":"Puntelstraat 28","city":"Simpelveld","operatorName":"Vattenfall InCharge","maxPowerKw":11,"isMegawatt":false,"status":"AVAILABLE","source":"ndw"}},{"type":"Feature","geometry":{"type":"Point","coordinates":[5.97317,50.83705]},"properties":{"type":"charge","layer":"passenger","locationId":"54c01e6af97ebc4924d21c584151228e","name":"Merovingenstraat 2","address":"Merovingenstraat 2","city":"Simpelveld","operatorName":"Vattenfall InCharge","maxPowerKw":11,"isMegawatt":false,"status":"AVAILABLE","source":"ndw"}},{"type":"Feature","geometry":{"type":"Point","coordinates":[5.99177,50.81729]},"properties":{"type":"charge","layer":"passenger","locationId":"cfa9a7b47c5da611541bee239ebb97c7","name":"Groeneweg 10","address":"Groeneweg 10","city":"Bocholtz","operatorName":"Vattenfall InCharge","maxPowerKw":11,"isMegawatt":false,"status":"AVAILABLE","source":"ndw"}},{"type":"Feature","geometry":{"type":"Point","coordinates":[6.012228,50.818436]},"properties":{"type":"charge","layer":"passenger","locationId":"c85fc7f8-d51a-4634-96e0-8471ca4234f1","name":"Schuttershof","address":"Schuttershof 22","city":"Bocholtz","operatorName":"Vattenfall InCharge","maxPowerKw":11,"isMegawatt":false,"status":"AVAILABLE","source":"ndw"}},{"type":"Feature","geometry":{"type":"Point","coordinates":[6.00699,50.823111]},"properties":{"type":"charge","layer":"passenger","locationId":"65533a9e5275aa001c53f1e9","name":"Gillishof","address":"Zandberg 20","city":"Bocholtz","operatorName":"Tanx","maxPowerKw":11,"isMegawatt":false,"status":"AVAILABLE","source":"ndw"}},{"type":"Feature","geometry":{"type":"Point","coordinates":[6.006609,50.821716]},"properties":{"type":"charge","layer":"passenger","locationId":"30924bac-3e5e-4312-8d9e-aabb8e126a62","name":"Groeneboord 49","address":"Groeneboord 49","city":"Bocholtz","operatorName":"Vattenfall InCharge","maxPowerKw":11,"isMegawatt":false,"status":"AVAILABLE","source":"ndw"}},{"type":"Feature","geometry":{"type":"Point","coordinates":[5.985136,50.83544]},"properties":{"type":"charge","layer":"passenger","locationId":"db482902-770e-47d7-9b7f-043f0630a094","name":"Markt","address":"Markt 28","city":"Simpelveld","operatorName":"Vattenfall InCharge","maxPowerKw":11,"isMegawatt":false,"status":"AVAILABLE","source":"ndw"}},{"type":"Feature","geometry":{"type":"Point","coordinates":[5.974252,50.837875]},"properties":{"type":"charge","layer":"passenger","locationId":"627bb254aaa68f06a6a512d6","name":"Tulen station Simpelveld","address":"Houbiersstraat  26","city":"Simpelveld","operatorName":"E-Flux by Road","maxPowerKw":22,"isMegawatt":false,"status":"AVAILABLE","source":"ndw"}},{"type":"Feature","geometry":{"type":"Point","coordinates":[5.980846,50.833784]},"properties":{"type":"charge","layer":"passenger","locationId":"4bf80b71-42af-45e0-b272-b64f982714fa","name":"Panneslagerstraat","address":"Panneslagerstraat 2","city":"Simpelveld","operatorName":"Vattenfall InCharge","maxPowerKw":11,"isMegawatt":false,"status":"AVAILABLE","source":"ndw"}},{"type":"Feature","geometry":{"type":"Point","coordinates":[5.97964,50.835207]},"properties":{"type":"charge","layer":"passenger","locationId":"78093e79-406f-4172-8286-211a0a31f04c","name":"Doctor Poelsplein","address":"Doctor Poelsplein 18","city":"Simpelveld","operatorName":"Vattenfall InCharge","maxPowerKw":11,"isMegawatt":false,"status":"AVAILABLE","source":"ndw"}},{"type":"Feature","geometry":{"type":"Point","coordinates":[5.97638,50.83833]},"properties":{"type":"charge","layer":"passenger","locationId":"64132a81d0d80b485edd6514f6bc2065","name":"Sint Remigiusstraat 22","address":"Sint Remigiusstraat 22","city":"Simpelveld","operatorName":"Vattenfall InCharge","maxPowerKw":11,"isMegawatt":false,"status":"AVAILABLE","source":"ndw"}},{"type":"Feature","geometry":{"type":"Point","coordinates":[6.007321,50.818285]},"properties":{"type":"charge","layer":"passenger","locationId":"17ca5b6b098dcef799dc513a72c03fe0","name":"Kerkstraat 13B","address":"Kerkstraat 13B","city":"Bocholtz","operatorName":"Vattenfall InCharge","maxPowerKw":11,"isMegawatt":false,"status":"AVAILABLE","source":"ndw"}},{"type":"Feature","geometry":{"type":"Point","coordinates":[5.976121,50.838488]},"properties":{"type":"charge","layer":"passenger","locationId":"d7ca8f68b7848b1d94e77c57d32c78b5","name":"Sint Remigiusstraat 26","address":"Sint Remigiusstraat 26","city":"Simpelveld","operatorName":"Vattenfall InCharge","maxPowerKw":11,"isMegawatt":false,"status":"AVAILABLE","source":"ndw"}},{"type":"Feature","geometry":{"type":"Point","coordinates":[6.008862,50.816682]},"properties":{"type":"charge","layer":"passenger","locationId":"3d506a11-0e59-4d3b-b5d6-3a36a4ddbc2d","name":"Margrietstraat","address":"Margrietstraat 3","city":"Bocholtz","operatorName":"Vattenfall InCharge","maxPowerKw":11,"isMegawatt":false,"status":"AVAILABLE","source":"ndw"}},{"type":"Feature","geometry":{"type":"Point","coordinates":[5.985419,50.842572]},"properties":{"type":"charge","layer":"passenger","locationId":"1826452","name":"Sander Dumoulin Holding BV Hoeve Molsberg","address":"Molsberg 96","city":"simpelveld","operatorName":"Laadnet","maxPowerKw":11,"isMegawatt":false,"status":"AVAILABLE","source":"ndw"}},{"type":"Feature","geometry":{"type":"Point","coordinates":[6.013952,50.816322]},"properties":{"type":"charge","layer":"passenger","locationId":"d49e887b-3285-422e-a002-bd744bf22d49","name":"Seringenstraat","address":"Seringenstraat 4","city":"Bocholtz","operatorName":"Vattenfall InCharge","maxPowerKw":11,"isMegawatt":false,"status":"AVAILABLE","source":"ndw"}},{"type":"Feature","geometry":{"type":"Point","coordinates":[6.000931,50.81777]},"properties":{"type":"charge","layer":"passenger","locationId":"592cdc24-c4cb-4375-9e8f-fb763282221e","name":"Elf Schoorstenen 15","address":"Elf Schoorstenen 15","city":"Bocholtz","operatorName":"Vattenfall InCharge","maxPowerKw":11,"isMegawatt":false,"status":"AVAILABLE","source":"ndw"}},{"type":"Feature","geometry":{"type":"Point","coordinates":[5.97962,50.83525]},"properties":{"type":"charge","layer":"passenger","locationId":"2d5e8e34d737d58f591c7bff2477c924","name":"Doctor Poelsplein 20","address":"Doctor Poelsplein 20","city":"Simpelveld","operatorName":"Vattenfall InCharge","maxPowerKw":11,"isMegawatt":false,"status":"AVAILABLE","source":"ndw"}},{"type":"Feature","geometry":{"type":"Point","coordinates":[5.97882,50.83406]},"properties":{"type":"charge","layer":"passenger","locationId":"c2d34b2f25b3f45af1a09d22218492b4","name":"Scheelenstraat 1","address":"Scheelenstraat 1","city":"Simpelveld","operatorName":"Vattenfall InCharge","maxPowerKw":11,"isMegawatt":false,"status":"AVAILABLE","source":"ndw"}},{"type":"Feature","geometry":{"type":"Point","coordinates":[6.005658,50.81597]},"properties":{"type":"charge","layer":"passenger","locationId":"35787b5e-1168-46ac-9876-310920357471","name":"Wijngracht","address":"Wijngracht 10","city":"Bocholtz","operatorName":"Vattenfall InCharge","maxPowerKw":11,"isMegawatt":false,"status":"AVAILABLE","source":"ndw"}},{"type":"Feature","geometry":{"type":"Point","coordinates":[5.990651,50.816902]},"properties":{"type":"charge","layer":"passenger","locationId":"ad6f380c-00f6-43a0-a8a9-213565614416","name":"Groeneweg","address":"Groeneweg 7","city":"Bocholtz","operatorName":"Vattenfall InCharge","maxPowerKw":11,"isMegawatt":false,"status":"AVAILABLE","source":"ndw"}},{"type":"Feature","geometry":{"type":"Point","coordinates":[6.005272,50.819609]},"properties":{"type":"charge","layer":"passenger","locationId":"6b001ea7-1aa3-4277-9ffe-31c3279599a7","name":"Patersplein","address":"Patersplein 40","city":"Bocholtz","operatorName":"Vattenfall InCharge","maxPowerKw":11,"isMegawatt":false,"status":"AVAILABLE","source":"ndw"}},{"type":"Feature","geometry":{"type":"Point","coordinates":[5.975648,50.835993]},"properties":{"type":"charge","layer":"passenger","locationId":"d82ffdb56b0fd670321a0cd0b149c18a","name":"Molt 6","address":"Molt 6","city":"Simpelveld","operatorName":"Vattenfall InCharge","maxPowerKw":11,"isMegawatt":false,"status":"AVAILABLE","source":"ndw"}},{"type":"Feature","geometry":{"type":"Point","coordinates":[5.998687,50.816577]},"properties":{"type":"charge","layer":"passenger","locationId":"73bde86e-50dd-4085-8593-f71d77b6d459","name":"Bombaard 39","address":"Bombaard 39","city":"Bocholtz","operatorName":"Vattenfall InCharge","maxPowerKw":11,"isMegawatt":false,"status":"AVAILABLE","source":"ndw"}},{"type":"Feature","geometry":{"type":"Point","coordinates":[6.004988,50.819893]},"properties":{"type":"charge","layer":"passenger","locationId":"907ebd0a75fa5c9f574c4306ddb7f539","name":"Patersplein 7","address":"Patersplein 7","city":"Bocholtz","operatorName":"Vattenfall InCharge","maxPowerKw":11,"isMegawatt":false,"status":"AVAILABLE","source":"ndw"}},{"type":"Feature","geometry":{"type":"Point","coordinates":[6.00671,50.82205]},"properties":{"type":"charge","layer":"passenger","locationId":"f4e24f319ca6d5a88c1bfbec45008a7f","name":"Bongerdplein 44","address":"Bongerdplein 44","city":"Bocholtz","operatorName":"Vattenfall InCharge","maxPowerKw":11,"isMegawatt":false,"status":"AVAILABLE","source":"ndw"}},{"type":"Feature","geometry":{"type":"Point","coordinates":[5.97277,50.843905]},"properties":{"type":"charge","layer":"passenger","locationId":"ab322850906b19c43e269f416e4b5081","name":"Kapelstraat 5a","address":"Kapelstraat 5a","city":"Simpelveld","operatorName":"Vattenfall InCharge","maxPowerKw":11,"isMegawatt":false,"status":"AVAILABLE","source":"ndw"}},{"type":"Feature","geometry":{"type":"Point","coordinates":[5.9715,50.83937]},"properties":{"type":"charge","layer":"passenger","locationId":"a010393ec74d7331c5a2c1653773d353","name":"Laurenthof 2","address":"Laurenthof 2","city":"Simpelveld","operatorName":"Vattenfall InCharge","maxPowerKw":11,"isMegawatt":false,"status":"AVAILABLE","source":"ndw"}},{"type":"Feature","geometry":{"type":"MultiPolygon","coordinates":[[[[5.97334079183917,50.85470443871766],[5.979251253642355,50.84927050206855],[5.989523737823418,50.84416931074],[5.991707240362985,50.84365363978975],[5.9978344023841546,50.84122489427439],[6.004128402676291,50.83767723177003],[6.0053500405624,50.83555277405517],[6.00504686502827,50.83391337209107],[6.003019711834912,50.832024996233635],[6.0040842975812945,50.83141946634088],[6.007494857994141,50.831778254959104],[6.011462631773126,50.830763613705116],[6.015210004412528,50.8272656625538],[6.017029083938149,50.825700622513764],[6.016005075584838,50.82531603795416],[6.016608468202794,50.82433397468284],[6.015745147118464,50.82381072859372],[6.017470543173649,50.82168440277163],[6.020630246968564,50.81973798958828],[6.022042991675015,50.82015785640969],[6.023721658047866,50.81840227362294],[6.022100077575973,50.81680916800577],[6.024488175961404,50.81592283252586],[6.023527545230332,50.81464898694991],[6.024757031664397,50.81388758327032],[6.01649921235965,50.809779329539104],[6.009993354942796,50.803987574679375],[6.003691428324389,50.80147056674804],[5.991383661478372,50.80804378086596],[5.9849882676726684,50.81044886533451],[5.983516940517189,50.80972869879342],[5.981916334454668,50.81085672180583],[5.982924950748763,50.811436485069045],[5.980554333012679,50.81298188607386],[5.979521919109064,50.81457537317974],[5.977957311909194,50.81490505259875],[5.969417461776974,50.816857012882686],[5.971828473024895,50.82117606265362],[5.9679030244521085,50.822351304069564],[5.959486566219069,50.828230876952276],[5.95554286010747,50.835393626790804],[5.956945651336334,50.83584165220895],[5.955769036132881,50.8392729323678],[5.956176221248256,50.84201494260972],[5.95481483829094,50.84592317977028],[5.955294189554696,50.84691976211787],[5.953262441364787,50.848216529756364],[5.953802039822231,50.85049259548947],[5.954161016161767,50.851539132067394],[5.95502027486413,50.85186401982252],[5.954774828918668,50.85258545765927],[5.957383613952382,50.853060337825426],[5.960718712928298,50.85486960704514],[5.961333587844468,50.85405013899582],[5.9648047898314545,50.85514485574194],[5.969360925332438,50.860079536770485],[5.97334079183917,50.85470443871766]]]]},"properties":{"type":"boundary","gemeente":"Simpelveld","code":"GM0965"}}]}