{"type":"FeatureCollection","metadata":{"gemeente":"Son en Breugel","slug":"son-en-breugel","code":"GM0848","generated_at":"2026-06-07T19:22:09.578Z","total_passenger":70,"total_freight":0,"bounds":[5.423841440999212,51.493926849341044,5.54627156061194,51.541847970854455],"operators":["E-Flux by Road","Eneco","Fastned","Laadnet","NXT50Five","Vattenfall InCharge"]},"features":[{"type":"Feature","geometry":{"type":"Point","coordinates":[5.487904,51.506372]},"properties":{"type":"charge","layer":"passenger","locationId":"63c1872e-1075-406b-89f4-df2ffa30c984","name":"De Bontstraat 69","address":"De Bontstraat 69","city":"Son","operatorName":"Vattenfall InCharge","maxPowerKw":11,"isMegawatt":false,"status":"AVAILABLE","source":"ndw"}},{"type":"Feature","geometry":{"type":"Point","coordinates":[5.508276,51.520308]},"properties":{"type":"charge","layer":"passenger","locationId":"d023ad47-adea-4141-ba50-fd279c19ba9e","name":"Venuslaan","address":"Venuslaan 2","city":"Breugel","operatorName":"Vattenfall InCharge","maxPowerKw":11,"isMegawatt":false,"status":"CHARGING","source":"ndw"}},{"type":"Feature","geometry":{"type":"Point","coordinates":[5.48354,51.49791]},"properties":{"type":"charge","layer":"passenger","locationId":"46d2dd24-fc36-11ec-a179-42010aa4000d","name":"Eneco eMobility Ekkersrijt 1502 Son","address":"Ekkersrijt 1502","city":"Son","operatorName":"Eneco","maxPowerKw":0,"isMegawatt":false,"status":"AVAILABLE","source":"ndw","priceKwh":0.32}},{"type":"Feature","geometry":{"type":"Point","coordinates":[5.488078,51.531656]},"properties":{"type":"charge","layer":"passenger","locationId":"bf1f069c-f4b2-49b4-81ec-7918a7116cc1","name":"Zebrakever","address":"Zebrakever 28G","city":"Son","operatorName":"Vattenfall InCharge","maxPowerKw":11,"isMegawatt":false,"status":"AVAILABLE","source":"ndw"}},{"type":"Feature","geometry":{"type":"Point","coordinates":[5.475742,51.507851]},"properties":{"type":"charge","layer":"passenger","locationId":"9e05fa08-9c05-4931-bbb7-6f46d4a0114a","name":"Vlinderlaan","address":"Vlinderlaan 97","city":"Son","operatorName":"Vattenfall InCharge","maxPowerKw":11,"isMegawatt":false,"status":"AVAILABLE","source":"ndw"}},{"type":"Feature","geometry":{"type":"Point","coordinates":[5.508868,51.517516]},"properties":{"type":"charge","layer":"passenger","locationId":"34c4a6cf-b502-4059-af93-03a1858cc0fa","name":"Piet Heinlaan","address":"Piet Heinlaan 1","city":"Breugel","operatorName":"Vattenfall InCharge","maxPowerKw":11,"isMegawatt":false,"status":"AVAILABLE","source":"ndw"}},{"type":"Feature","geometry":{"type":"Point","coordinates":[5.506433,51.519589]},"properties":{"type":"charge","layer":"passenger","locationId":"a0cd7869-223b-438c-8ea5-3235e93b67ff","name":"Colijnstraat","address":"Colijnstraat 18","city":"Breugel","operatorName":"Vattenfall InCharge","maxPowerKw":11,"isMegawatt":false,"status":"CHARGING","source":"ndw"}},{"type":"Feature","geometry":{"type":"Point","coordinates":[5.492511,51.511921]},"properties":{"type":"charge","layer":"passenger","locationId":"9639e827-c6f9-49c5-8ad6-eb5d00ddbab3","name":"Boslaan 13B","address":"Boslaan 13B","city":"Son","operatorName":"Vattenfall InCharge","maxPowerKw":11,"isMegawatt":false,"status":"AVAILABLE","source":"ndw"}},{"type":"Feature","geometry":{"type":"Point","coordinates":[5.490412,51.498473]},"properties":{"type":"charge","layer":"passenger","locationId":"7034d91e-4d1a-11f0-9866-42010aa400b8","name":"Eneco eMobility FLP Eindhoven B.V.","address":"Ekkersrijt 1218","city":"Son","operatorName":"Eneco","maxPowerKw":22,"isMegawatt":false,"status":"AVAILABLE","source":"ndw","priceKwh":0.32}},{"type":"Feature","geometry":{"type":"Point","coordinates":[5.478795,51.535335]},"properties":{"type":"charge","layer":"passenger","locationId":"50477","name":"Fastned Sonse Heide","address":"Sonse Heide A50","city":"Son","operatorName":"Fastned","maxPowerKw":300,"isMegawatt":false,"status":"AVAILABLE","source":"ndw","priceKwh":0.6364}},{"type":"Feature","geometry":{"type":"Point","coordinates":[5.492791,51.507172]},"properties":{"type":"charge","layer":"passenger","locationId":"82de5858-3c7e-4cdd-9fed-f9f95730c517","name":"Nieuwstraat 63","address":"Nieuwstraat 63","city":"Son en Breugel","operatorName":"Vattenfall InCharge","maxPowerKw":11,"isMegawatt":false,"status":"AVAILABLE","source":"ndw"}},{"type":"Feature","geometry":{"type":"Point","coordinates":[5.51063,51.51841]},"properties":{"type":"charge","layer":"passenger","locationId":"97359e1e-5794-40bf-bb2b-85ac2c047c65","name":"Trompstraat","address":"Trompstraat 34","city":"Breugel","operatorName":"Vattenfall InCharge","maxPowerKw":11,"isMegawatt":false,"status":"AVAILABLE","source":"ndw"}},{"type":"Feature","geometry":{"type":"Point","coordinates":[5.478795,51.535335]},"properties":{"type":"charge","layer":"passenger","locationId":"0525c972-f129-11eb-87f2-42010a840003","name":"Fastned Sonse Heide","address":"Sonse Heide A50","city":"Son","operatorName":"Fastned","maxPowerKw":300,"isMegawatt":false,"status":"AVAILABLE","source":"ndw"}},{"type":"Feature","geometry":{"type":"Point","coordinates":[5.506733,51.52101]},"properties":{"type":"charge","layer":"passenger","locationId":"528ab2f8-e8d7-45b6-b69c-6164271cedc9","name":"Jupiterstraat","address":"Jupiterstraat 1","city":"Breugel","operatorName":"Vattenfall InCharge","maxPowerKw":11,"isMegawatt":false,"status":"AVAILABLE","source":"ndw"}},{"type":"Feature","geometry":{"type":"Point","coordinates":[5.48377,51.522939]},"properties":{"type":"charge","layer":"passenger","locationId":"a091f4ff-5fef-4977-9441-34f754f6560e","name":"IJssellaan","address":"IJssellaan 21","city":"Son","operatorName":"Vattenfall InCharge","maxPowerKw":11,"isMegawatt":false,"status":"AVAILABLE","source":"ndw"}},{"type":"Feature","geometry":{"type":"Point","coordinates":[5.487033,51.514795]},"properties":{"type":"charge","layer":"passenger","locationId":"ccf3e5a1bd77b7f8e3dd2f0de83023fb","name":"Rubensstraat 1","address":"Rubensstraat 1","city":"Son","operatorName":"Vattenfall InCharge","maxPowerKw":11,"isMegawatt":false,"status":"AVAILABLE","source":"ndw"}},{"type":"Feature","geometry":{"type":"Point","coordinates":[5.491163,51.511175]},"properties":{"type":"charge","layer":"passenger","locationId":"f48dad82-d350-4d41-830b-bce6ae916d89","name":"Septemberplein","address":"Septemberplein 7A","city":"Son","operatorName":"Vattenfall InCharge","maxPowerKw":11,"isMegawatt":false,"status":"AVAILABLE","source":"ndw"}},{"type":"Feature","geometry":{"type":"Point","coordinates":[5.517231,51.521242]},"properties":{"type":"charge","layer":"passenger","locationId":"59e34cb6-748a-4c54-b426-08eb0ef25529","name":"Zuiderkruislaan 45","address":"Zuiderkruislaan 45","city":"Breugel","operatorName":"Vattenfall InCharge","maxPowerKw":11,"isMegawatt":false,"status":"AVAILABLE","source":"ndw"}},{"type":"Feature","geometry":{"type":"Point","coordinates":[5.507135,51.512575]},"properties":{"type":"charge","layer":"passenger","locationId":"6f5c9613900a74ee90852b7e196efd67","name":"Sint Genovevastraat 2","address":"Sint Genovevastraat 2","city":"Breugel","operatorName":"Vattenfall InCharge","maxPowerKw":11,"isMegawatt":false,"status":"AVAILABLE","source":"ndw"}},{"type":"Feature","geometry":{"type":"Point","coordinates":[5.483442,51.523425]},"properties":{"type":"charge","layer":"passenger","locationId":"3632173","name":"Laadnet SENS","address":"Amerikalaan 5","city":"Son","operatorName":"Laadnet","maxPowerKw":22,"isMegawatt":false,"status":"AVAILABLE","source":"ndw"}},{"type":"Feature","geometry":{"type":"Point","coordinates":[5.51314,51.513378]},"properties":{"type":"charge","layer":"passenger","locationId":"677bec20b3376ffe9cc6081f","name":"Keske 6 P1","address":"Keske 6","city":"Son en Breugel","operatorName":"E-Flux by Road","maxPowerKw":11,"isMegawatt":false,"status":"CHARGING","source":"ndw"}},{"type":"Feature","geometry":{"type":"Point","coordinates":[5.493502,51.506043]},"properties":{"type":"charge","layer":"passenger","locationId":"84b5c0e3ca2b21a00d2985b884f44835","name":"Molenstraat 209","address":"Molenstraat 209","city":"Son","operatorName":"Vattenfall InCharge","maxPowerKw":11,"isMegawatt":false,"status":"AVAILABLE","source":"ndw"}},{"type":"Feature","geometry":{"type":"Point","coordinates":[5.460075,51.5007]},"properties":{"type":"charge","layer":"passenger","locationId":"689d90b5ced8fe2946f806d4","name":"Würth Elektronik Nederland BV","address":"Science Park Eindhoven 5204A","city":"Son","operatorName":"E-Flux by Road","maxPowerKw":22,"isMegawatt":false,"status":"AVAILABLE","source":"ndw","priceKwh":0.43}},{"type":"Feature","geometry":{"type":"Point","coordinates":[5.465964,51.499735]},"properties":{"type":"charge","layer":"passenger","locationId":"B6FEBC3B-4090-4D43-8FC6-1FCBF05ECFF4","name":"Eneco eMobility Ekkersrijt 4086","address":"Ekkersrijt 4086","city":"Son","operatorName":"Eneco","maxPowerKw":0,"isMegawatt":false,"status":"UNAVAILABLE","source":"ndw","priceKwh":0.32}},{"type":"Feature","geometry":{"type":"Point","coordinates":[5.493476,51.516127]},"properties":{"type":"charge","layer":"passenger","locationId":"fbd5930d-6d69-43e1-9677-b1cf933ff494","name":"Bremlaan 2","address":"Bremlaan 2","city":"Son","operatorName":"Vattenfall InCharge","maxPowerKw":11,"isMegawatt":false,"status":"AVAILABLE","source":"ndw"}},{"type":"Feature","geometry":{"type":"Point","coordinates":[5.516699,51.519496]},"properties":{"type":"charge","layer":"passenger","locationId":"1ad061c80abab366c0459584fb6847bf","name":"Grote Beerlaan 1","address":"Grote Beerlaan 1","city":"Son en Breugel","operatorName":"Vattenfall InCharge","maxPowerKw":11,"isMegawatt":false,"status":"AVAILABLE","source":"ndw"}},{"type":"Feature","geometry":{"type":"Point","coordinates":[5.490412,51.498473]},"properties":{"type":"charge","layer":"passenger","locationId":"3F07344A-9136-449C-92C8-6E4A7BFF3F3A","name":"Eneco eMobility FLP Eindhoven B.V.","address":"Ekkersrijt 1218","city":"Son","operatorName":"Eneco","maxPowerKw":22,"isMegawatt":false,"status":"AVAILABLE","source":"ndw","priceKwh":0.32}},{"type":"Feature","geometry":{"type":"Point","coordinates":[5.48402,51.52842]},"properties":{"type":"charge","layer":"passenger","locationId":"695f348aff93cc686b97cbe73d04ae8c","name":"Weserlaan 40A","address":"Weserlaan 40A","city":"Son","operatorName":"Vattenfall InCharge","maxPowerKw":11,"isMegawatt":false,"status":"AVAILABLE","source":"ndw"}},{"type":"Feature","geometry":{"type":"Point","coordinates":[5.464229,51.499433]},"properties":{"type":"charge","layer":"passenger","locationId":"66619e11643e69001c2428cd","name":"NXT 50five - Son - Poort van Ekkersrijt - AC","address":"Ekkersrijt 4090","city":"Son","operatorName":"NXT50Five","maxPowerKw":22,"isMegawatt":false,"status":"AVAILABLE","source":"ndw","priceKwh":0.62}},{"type":"Feature","geometry":{"type":"Point","coordinates":[5.467608,51.501522]},"properties":{"type":"charge","layer":"passenger","locationId":"61239b592bdd2701bab0a771","name":"Geert Schretlen 's station","address":"Ekkersrijt  4401","city":"Son","operatorName":"E-Flux by Road","maxPowerKw":22,"isMegawatt":false,"status":"AVAILABLE","source":"ndw","priceKwh":0.28}},{"type":"Feature","geometry":{"type":"Point","coordinates":[5.48354,51.49791]},"properties":{"type":"charge","layer":"passenger","locationId":"2FFFB35C-F7F7-4017-9DFB-D5CD0639775A","name":"Eneco eMobility Ekkersrijt 1502 Son","address":"Ekkersrijt 1502","city":"Son","operatorName":"Eneco","maxPowerKw":0,"isMegawatt":false,"status":"AVAILABLE","source":"ndw","priceKwh":0.32}},{"type":"Feature","geometry":{"type":"Point","coordinates":[5.479241,51.525845]},"properties":{"type":"charge","layer":"passenger","locationId":"da4fd2008d49862c97717c89763fcb26","name":"Peellaan 53","address":"Peellaan 53","city":"Son en Breugel","operatorName":"Vattenfall InCharge","maxPowerKw":11,"isMegawatt":false,"status":"CHARGING","source":"ndw"}},{"type":"Feature","geometry":{"type":"Point","coordinates":[5.464229,51.499433]},"properties":{"type":"charge","layer":"passenger","locationId":"6615080a2c17f2001c14ed1f","name":"NXT 50five -Son - Ekkersrijt 4090- DC","address":"Ekkersrijt 4090","city":"Son","operatorName":"NXT50Five","maxPowerKw":150,"isMegawatt":false,"status":"AVAILABLE","source":"ndw","priceKwh":0.73}},{"type":"Feature","geometry":{"type":"Point","coordinates":[5.48265,51.525087]},"properties":{"type":"charge","layer":"passenger","locationId":"6f732de8-8ca4-4ce9-beb5-9eee11e02b01","name":"Brabantlaan","address":"Brabantlaan 12","city":"Son","operatorName":"Vattenfall InCharge","maxPowerKw":11,"isMegawatt":false,"status":"AVAILABLE","source":"ndw"}},{"type":"Feature","geometry":{"type":"Point","coordinates":[5.48267,51.524031]},"properties":{"type":"charge","layer":"passenger","locationId":"bc8827233e5875130bd060d79b8054ba","name":"Brabantlaan 4","address":"Brabantlaan 4","city":"Son","operatorName":"Vattenfall InCharge","maxPowerKw":11,"isMegawatt":false,"status":"AVAILABLE","source":"ndw"}},{"type":"Feature","geometry":{"type":"Point","coordinates":[5.48012,51.50859]},"properties":{"type":"charge","layer":"passenger","locationId":"0c36fcd6d06997e92d120c1981b3c394","name":"Vlinderlaan 203","address":"Vlinderlaan 203","city":"Son","operatorName":"Vattenfall InCharge","maxPowerKw":11,"isMegawatt":false,"status":"CHARGING","source":"ndw"}},{"type":"Feature","geometry":{"type":"Point","coordinates":[5.48186,51.52507]},"properties":{"type":"charge","layer":"passenger","locationId":"460f5b703777efdd8ef94c12bd23ad4c","name":"Aziëlaan 25","address":"Aziëlaan 25","city":"Son","operatorName":"Vattenfall InCharge","maxPowerKw":11,"isMegawatt":false,"status":"AVAILABLE","source":"ndw"}},{"type":"Feature","geometry":{"type":"Point","coordinates":[5.490935,51.524354]},"properties":{"type":"charge","layer":"passenger","locationId":"279b45dd-a5e9-47c9-9f60-a8aeb70e3bc9","name":"Rooijseweg","address":"Rooijseweg 3","city":"Son","operatorName":"Vattenfall InCharge","maxPowerKw":11,"isMegawatt":false,"status":"AVAILABLE","source":"ndw"}},{"type":"Feature","geometry":{"type":"Point","coordinates":[5.486545,51.533882]},"properties":{"type":"charge","layer":"passenger","locationId":"88dbaf5e-b123-43ae-9566-3d9808a8f182","name":"Libellenlaan","address":"Libellenlaan 46","city":"Son","operatorName":"Vattenfall InCharge","maxPowerKw":11,"isMegawatt":false,"status":"AVAILABLE","source":"ndw"}},{"type":"Feature","geometry":{"type":"Point","coordinates":[5.492649,51.504891]},"properties":{"type":"charge","layer":"passenger","locationId":"60a77fce7e53d1aa579f64d7","name":"Restaurant Novité","address":"Kanaalstraat 1A","city":"Son","operatorName":"E-Flux by Road","maxPowerKw":22,"isMegawatt":false,"status":"UNAVAILABLE","source":"ndw"}},{"type":"Feature","geometry":{"type":"Point","coordinates":[5.484109,51.532862]},"properties":{"type":"charge","layer":"passenger","locationId":"9d27c11b-ba13-4a7d-b1a9-c0b7f6898eb6","name":"Keverlaan","address":"Keverlaan 68","city":"Son","operatorName":"Vattenfall InCharge","maxPowerKw":11,"isMegawatt":false,"status":"AVAILABLE","source":"ndw"}},{"type":"Feature","geometry":{"type":"Point","coordinates":[5.48547,51.527604]},"properties":{"type":"charge","layer":"passenger","locationId":"7adc3446-521a-4a34-8f6e-6cef77716d47","name":"Oderlaan","address":"Oderlaan 1","city":"Son","operatorName":"Vattenfall InCharge","maxPowerKw":11,"isMegawatt":false,"status":"AVAILABLE","source":"ndw"}},{"type":"Feature","geometry":{"type":"Point","coordinates":[5.506275,51.518585]},"properties":{"type":"charge","layer":"passenger","locationId":"8d299ec857199fc1196c902d7d6b0f28","name":"Van Speijklaan 31","address":"Van Speijklaan 31","city":"Breugel","operatorName":"Vattenfall InCharge","maxPowerKw":11,"isMegawatt":false,"status":"AVAILABLE","source":"ndw"}},{"type":"Feature","geometry":{"type":"Point","coordinates":[5.485352,51.534499]},"properties":{"type":"charge","layer":"passenger","locationId":"0fac1843d782ef514642a54acc15023f","name":"Glanslibel 5","address":"Glanslibel 5","city":"Son","operatorName":"Vattenfall InCharge","maxPowerKw":11,"isMegawatt":false,"status":"AVAILABLE","source":"ndw"}},{"type":"Feature","geometry":{"type":"Point","coordinates":[5.517924,51.520142]},"properties":{"type":"charge","layer":"passenger","locationId":"704cf27a-c58c-4fb7-962f-626877cd5b0f","name":"Grote Beerlaan","address":"Grote Beerlaan 31","city":"Breugel","operatorName":"Vattenfall InCharge","maxPowerKw":11,"isMegawatt":false,"status":"AVAILABLE","source":"ndw"}},{"type":"Feature","geometry":{"type":"Point","coordinates":[5.487739,51.532034]},"properties":{"type":"charge","layer":"passenger","locationId":"c81547b1260d973505dd8c9305b02751","name":"Zebrakever 28","address":"Zebrakever 28","city":"Son","operatorName":"Vattenfall InCharge","maxPowerKw":11,"isMegawatt":false,"status":"AVAILABLE","source":"ndw"}},{"type":"Feature","geometry":{"type":"Point","coordinates":[5.462594,51.500221]},"properties":{"type":"charge","layer":"passenger","locationId":"689d91b1aced7788a62634e4","name":"Würth Elektronik NEderland BV","address":"Science Park Eindhoven  5204A","city":"Son","operatorName":"E-Flux by Road","maxPowerKw":22,"isMegawatt":false,"status":"AVAILABLE","source":"ndw","priceKwh":0.43}},{"type":"Feature","geometry":{"type":"Point","coordinates":[5.480141,51.527786]},"properties":{"type":"charge","layer":"passenger","locationId":"9e871215d46d78a4a1079952d87f9ac3","name":"Seinelaan 8","address":"Seinelaan 8","city":"Son","operatorName":"Vattenfall InCharge","maxPowerKw":11,"isMegawatt":false,"status":"AVAILABLE","source":"ndw"}},{"type":"Feature","geometry":{"type":"Point","coordinates":[5.507715,51.515795]},"properties":{"type":"charge","layer":"passenger","locationId":"22777394-58f8-4dec-84a3-c77ac4a8e83a","name":"Weverstraat","address":"Weverstraat 7","city":"Breugel","operatorName":"Vattenfall InCharge","maxPowerKw":11,"isMegawatt":false,"status":"AVAILABLE","source":"ndw"}},{"type":"Feature","geometry":{"type":"Point","coordinates":[5.479738,51.524018]},"properties":{"type":"charge","layer":"passenger","locationId":"f530cb45-3741-4731-a62a-98fa09e54b09","name":"Drentelaan","address":"Drentelaan 10","city":"Son","operatorName":"Vattenfall InCharge","maxPowerKw":11,"isMegawatt":false,"status":"AVAILABLE","source":"ndw"}},{"type":"Feature","geometry":{"type":"Point","coordinates":[5.50586,51.5185]},"properties":{"type":"charge","layer":"passenger","locationId":"ca0ecc57-a4c2-4d7b-b8a4-6c6ff03306da","name":"Doormanlaan","address":"Doormanlaan 72","city":"Breugel","operatorName":"Vattenfall InCharge","maxPowerKw":11,"isMegawatt":false,"status":"CHARGING","source":"ndw"}},{"type":"Feature","geometry":{"type":"Point","coordinates":[5.492301,51.51332]},"properties":{"type":"charge","layer":"passenger","locationId":"8852a5ee-b352-43cb-95e6-d46b79b84d49","name":"Rietlaan 12","address":"Rietlaan 12","city":"Son","operatorName":"Vattenfall InCharge","maxPowerKw":11,"isMegawatt":false,"status":"AVAILABLE","source":"ndw"}},{"type":"Feature","geometry":{"type":"Point","coordinates":[5.487051,51.533849]},"properties":{"type":"charge","layer":"passenger","locationId":"1dea0b48-0d99-42aa-87b8-aaee4efb2bb5","name":"Zebrakever","address":"Zebrakever 56","city":"Son en Breugel","operatorName":"Vattenfall InCharge","maxPowerKw":11,"isMegawatt":false,"status":"AVAILABLE","source":"ndw"}},{"type":"Feature","geometry":{"type":"Point","coordinates":[5.491015,51.511866]},"properties":{"type":"charge","layer":"passenger","locationId":"38fda8f6-c104-42ff-aa41-2ce4f2b66a19","name":"Septemberplein","address":"Septemberplein 17","city":"SON EN BREUGEL","operatorName":"Vattenfall InCharge","maxPowerKw":11,"isMegawatt":false,"status":"AVAILABLE","source":"ndw"}},{"type":"Feature","geometry":{"type":"Point","coordinates":[5.487536,51.531172]},"properties":{"type":"charge","layer":"passenger","locationId":"5a768f57-3362-4e05-8f44-bfabc7061a8c","name":"Spiegelkever 2","address":"Spiegelkever 2","city":"Son","operatorName":"Vattenfall InCharge","maxPowerKw":11,"isMegawatt":false,"status":"CHARGING","source":"ndw"}},{"type":"Feature","geometry":{"type":"Point","coordinates":[5.49504,51.51686]},"properties":{"type":"charge","layer":"passenger","locationId":"022798b0851898ed97b27ddce8cbc6f6","name":"Lupinelaan 7","address":"Lupinelaan 7","city":"Son","operatorName":"Vattenfall InCharge","maxPowerKw":11,"isMegawatt":false,"status":"AVAILABLE","source":"ndw"}},{"type":"Feature","geometry":{"type":"Point","coordinates":[5.492772,51.507044]},"properties":{"type":"charge","layer":"passenger","locationId":"db080257-26a0-4473-a9da-90ff8b192266","name":"Molenstraat","address":"Molenstraat 1","city":"Son","operatorName":"Vattenfall InCharge","maxPowerKw":11,"isMegawatt":false,"status":"CHARGING","source":"ndw"}},{"type":"Feature","geometry":{"type":"Point","coordinates":[5.484874,51.515463]},"properties":{"type":"charge","layer":"passenger","locationId":"55d620479f48cb402d1cbea70d580d38","name":"Doctor Berlagelaan 19","address":"Doctor Berlagelaan 19","city":"Son","operatorName":"Vattenfall InCharge","maxPowerKw":11,"isMegawatt":false,"status":"AVAILABLE","source":"ndw"}},{"type":"Feature","geometry":{"type":"Point","coordinates":[5.48396,51.52742]},"properties":{"type":"charge","layer":"passenger","locationId":"036ae1632eb8ac062583892a62fafd42","name":"Oderlaan 38","address":"Oderlaan 38","city":"Son","operatorName":"Vattenfall InCharge","maxPowerKw":11,"isMegawatt":false,"status":"AVAILABLE","source":"ndw"}},{"type":"Feature","geometry":{"type":"Point","coordinates":[5.474673,51.505646]},"properties":{"type":"charge","layer":"passenger","locationId":"46309aa48ba6ff040c6ea874d63cce7b","name":"Houtens 25","address":"Houtens 25","city":"Son","operatorName":"Vattenfall InCharge","maxPowerKw":11,"isMegawatt":false,"status":"AVAILABLE","source":"ndw"}},{"type":"Feature","geometry":{"type":"Point","coordinates":[5.510986,51.521306]},"properties":{"type":"charge","layer":"passenger","locationId":"7b85413c-da9a-47a1-a315-b2cc117d318d","name":"Uranuslaan","address":"Uranuslaan 12","city":"Son en Breugel","operatorName":"Vattenfall InCharge","maxPowerKw":11,"isMegawatt":false,"status":"CHARGING","source":"ndw"}},{"type":"Feature","geometry":{"type":"Point","coordinates":[5.474988,51.509344]},"properties":{"type":"charge","layer":"passenger","locationId":"db43efb7-fedd-4c69-bd40-cd441d2e76f1","name":"Vlinderlaan","address":"Vlinderlaan 49","city":"Son","operatorName":"Vattenfall InCharge","maxPowerKw":11,"isMegawatt":false,"status":"AVAILABLE","source":"ndw"}},{"type":"Feature","geometry":{"type":"Point","coordinates":[5.481165,51.506647]},"properties":{"type":"charge","layer":"passenger","locationId":"a59f8f10-a665-4ec5-8f64-107c9bbe5b3c","name":"Vlinderlaan","address":"Vlinderlaan 147","city":"Son en Breugel","operatorName":"Vattenfall InCharge","maxPowerKw":11,"isMegawatt":false,"status":"AVAILABLE","source":"ndw"}},{"type":"Feature","geometry":{"type":"Point","coordinates":[5.507656,51.51787]},"properties":{"type":"charge","layer":"passenger","locationId":"b18afb51bd026f8108da217a604fd4fa","name":"Van Galenstraat 21","address":"Van Galenstraat 21","city":"Breugel","operatorName":"Vattenfall InCharge","maxPowerKw":11,"isMegawatt":false,"status":"AVAILABLE","source":"ndw"}},{"type":"Feature","geometry":{"type":"Point","coordinates":[5.485401,51.524699]},"properties":{"type":"charge","layer":"passenger","locationId":"c0c077e0-2341-4597-9c6c-a68b347188c5","name":"Afrikalaan","address":"Afrikalaan 17","city":"Son","operatorName":"Vattenfall InCharge","maxPowerKw":11,"isMegawatt":false,"status":"AVAILABLE","source":"ndw"}},{"type":"Feature","geometry":{"type":"Point","coordinates":[5.47835,51.52607]},"properties":{"type":"charge","layer":"passenger","locationId":"d80d6fef46614df782e6c1b96125f435","name":"Twentepad 8","address":"Twentepad 8","city":"Son","operatorName":"Vattenfall InCharge","maxPowerKw":11,"isMegawatt":false,"status":"CHARGING","source":"ndw"}},{"type":"Feature","geometry":{"type":"Point","coordinates":[5.506926,51.517982]},"properties":{"type":"charge","layer":"passenger","locationId":"abef201ff957c00f0a67cf2afeec25cf","name":"Van Galenstraat 25","address":"Van Galenstraat 25","city":"Son en Breugel","operatorName":"Vattenfall InCharge","maxPowerKw":11,"isMegawatt":false,"status":"AVAILABLE","source":"ndw"}},{"type":"Feature","geometry":{"type":"Point","coordinates":[5.51452,51.52122]},"properties":{"type":"charge","layer":"passenger","locationId":"0a696c20-6066-4640-b1a4-5b5c4811fa3e","name":"Vestapad 34","address":"Vestapad 34","city":"Breugel","operatorName":"Vattenfall InCharge","maxPowerKw":11,"isMegawatt":false,"status":"AVAILABLE","source":"ndw"}},{"type":"Feature","geometry":{"type":"Point","coordinates":[5.483897,51.529635]},"properties":{"type":"charge","layer":"passenger","locationId":"c6a56165-69e9-4f80-b50f-c23e65f48923","name":"Honingbij","address":"Honingbij 74","city":"Son","operatorName":"Vattenfall InCharge","maxPowerKw":11,"isMegawatt":false,"status":"AVAILABLE","source":"ndw"}},{"type":"Feature","geometry":{"type":"Point","coordinates":[5.512668,51.521987]},"properties":{"type":"charge","layer":"passenger","locationId":"8175e4c9-eb36-4fb7-9706-afbef89e72be","name":"Pallaspad 39","address":"Pallaspad 39","city":"Breugel","operatorName":"Vattenfall InCharge","maxPowerKw":11,"isMegawatt":false,"status":"AVAILABLE","source":"ndw"}},{"type":"Feature","geometry":{"type":"MultiPolygon","coordinates":[[[[5.487943248359212,51.541362221306116],[5.488814049248771,51.53328481058066],[5.493447701210592,51.52668514801217],[5.494252323716199,51.52720596807627],[5.496451155104476,51.52704830787417],[5.49827016872085,51.52852923639462],[5.501896887291168,51.527436725628434],[5.501857063097044,51.52672645625267],[5.502570205767562,51.527292764628896],[5.503723795045031,51.52649604282107],[5.503341472118588,51.525788767292326],[5.499922520420355,51.52520313364759],[5.5001074973415145,51.52137669391455],[5.5054519902093695,51.521666868445834],[5.506563593781889,51.52303629542835],[5.508339737838579,51.523827305969746],[5.508930065257563,51.52268661811688],[5.513029122060018,51.524295960238994],[5.514550019026171,51.52324868863301],[5.519780445834041,51.52246429666534],[5.521063462530823,51.52290202394412],[5.521602002152886,51.52244816626227],[5.522612264387999,51.52343039924708],[5.52504652498867,51.521868586116966],[5.530862303582377,51.52504825535053],[5.536732146501933,51.52505154856445],[5.536810277649418,51.52600577200567],[5.54019367544591,51.526011352556274],[5.543160660221637,51.52362966342149],[5.544746600619579,51.52353695059797],[5.5440288625424055,51.52175759195946],[5.545633004887194,51.51994929237623],[5.540673516635759,51.52066450532362],[5.541756763221687,51.51807417626448],[5.544362261893742,51.51568397722863],[5.54627156061194,51.51269525399799],[5.542271107377892,51.5106266189005],[5.538674535010764,51.50759552968292],[5.532793101870164,51.5052117390246],[5.531618138229988,51.5055603378345],[5.527833178290047,51.5023186159794],[5.525972721103762,51.50229233294791],[5.526115267983261,51.50144593618979],[5.523981709644117,51.50194582718307],[5.5185978784360055,51.50199538887111],[5.514938202652425,51.49998120875863],[5.509790963670162,51.498587144877874],[5.5102390839924205,51.49728663183596],[5.511422830034592,51.4969217587962],[5.4963762707819255,51.49677769768867],[5.496212563874448,51.496775871638974],[5.479143244293791,51.49661265634556],[5.4764461628431045,51.49706794981207],[5.472131724512245,51.495741846048766],[5.468736548330881,51.49579171136153],[5.468248523550598,51.49684355588552],[5.463893668428755,51.496978117645014],[5.451295804966516,51.49546376935989],[5.449781817675144,51.4952489987366],[5.442569049096644,51.493926849341044],[5.440703284211057,51.49605892121683],[5.447506209549603,51.51206857961344],[5.433368935856694,51.52439668297773],[5.426582665117999,51.53127646378098],[5.4275036542330755,51.53166595673857],[5.426432401432901,51.53273243769754],[5.425461893793487,51.53241243922005],[5.423841440999212,51.534054757063764],[5.429833415624961,51.53496978981507],[5.431571269528803,51.533346539272245],[5.43442298457841,51.534327699102604],[5.437410918500499,51.53397244622523],[5.457008506070423,51.53801136149794],[5.468282491557575,51.54064640779681],[5.482748168353999,51.5415707386864],[5.487144372967991,51.541847970854455],[5.487943248359212,51.541362221306116]]]]},"properties":{"type":"boundary","gemeente":"Son en Breugel","code":"GM0848"}}]}