{"type":"FeatureCollection","metadata":{"gemeente":"Steenbergen","slug":"steenbergen","code":"GM0851","generated_at":"2026-06-07T19:22:09.578Z","total_passenger":121,"total_freight":0,"bounds":[4.190162549587057,51.544002981988164,4.443998796864329,51.6571362235598],"operators":["Allego","E-Flux by Road","Eneco","Laadnet","Pluq","Tango electric","Vattenfall InCharge"]},"features":[{"type":"Feature","geometry":{"type":"Point","coordinates":[4.302767,51.58867]},"properties":{"type":"charge","layer":"passenger","locationId":"a4d32363-0692-4416-ae11-2c130888a921","name":"Tango Steenbergen 3-4","address":"Koperslagerij 2a","city":"Steenbergen","operatorName":"Tango electric","maxPowerKw":300,"isMegawatt":false,"status":"AVAILABLE","source":"ndw","priceKwh":0.6}},{"type":"Feature","geometry":{"type":"Point","coordinates":[4.364179,51.639435]},"properties":{"type":"charge","layer":"passenger","locationId":"509719bc-a3b8-41a1-884a-f612b871ec20","name":"Vezelstraat","address":"Vezelstraat 8","city":"Dinteloord","operatorName":"Vattenfall InCharge","maxPowerKw":11,"isMegawatt":false,"status":"AVAILABLE","source":"ndw"}},{"type":"Feature","geometry":{"type":"Point","coordinates":[4.3104,51.57884]},"properties":{"type":"charge","layer":"passenger","locationId":"2cf985a6-fc36-11ec-b5b0-42010aa40003","name":"Eneco eMobility Fujifilm Imaging Products & Solutions B.V. - Steenbergen","address":"Franseweg 65","city":"Steenbergen","operatorName":"Eneco","maxPowerKw":22,"isMegawatt":false,"status":"AVAILABLE","source":"ndw","priceKwh":0.32}},{"type":"Feature","geometry":{"type":"Point","coordinates":[4.318021,51.590022]},"properties":{"type":"charge","layer":"passenger","locationId":"0b22d9e7-94ba-4d2b-84d5-e77da3f475a2","name":"Wijngaarden Bolwerk","address":"Wijngaarden Bolwerk 42","city":"Steenbergen","operatorName":"Vattenfall InCharge","maxPowerKw":11,"isMegawatt":false,"status":"AVAILABLE","source":"ndw"}},{"type":"Feature","geometry":{"type":"Point","coordinates":[4.320539,51.579515]},"properties":{"type":"charge","layer":"passenger","locationId":"c16c9512-4de3-462d-8d29-cdbd102001b8","name":"Seringenlaan 42","address":"Seringenlaan 42","city":"Steenbergen","operatorName":"Vattenfall InCharge","maxPowerKw":11,"isMegawatt":false,"status":"AVAILABLE","source":"ndw"}},{"type":"Feature","geometry":{"type":"Point","coordinates":[4.313684,51.574715]},"properties":{"type":"charge","layer":"passenger","locationId":"bfd2bb4f-8dfa-41da-bacb-7d998891169b","name":"Dalem","address":"Dalem 7","city":"Steenbergen","operatorName":"Vattenfall InCharge","maxPowerKw":11,"isMegawatt":false,"status":"CHARGING","source":"ndw"}},{"type":"Feature","geometry":{"type":"Point","coordinates":[4.413422,51.619476]},"properties":{"type":"charge","layer":"passenger","locationId":"4216606","name":"Laadnet Rijk Zwaan Berries","address":"Dwarsweg 1","city":"Dinteloord","operatorName":"Laadnet","maxPowerKw":22,"isMegawatt":false,"status":"AVAILABLE","source":"ndw"}},{"type":"Feature","geometry":{"type":"Point","coordinates":[4.330668,51.588216]},"properties":{"type":"charge","layer":"passenger","locationId":"4217699","name":"Laadnet AVIA Steenbergen","address":"Nassaulaan 6","city":"Steenbergen","operatorName":"Laadnet","maxPowerKw":22,"isMegawatt":false,"status":"AVAILABLE","source":"ndw"}},{"type":"Feature","geometry":{"type":"Point","coordinates":[4.219061,51.591634]},"properties":{"type":"charge","layer":"passenger","locationId":"61d18eb2-a2dd-4378-a30d-a28c44e984d8","name":"Merijntje Gijzenstraat","address":"Merijntje Gijzenstraat 15","city":"Nieuw-Vossemeer","operatorName":"Vattenfall InCharge","maxPowerKw":11,"isMegawatt":false,"status":"AVAILABLE","source":"ndw"}},{"type":"Feature","geometry":{"type":"Point","coordinates":[4.369486,51.635331]},"properties":{"type":"charge","layer":"passenger","locationId":"7c0d51dc-4f3c-11e8-a0ad-42010a840002","name":"NLD, Dinteloord, Steenbergseweg 6","address":"Steenbergseweg 6","city":"Dinteloord","operatorName":"Allego","maxPowerKw":0,"isMegawatt":false,"status":"AVAILABLE","source":"ndw"}},{"type":"Feature","geometry":{"type":"Point","coordinates":[4.302767,51.58867]},"properties":{"type":"charge","layer":"passenger","locationId":"45ae0950-6549-11ee-883c-42010aa40fc0","name":"Tango Steenbergen 3-4","address":"Koperslagerij 2a","city":"Steenbergen","operatorName":"Tango electric","maxPowerKw":300,"isMegawatt":false,"status":"AVAILABLE","source":"ndw","priceKwh":0.57}},{"type":"Feature","geometry":{"type":"Point","coordinates":[4.306266,51.589345]},"properties":{"type":"charge","layer":"passenger","locationId":"4233754","name":"Laadnet Autobedrijf Raaijmakers","address":"Prins Reinierstraat 14","city":"Steenbergen","operatorName":"Laadnet","maxPowerKw":11,"isMegawatt":false,"status":"AVAILABLE","source":"ndw"}},{"type":"Feature","geometry":{"type":"Point","coordinates":[4.302621,51.588057]},"properties":{"type":"charge","layer":"passenger","locationId":"62419ab3537d3e135f1381a2","name":"Van Gils Autoschade BV","address":"Koperslagerij  2","city":"Steenbergen","operatorName":"E-Flux by Road","maxPowerKw":22,"isMegawatt":false,"status":"AVAILABLE","source":"ndw","priceKwh":0.52}},{"type":"Feature","geometry":{"type":"Point","coordinates":[4.31776,51.588592]},"properties":{"type":"charge","layer":"passenger","locationId":"8ef4ab60-4f3c-11e8-ae1b-42010a840002","name":"NLD, Steenbergen, Nieuwstad 2","address":"Nieuwstad 2","city":"Steenbergen","operatorName":"Allego","maxPowerKw":0,"isMegawatt":false,"status":"AVAILABLE","source":"ndw"}},{"type":"Feature","geometry":{"type":"Point","coordinates":[4.398543,51.630453]},"properties":{"type":"charge","layer":"passenger","locationId":"4174683","name":"Laadnet Lans Westland b.v.","address":"Willemspolderweg 2","city":"Dinteloord","operatorName":"Laadnet","maxPowerKw":22,"isMegawatt":false,"status":"AVAILABLE","source":"ndw"}},{"type":"Feature","geometry":{"type":"Point","coordinates":[4.320668,51.588146]},"properties":{"type":"charge","layer":"passenger","locationId":"b498c96b-a6a2-44a3-9cb7-712ad673c725","name":"Oostdam","address":"Oostdam 29","city":"Steenbergen","operatorName":"Vattenfall InCharge","maxPowerKw":11,"isMegawatt":false,"status":"AVAILABLE","source":"ndw"}},{"type":"Feature","geometry":{"type":"Point","coordinates":[4.395085,51.622999]},"properties":{"type":"charge","layer":"passenger","locationId":"4174689","name":"Laadnet Lans Westland b.v.","address":"Symbiose 9","city":"Dinteloord","operatorName":"Laadnet","maxPowerKw":22,"isMegawatt":false,"status":"AVAILABLE","source":"ndw"}},{"type":"Feature","geometry":{"type":"Point","coordinates":[4.316407,51.573964]},"properties":{"type":"charge","layer":"passenger","locationId":"69330457e48c887cb0e553a3","name":"Dennenplein","address":"Dennenplein 16","city":"Steenbergen","operatorName":"E-Flux by Road","maxPowerKw":4,"isMegawatt":false,"status":"AVAILABLE","source":"ndw","priceKwh":0.73}},{"type":"Feature","geometry":{"type":"Point","coordinates":[4.321075,51.586903]},"properties":{"type":"charge","layer":"passenger","locationId":"NLLOC007308","name":"NL, Ruiterstallen 8, 4651 ER, Steenbergen","address":"Ruiterstallen 8","city":"Steenbergen","operatorName":"Allego","maxPowerKw":0,"isMegawatt":false,"status":"AVAILABLE","source":"ndw","priceKwh":0.511}},{"type":"Feature","geometry":{"type":"Point","coordinates":[4.314648,51.590204]},"properties":{"type":"charge","layer":"passenger","locationId":"5ddd1f1c-4f3c-11e8-9b7d-42010a840002","name":"NLD, Steenbergen, Buiten de Veste 1","address":"Buiten de Veste 1","city":"Steenbergen","operatorName":"Allego","maxPowerKw":0,"isMegawatt":false,"status":"AVAILABLE","source":"ndw"}},{"type":"Feature","geometry":{"type":"Point","coordinates":[4.31485,51.58517]},"properties":{"type":"charge","layer":"passenger","locationId":"ff221bf7b8ed42e45f4dbf94a3297140","name":"Lieve Vrouwepoort 3","address":"Lieve Vrouwepoort 3","city":"Steenbergen","operatorName":"Vattenfall InCharge","maxPowerKw":11,"isMegawatt":false,"status":"AVAILABLE","source":"ndw"}},{"type":"Feature","geometry":{"type":"Point","coordinates":[4.313864,51.588304]},"properties":{"type":"charge","layer":"passenger","locationId":"10534405-C281-4691-BFDE-3CDAE13CCA87","name":"Eneco eMobility Lindeburghlaan 7 Steenbergen","address":"Lindeburghlaan 7","city":"Steenbergen","operatorName":"Eneco","maxPowerKw":0,"isMegawatt":false,"status":"AVAILABLE","source":"ndw","priceKwh":0.32}},{"type":"Feature","geometry":{"type":"Point","coordinates":[4.363184,51.635926]},"properties":{"type":"charge","layer":"passenger","locationId":"d286645e-e17b-11e9-b2dd-42010a840003","name":"NLD, Dinteloord, Europastraat 42","address":"Europastraat 42","city":"Dinteloord","operatorName":"Allego","maxPowerKw":0,"isMegawatt":false,"status":"AVAILABLE","source":"ndw"}},{"type":"Feature","geometry":{"type":"Point","coordinates":[4.3104,51.57884]},"properties":{"type":"charge","layer":"passenger","locationId":"23FEEFD8-6606-423E-B054-724B1F7CEF30","name":"Eneco eMobility Fujifilm Imaging Products & Solutions B.V. - Steenbergen","address":"Franseweg 65","city":"Steenbergen","operatorName":"Eneco","maxPowerKw":22,"isMegawatt":false,"status":"AVAILABLE","source":"ndw","priceKwh":0.32}},{"type":"Feature","geometry":{"type":"Point","coordinates":[4.316807,51.580366]},"properties":{"type":"charge","layer":"passenger","locationId":"5d8980dc-4f3c-11e8-afc9-42010a840002","name":"NLD, Steenbergen, Irisstraat 23","address":"Irisstraat 23","city":"Steenbergen","operatorName":"Allego","maxPowerKw":0,"isMegawatt":false,"status":"AVAILABLE","source":"ndw"}},{"type":"Feature","geometry":{"type":"Point","coordinates":[4.312396,51.573938]},"properties":{"type":"charge","layer":"passenger","locationId":"d4c103c4-e69b-11eb-9a2c-42010a840003","name":"NL, Montenaken 38, 4651 JL Steenbergen","address":"Montenaken 38","city":"Steenbergen","operatorName":"Allego","maxPowerKw":0,"isMegawatt":false,"status":"AVAILABLE","source":"ndw"}},{"type":"Feature","geometry":{"type":"Point","coordinates":[4.40729,51.570762]},"properties":{"type":"charge","layer":"passenger","locationId":"7921d439-ad0e-423c-8504-a6c059233aca","name":"Graaf Engelbrechtstraat","address":"Graaf Engelbrechtstraat 12","city":"Kruisland","operatorName":"Vattenfall InCharge","maxPowerKw":11,"isMegawatt":false,"status":"AVAILABLE","source":"ndw"}},{"type":"Feature","geometry":{"type":"Point","coordinates":[4.368845,51.637149]},"properties":{"type":"charge","layer":"passenger","locationId":"88ea0543-f070-4c81-94d9-ad166fbd0c9b","name":"Westgroeneweg","address":"Westgroeneweg 14","city":"Dinteloord","operatorName":"Vattenfall InCharge","maxPowerKw":11,"isMegawatt":false,"status":"CHARGING","source":"ndw"}},{"type":"Feature","geometry":{"type":"Point","coordinates":[4.329413,51.57659]},"properties":{"type":"charge","layer":"passenger","locationId":"49dfaa3a-10aa-11ea-8e33-42010a840003","name":"NLD Kapelaan Kockstraat 45A, 4651 XC Steenbergen","address":"Kapelaan Kockstraat 45A","city":"Steenbergen","operatorName":"Allego","maxPowerKw":0,"isMegawatt":false,"status":"CHARGING","source":"ndw"}},{"type":"Feature","geometry":{"type":"Point","coordinates":[4.321075,51.586903]},"properties":{"type":"charge","layer":"passenger","locationId":"7f6ad18a-bb21-11ea-83e3-42010a840003","name":"NL, Ruiterstallen 8, 4651 ER, Steenbergen","address":"Ruiterstallen 8","city":"Steenbergen","operatorName":"Allego","maxPowerKw":0,"isMegawatt":false,"status":"AVAILABLE","source":"ndw"}},{"type":"Feature","geometry":{"type":"Point","coordinates":[4.218908,51.586844]},"properties":{"type":"charge","layer":"passenger","locationId":"bf1d3964-cdfd-11ea-b15b-42010a840003","name":"NL, Voorstraat 46A 4681 AE Nieuw- Vossemeer","address":"Voorstraat 46A","city":"Nieuw-Vossemeer","operatorName":"Allego","maxPowerKw":0,"isMegawatt":false,"status":"AVAILABLE","source":"ndw"}},{"type":"Feature","geometry":{"type":"Point","coordinates":[4.315992,51.585016]},"properties":{"type":"charge","layer":"passenger","locationId":"8f4eb484-4f3c-11e8-83a0-42010a840002","name":"NLD, Steenbergen, Van Gaverenlaan 45","address":"Van Gaverenlaan 45","city":"Steenbergen","operatorName":"Allego","maxPowerKw":0,"isMegawatt":false,"status":"AVAILABLE","source":"ndw"}},{"type":"Feature","geometry":{"type":"Point","coordinates":[4.327406,51.590897]},"properties":{"type":"charge","layer":"passenger","locationId":"af793424-e0b2-11e9-9b50-42010a840003","name":"NLD, Steenbergen, Noorddonk 132","address":"Noorddonk 132","city":"Steenbergen","operatorName":"Allego","maxPowerKw":0,"isMegawatt":false,"status":"AVAILABLE","source":"ndw"}},{"type":"Feature","geometry":{"type":"Point","coordinates":[4.323939,51.583128]},"properties":{"type":"charge","layer":"passenger","locationId":"0bb133ce-0fe1-11ea-9090-42010a840003","name":"NLD, Steenbergen, Krommeweg 1","address":"Krommeweg 1","city":"Steenbergen","operatorName":"Allego","maxPowerKw":0,"isMegawatt":false,"status":"AVAILABLE","source":"ndw"}},{"type":"Feature","geometry":{"type":"Point","coordinates":[4.332371,51.576517]},"properties":{"type":"charge","layer":"passenger","locationId":"009e7083-17e1-4af3-a65a-5801c5dab26b","name":"Kartuizerstraat 2","address":"Kartuizerstraat 2","city":"Steenbergen","operatorName":"Vattenfall InCharge","maxPowerKw":11,"isMegawatt":false,"status":"AVAILABLE","source":"ndw"}},{"type":"Feature","geometry":{"type":"Point","coordinates":[4.372948,51.637474]},"properties":{"type":"charge","layer":"passenger","locationId":"09ff4e46-7eab-11f0-96d5-42010aa40043","name":"NLD, Steenbergen, Oostvoorstraat 3","address":"Oostvoorstraat 3","city":"Steenbergen","operatorName":"Allego","maxPowerKw":0,"isMegawatt":false,"status":"AVAILABLE","source":"ndw"}},{"type":"Feature","geometry":{"type":"Point","coordinates":[4.327774,51.578251]},"properties":{"type":"charge","layer":"passenger","locationId":"b9ade977d97df94f15e65d3defa9d657","name":"Kapelaan Kockstraat 77","address":"Kapelaan Kockstraat 77","city":"Steenbergen","operatorName":"Vattenfall InCharge","maxPowerKw":11,"isMegawatt":false,"status":"AVAILABLE","source":"ndw"}},{"type":"Feature","geometry":{"type":"Point","coordinates":[4.365048,51.637656]},"properties":{"type":"charge","layer":"passenger","locationId":"7dc42a16-0b8f-4cbc-ab37-3a3373b292f6","name":"Princes Irenestraat","address":"Princes Irenestraat 39","city":"Dinteloord","operatorName":"Vattenfall InCharge","maxPowerKw":11,"isMegawatt":false,"status":"CHARGING","source":"ndw"}},{"type":"Feature","geometry":{"type":"Point","coordinates":[4.36804,51.638889]},"properties":{"type":"charge","layer":"passenger","locationId":"30892102-52ad-11ea-b514-42010a840003","name":"NL, Schaepmanstraat 2, 4671 KE, Dinteloord","address":"Schaepmanstraat 2","city":"Dinteloord","operatorName":"Allego","maxPowerKw":0,"isMegawatt":false,"status":"AVAILABLE","source":"ndw"}},{"type":"Feature","geometry":{"type":"Point","coordinates":[4.372646,51.637526]},"properties":{"type":"charge","layer":"passenger","locationId":"bb81e904-0984-11f0-a152-42010aa400b8","name":"NL, Westvoorstraat 4, 4671CD Nieuw-Vossemeer","address":"Westvoorstraat 4","city":"Steenbergen","operatorName":"Allego","maxPowerKw":0,"isMegawatt":false,"status":"AVAILABLE","source":"ndw"}},{"type":"Feature","geometry":{"type":"Point","coordinates":[4.375182,51.632502]},"properties":{"type":"charge","layer":"passenger","locationId":"3b0bdfec074f9a35e4c4c3a88ee8e310","name":"Weidemolen 15","address":"Weidemolen 15","city":"Dinteloord","operatorName":"Vattenfall InCharge","maxPowerKw":11,"isMegawatt":false,"status":"AVAILABLE","source":"ndw"}},{"type":"Feature","geometry":{"type":"Point","coordinates":[4.364268,51.629069]},"properties":{"type":"charge","layer":"passenger","locationId":"69ddf7a769453600895789d9","name":"Tankstation Vlamings B.V.","address":"Steenbergseweg 97B","city":"Dinteloord","operatorName":"E-Flux by Road","maxPowerKw":240,"isMegawatt":false,"status":"AVAILABLE","source":"ndw","priceKwh":0.6085}},{"type":"Feature","geometry":{"type":"Point","coordinates":[4.215606,51.589598]},"properties":{"type":"charge","layer":"passenger","locationId":"96e22f68-c2fe-11ea-97df-42010a840003","name":"NL, Lijsterbeslaan, 2, 4681BA, Steenbergen","address":"Lijsterbeslaan 2","city":"Steenbergen","operatorName":"Allego","maxPowerKw":0,"isMegawatt":false,"status":"AVAILABLE","source":"ndw"}},{"type":"Feature","geometry":{"type":"Point","coordinates":[4.271258,51.610319]},"properties":{"type":"charge","layer":"passenger","locationId":"42246634-ba58-11ea-bf5f-42010a840003","name":"NL, Heensedijk 31, 4655 AK, De Heen","address":"Heensedijk 31","city":"De Heen","operatorName":"Allego","maxPowerKw":0,"isMegawatt":false,"status":"AVAILABLE","source":"ndw"}},{"type":"Feature","geometry":{"type":"Point","coordinates":[4.321781,51.586375]},"properties":{"type":"charge","layer":"passenger","locationId":"dd4d4391-5b4c-42ae-9a7c-442bf4acf955","name":"Van Hoogendorpstraat","address":"Van Hoogendorpstraat 12","city":"Steenbergen","operatorName":"Vattenfall InCharge","maxPowerKw":11,"isMegawatt":false,"status":"AVAILABLE","source":"ndw"}},{"type":"Feature","geometry":{"type":"Point","coordinates":[4.32624,51.591246]},"properties":{"type":"charge","layer":"passenger","locationId":"3b8e84a7-d248-43fc-a921-75e49a11907b","name":"Oudesaag","address":"Oudesaag 9","city":"Steenbergen","operatorName":"Vattenfall InCharge","maxPowerKw":11,"isMegawatt":false,"status":"AVAILABLE","source":"ndw"}},{"type":"Feature","geometry":{"type":"Point","coordinates":[4.314085,51.573037]},"properties":{"type":"charge","layer":"passenger","locationId":"8831f304bda611d903048312464ced02","name":"Wolfersblok 12","address":"Wolfersblok 12","city":"Steenbergen","operatorName":"Vattenfall InCharge","maxPowerKw":11,"isMegawatt":false,"status":"AVAILABLE","source":"ndw"}},{"type":"Feature","geometry":{"type":"Point","coordinates":[4.329953,51.588196]},"properties":{"type":"charge","layer":"passenger","locationId":"a2440ee44f818a680920e5a66645cddb","name":"Nassaulaan 6","address":"Nassaulaan 6","city":"Steenbergen","operatorName":"Vattenfall InCharge","maxPowerKw":11,"isMegawatt":false,"status":"AVAILABLE","source":"ndw"}},{"type":"Feature","geometry":{"type":"Point","coordinates":[4.31922,51.58282]},"properties":{"type":"charge","layer":"passenger","locationId":"0cbf3c53a30c7f34f09b6a7f9f61d1cf","name":"De Spindel 26","address":"De Spindel 26","city":"Steenbergen","operatorName":"Vattenfall InCharge","maxPowerKw":11,"isMegawatt":false,"status":"AVAILABLE","source":"ndw"}},{"type":"Feature","geometry":{"type":"Point","coordinates":[4.218908,51.586844]},"properties":{"type":"charge","layer":"passenger","locationId":"NLLOC008368","name":"NL, Voorstraat 46A 4681 AE Nieuw- Vossemeer","address":"Voorstraat 46A","city":"Nieuw-Vossemeer","operatorName":"Allego","maxPowerKw":0,"isMegawatt":false,"status":"AVAILABLE","source":"ndw","priceKwh":0.511}},{"type":"Feature","geometry":{"type":"Point","coordinates":[4.313098,51.583002]},"properties":{"type":"charge","layer":"passenger","locationId":"f503ac54-6bda-4c07-855c-d976cede4de6","name":"Burgemeester van Loonstraat","address":"Burgemeester van Loonstraat 38","city":"Steenbergen","operatorName":"Vattenfall InCharge","maxPowerKw":11,"isMegawatt":false,"status":"AVAILABLE","source":"ndw"}},{"type":"Feature","geometry":{"type":"Point","coordinates":[4.31697,51.57454]},"properties":{"type":"charge","layer":"passenger","locationId":"3f6539021e3ab6cde83073dfa829780c","name":"Elzeplein 26","address":"Elzeplein 26","city":"Steenbergen","operatorName":"Vattenfall InCharge","maxPowerKw":11,"isMegawatt":false,"status":"CHARGING","source":"ndw"}},{"type":"Feature","geometry":{"type":"Point","coordinates":[4.315992,51.585016]},"properties":{"type":"charge","layer":"passenger","locationId":"NLLOC001805","name":"NLD, Steenbergen, Van Gaverenlaan 45","address":"Van Gaverenlaan 45","city":"Steenbergen","operatorName":"Allego","maxPowerKw":0,"isMegawatt":false,"status":"CHARGING","source":"ndw","priceKwh":0.511}},{"type":"Feature","geometry":{"type":"Point","coordinates":[4.31346,51.57958]},"properties":{"type":"charge","layer":"passenger","locationId":"2fac8b8eac5c28ab6c9343185b716754","name":"Van Bredastraat 15","address":"Van Bredastraat 15","city":"Steenbergen","operatorName":"Vattenfall InCharge","maxPowerKw":11,"isMegawatt":false,"status":"AVAILABLE","source":"ndw"}},{"type":"Feature","geometry":{"type":"Point","coordinates":[4.330297,51.58797]},"properties":{"type":"charge","layer":"passenger","locationId":"c383e240-9323-49b7-bb8c-6665b937cc24","name":"Krommeweg","address":"Krommeweg 44","city":"Steenbergen","operatorName":"Vattenfall InCharge","maxPowerKw":11,"isMegawatt":false,"status":"AVAILABLE","source":"ndw"}},{"type":"Feature","geometry":{"type":"Point","coordinates":[4.321119,51.586851]},"properties":{"type":"charge","layer":"passenger","locationId":"b9221df2-252e-4c8e-9de7-ff03c24f1046","name":"Ruiterstallen","address":"Ruiterstallen 8","city":"Steenbergen","operatorName":"Vattenfall InCharge","maxPowerKw":11,"isMegawatt":false,"status":"AVAILABLE","source":"ndw"}},{"type":"Feature","geometry":{"type":"Point","coordinates":[4.314644,51.58806]},"properties":{"type":"charge","layer":"passenger","locationId":"d23eb766-9b94-4e0e-b55f-0db02dec4f75","name":"Lindenburghlaan","address":"Lindenburghlaan 2","city":"Steenbergen","operatorName":"Vattenfall InCharge","maxPowerKw":11,"isMegawatt":false,"status":"AVAILABLE","source":"ndw"}},{"type":"Feature","geometry":{"type":"Point","coordinates":[4.323939,51.583128]},"properties":{"type":"charge","layer":"passenger","locationId":"NLLOC005462","name":"NLD, Steenbergen, Krommeweg 1","address":"Krommeweg 1","city":"Steenbergen","operatorName":"Allego","maxPowerKw":0,"isMegawatt":false,"status":"AVAILABLE","source":"ndw","priceKwh":0.511}},{"type":"Feature","geometry":{"type":"Point","coordinates":[4.215606,51.589598]},"properties":{"type":"charge","layer":"passenger","locationId":"NLLOC009202","name":"NL, Lijsterbeslaan, 2, 4681BA, Steenbergen","address":"Lijsterbeslaan 2","city":"Steenbergen","operatorName":"Allego","maxPowerKw":0,"isMegawatt":false,"status":"AVAILABLE","source":"ndw","priceKwh":0.511}},{"type":"Feature","geometry":{"type":"Point","coordinates":[4.316541,51.575133]},"properties":{"type":"charge","layer":"passenger","locationId":"39d46090-9246-4303-93bf-349dfa381653","name":"Wilgepad","address":"Wilgepad 4","city":"Steenbergen","operatorName":"Vattenfall InCharge","maxPowerKw":11,"isMegawatt":false,"status":"CHARGING","source":"ndw"}},{"type":"Feature","geometry":{"type":"Point","coordinates":[4.310709,51.57375]},"properties":{"type":"charge","layer":"passenger","locationId":"79405fd5-5f95-4ef5-b8e4-1b45bc67abc6","name":"Boekhout","address":"Boekhout 10","city":"Steenbergen","operatorName":"Vattenfall InCharge","maxPowerKw":11,"isMegawatt":false,"status":"AVAILABLE","source":"ndw"}},{"type":"Feature","geometry":{"type":"Point","coordinates":[4.309379,51.591156]},"properties":{"type":"charge","layer":"passenger","locationId":"692c527e4857628d1badeae9","name":"van Andelstraat 10","address":"van Andelstraat 10","city":"Steenbergen","operatorName":"E-Flux by Road","maxPowerKw":11,"isMegawatt":false,"status":"CHARGING","source":"ndw","priceKwh":0.48}},{"type":"Feature","geometry":{"type":"Point","coordinates":[4.316767,51.575936]},"properties":{"type":"charge","layer":"passenger","locationId":"692c52235149ab3ddc10f034","name":"Vlierstraat","address":"Vlierstraat","city":"Steenbergen","operatorName":"E-Flux by Road","maxPowerKw":11,"isMegawatt":false,"status":"AVAILABLE","source":"ndw","priceKwh":0.73}},{"type":"Feature","geometry":{"type":"Point","coordinates":[4.31087,51.59207]},"properties":{"type":"charge","layer":"passenger","locationId":"fc52b2713f29db061267e570503ab025","name":"Oost-Havendijk 20","address":"Oost-Havendijk 20","city":"Steenbergen","operatorName":"Vattenfall InCharge","maxPowerKw":11,"isMegawatt":false,"status":"AVAILABLE","source":"ndw"}},{"type":"Feature","geometry":{"type":"Point","coordinates":[4.329413,51.57659]},"properties":{"type":"charge","layer":"passenger","locationId":"NLLOC005466","name":"NLD Kapelaan Kockstraat 45A, 4651 XC Steenbergen","address":"Kapelaan Kockstraat 45A","city":"Steenbergen","operatorName":"Allego","maxPowerKw":0,"isMegawatt":false,"status":"AVAILABLE","source":"ndw","priceKwh":0.511}},{"type":"Feature","geometry":{"type":"Point","coordinates":[4.374117,51.630711]},"properties":{"type":"charge","layer":"passenger","locationId":"c87188d0-1a27-4e24-8028-6ea99e1ec57e","name":"Het Steen","address":"Het Steen 35","city":"Dinteloord","operatorName":"Vattenfall InCharge","maxPowerKw":11,"isMegawatt":false,"status":"AVAILABLE","source":"ndw"}},{"type":"Feature","geometry":{"type":"Point","coordinates":[4.364888,51.629445]},"properties":{"type":"charge","layer":"passenger","locationId":"48be51ea-81de-41da-be96-f699d89ca635","name":"Steenbergseweg","address":"Steenbergseweg 97","city":"Dinteloord","operatorName":"Vattenfall InCharge","maxPowerKw":11,"isMegawatt":false,"status":"AVAILABLE","source":"ndw"}},{"type":"Feature","geometry":{"type":"Point","coordinates":[4.327406,51.590897]},"properties":{"type":"charge","layer":"passenger","locationId":"NLLOC004962","name":"NLD, Steenbergen, Noorddonk 132","address":"Noorddonk 132","city":"Steenbergen","operatorName":"Allego","maxPowerKw":0,"isMegawatt":false,"status":"AVAILABLE","source":"ndw","priceKwh":0.511}},{"type":"Feature","geometry":{"type":"Point","coordinates":[4.36804,51.638889]},"properties":{"type":"charge","layer":"passenger","locationId":"NLLOC007120","name":"NL, Schaepmanstraat 2, 4671 KE, Dinteloord","address":"Schaepmanstraat 2","city":"Dinteloord","operatorName":"Allego","maxPowerKw":0,"isMegawatt":false,"status":"AVAILABLE","source":"ndw","priceKwh":0.511}},{"type":"Feature","geometry":{"type":"Point","coordinates":[4.315946,51.585039]},"properties":{"type":"charge","layer":"passenger","locationId":"946341d7-9ce6-4ee8-ad85-cfef1311f2b7","name":"Van Gaverenlaan","address":"Van Gaverenlaan 45","city":"Steenbergen","operatorName":"Vattenfall InCharge","maxPowerKw":11,"isMegawatt":false,"status":"CHARGING","source":"ndw"}},{"type":"Feature","geometry":{"type":"Point","coordinates":[4.369486,51.635331]},"properties":{"type":"charge","layer":"passenger","locationId":"NLLOC002107","name":"NLD, Dinteloord, Steenbergseweg 6","address":"Steenbergseweg 6","city":"Dinteloord","operatorName":"Allego","maxPowerKw":0,"isMegawatt":false,"status":"AVAILABLE","source":"ndw","priceKwh":0.511}},{"type":"Feature","geometry":{"type":"Point","coordinates":[4.372948,51.637474]},"properties":{"type":"charge","layer":"passenger","locationId":"NLLOC001392","name":"NLD, Steenbergen, Oostvoorstraat 3","address":"Oostvoorstraat 3","city":"Steenbergen","operatorName":"Allego","maxPowerKw":0,"isMegawatt":false,"status":"UNAVAILABLE","source":"ndw","priceKwh":0.511}},{"type":"Feature","geometry":{"type":"Point","coordinates":[4.36337,51.63646]},"properties":{"type":"charge","layer":"passenger","locationId":"379a82dd2ade0c29784c580b76a66479","name":"Europastraat 30","address":"Europastraat 30","city":"Dinteloord","operatorName":"Vattenfall InCharge","maxPowerKw":11,"isMegawatt":false,"status":"AVAILABLE","source":"ndw"}},{"type":"Feature","geometry":{"type":"Point","coordinates":[4.314338,51.590569]},"properties":{"type":"charge","layer":"passenger","locationId":"f3ecb60d-7c38-4413-915e-3f95e52d2299","name":"Waterlinie 24","address":"Waterlinie 24","city":"Steenbergen","operatorName":"Vattenfall InCharge","maxPowerKw":11,"isMegawatt":false,"status":"AVAILABLE","source":"ndw"}},{"type":"Feature","geometry":{"type":"Point","coordinates":[4.21921,51.588619]},"properties":{"type":"charge","layer":"passenger","locationId":"9387efc9-86d1-4b00-a1cc-e77d491bd01f","name":"Dortmundstraat","address":"Dortmundstraat 2","city":"Nieuw-Vossemeer","operatorName":"Vattenfall InCharge","maxPowerKw":11,"isMegawatt":false,"status":"AVAILABLE","source":"ndw"}},{"type":"Feature","geometry":{"type":"Point","coordinates":[4.328193,51.57493]},"properties":{"type":"charge","layer":"passenger","locationId":"68a0a47c7be9af740affc354","name":"Hoogstraat","address":"Hoogstraat 19","city":"Steenbergen","operatorName":"E-Flux by Road","maxPowerKw":11,"isMegawatt":false,"status":"CHARGING","source":"ndw","priceKwh":0.73}},{"type":"Feature","geometry":{"type":"Point","coordinates":[4.331711,51.592065]},"properties":{"type":"charge","layer":"passenger","locationId":"957cddc3-46d0-4a85-ae25-18fee579081d","name":"De Mudde","address":"De Mudde 26","city":"Steenbergen","operatorName":"Vattenfall InCharge","maxPowerKw":11,"isMegawatt":false,"status":"AVAILABLE","source":"ndw"}},{"type":"Feature","geometry":{"type":"Point","coordinates":[4.31988,51.581172]},"properties":{"type":"charge","layer":"passenger","locationId":"7d003e6f-6453-49b7-abf4-9d33516d2b80","name":"Seringenlaan","address":"Seringenlaan 4","city":"Steenbergen","operatorName":"Vattenfall InCharge","maxPowerKw":11,"isMegawatt":false,"status":"AVAILABLE","source":"ndw"}},{"type":"Feature","geometry":{"type":"Point","coordinates":[4.316041,51.587312]},"properties":{"type":"charge","layer":"passenger","locationId":"b10b95db-fd5d-4378-a685-38a2921cb8d5","name":"Westdam","address":"Westdam 6","city":"Steenbergen","operatorName":"Vattenfall InCharge","maxPowerKw":11,"isMegawatt":false,"status":"UNAVAILABLE","source":"ndw"}},{"type":"Feature","geometry":{"type":"Point","coordinates":[4.316807,51.580366]},"properties":{"type":"charge","layer":"passenger","locationId":"NLLOC002108","name":"NLD, Steenbergen, Irisstraat 23","address":"Irisstraat 23","city":"Steenbergen","operatorName":"Allego","maxPowerKw":0,"isMegawatt":false,"status":"AVAILABLE","source":"ndw","priceKwh":0.511}},{"type":"Feature","geometry":{"type":"Point","coordinates":[4.314648,51.590204]},"properties":{"type":"charge","layer":"passenger","locationId":"NLLOC002124","name":"NLD, Steenbergen, Buiten de Veste 1","address":"Buiten de Veste 1","city":"Steenbergen","operatorName":"Allego","maxPowerKw":0,"isMegawatt":false,"status":"AVAILABLE","source":"ndw","priceKwh":0.511}},{"type":"Feature","geometry":{"type":"Point","coordinates":[4.322364,51.588963]},"properties":{"type":"charge","layer":"passenger","locationId":"6cdf138f-a636-4818-a576-1f26545e1c47","name":"Oostdam","address":"Oostdam 57","city":"Steenbergen","operatorName":"Vattenfall InCharge","maxPowerKw":11,"isMegawatt":false,"status":"AVAILABLE","source":"ndw"}},{"type":"Feature","geometry":{"type":"Point","coordinates":[4.364774,51.639302]},"properties":{"type":"charge","layer":"passenger","locationId":"bff454ee79de7687b7546700c776277c","name":"Schevenstraat 6","address":"Schevenstraat 6","city":"Dinteloord","operatorName":"Vattenfall InCharge","maxPowerKw":11,"isMegawatt":false,"status":"AVAILABLE","source":"ndw"}},{"type":"Feature","geometry":{"type":"Point","coordinates":[4.376562,51.632818]},"properties":{"type":"charge","layer":"passenger","locationId":"749fcce25d132366b7be1121b3fc77cb","name":"Domeinmolen 2","address":"Domeinmolen 2","city":"Dinteloord","operatorName":"Vattenfall InCharge","maxPowerKw":11,"isMegawatt":false,"status":"AVAILABLE","source":"ndw"}},{"type":"Feature","geometry":{"type":"Point","coordinates":[4.345645,51.580283]},"properties":{"type":"charge","layer":"passenger","locationId":"69ce8e4ecc9bbba51cb17189","name":"Welbergsedijk 81, Steenbergen","address":"Welbergsedijk 81","city":"Steenbergen","operatorName":"E-Flux by Road","maxPowerKw":11,"isMegawatt":false,"status":"AVAILABLE","source":"ndw","priceKwh":0.62}},{"type":"Feature","geometry":{"type":"Point","coordinates":[4.326972,51.590463]},"properties":{"type":"charge","layer":"passenger","locationId":"c0e379fb0278c76a51c80e6a12062409","name":"Spelleborg 8","address":"Spelleborg 8","city":"Steenbergen","operatorName":"Vattenfall InCharge","maxPowerKw":11,"isMegawatt":false,"status":"AVAILABLE","source":"ndw"}},{"type":"Feature","geometry":{"type":"Point","coordinates":[4.366409,51.631963]},"properties":{"type":"charge","layer":"passenger","locationId":"03956888-4067-4b48-9686-fbd890fa9c96","name":"Dorus Rijkersstraat","address":"Dorus Rijkersstraat 1","city":"Dinteloord","operatorName":"Vattenfall InCharge","maxPowerKw":11,"isMegawatt":false,"status":"AVAILABLE","source":"ndw"}},{"type":"Feature","geometry":{"type":"Point","coordinates":[4.318367,51.587819]},"properties":{"type":"charge","layer":"passenger","locationId":"a92ac7d91eb09f6fe61ccfa96b340471","name":"Oostdam 2","address":"Oostdam 2","city":"Steenbergen","operatorName":"Vattenfall InCharge","maxPowerKw":11,"isMegawatt":false,"status":"AVAILABLE","source":"ndw"}},{"type":"Feature","geometry":{"type":"Point","coordinates":[4.312396,51.573938]},"properties":{"type":"charge","layer":"passenger","locationId":"NLLOC012379","name":"NL, Montenaken 38, 4651 JL Steenbergen","address":"Montenaken 38","city":"Steenbergen","operatorName":"Allego","maxPowerKw":0,"isMegawatt":false,"status":"AVAILABLE","source":"ndw","priceKwh":0.511}},{"type":"Feature","geometry":{"type":"Point","coordinates":[4.221908,51.592217]},"properties":{"type":"charge","layer":"passenger","locationId":"88c3df41-aff8-4973-a478-c7a311ebcfc4","name":"Heerlijckheid","address":"Heerlijckheid 52","city":"Nieuw-Vossemeer","operatorName":"Vattenfall InCharge","maxPowerKw":11,"isMegawatt":false,"status":"AVAILABLE","source":"ndw"}},{"type":"Feature","geometry":{"type":"Point","coordinates":[4.372646,51.637526]},"properties":{"type":"charge","layer":"passenger","locationId":"NLLOC007361","name":"NL, Westvoorstraat 4, 4671CD Nieuw-Vossemeer","address":"Westvoorstraat 4","city":"Steenbergen","operatorName":"Allego","maxPowerKw":0,"isMegawatt":false,"status":"AVAILABLE","source":"ndw","priceKwh":0.511}},{"type":"Feature","geometry":{"type":"Point","coordinates":[4.366501,51.639456]},"properties":{"type":"charge","layer":"passenger","locationId":"01e16dc8-94a4-4661-8a29-73df1230e97a","name":"Burgemeester Meester H. Popstraat","address":"Burgemeester Meester H. Popstraat 33","city":"Dinteloord","operatorName":"Vattenfall InCharge","maxPowerKw":11,"isMegawatt":false,"status":"CHARGING","source":"ndw"}},{"type":"Feature","geometry":{"type":"Point","coordinates":[4.31389,51.59178]},"properties":{"type":"charge","layer":"passenger","locationId":"e2e1c32e2278335c5844c7119f7d7f32","name":"Waterlinie 78","address":"Waterlinie 78","city":"Steenbergen","operatorName":"Vattenfall InCharge","maxPowerKw":11,"isMegawatt":false,"status":"CHARGING","source":"ndw"}},{"type":"Feature","geometry":{"type":"Point","coordinates":[4.312403,51.578146]},"properties":{"type":"charge","layer":"passenger","locationId":"844ff706-147e-4212-ab28-9e64730069b0","name":"Van Glymesstraat","address":"Van Glymesstraat 30","city":"Steenbergen","operatorName":"Vattenfall InCharge","maxPowerKw":11,"isMegawatt":false,"status":"AVAILABLE","source":"ndw"}},{"type":"Feature","geometry":{"type":"Point","coordinates":[4.317731,51.578853]},"properties":{"type":"charge","layer":"passenger","locationId":"8969e152-fd44-4650-a1a2-3dce58d1fb80","name":"Anjerstraat","address":"Anjerstraat 48","city":"Steenbergen","operatorName":"Vattenfall InCharge","maxPowerKw":11,"isMegawatt":false,"status":"CHARGING","source":"ndw"}},{"type":"Feature","geometry":{"type":"Point","coordinates":[4.330233,51.578478]},"properties":{"type":"charge","layer":"passenger","locationId":"692c52c83bdd4a989e99bdeb","name":"Piet Snoeijersstraat","address":"Piet Snoeijersstraat 16","city":"15","operatorName":"E-Flux by Road","maxPowerKw":11,"isMegawatt":false,"status":"CHARGING","source":"ndw","priceKwh":0.73}},{"type":"Feature","geometry":{"type":"Point","coordinates":[4.315824,51.589171]},"properties":{"type":"charge","layer":"passenger","locationId":"f895e16c5cd26aebb68b16ca56e2d2da","name":"Nassau Bolwerk 4","address":"Nassau Bolwerk 4","city":"Steenbergen","operatorName":"Vattenfall InCharge","maxPowerKw":11,"isMegawatt":false,"status":"CHARGING","source":"ndw"}},{"type":"Feature","geometry":{"type":"Point","coordinates":[4.3726,51.63025]},"properties":{"type":"charge","layer":"passenger","locationId":"e9e432b55dc4bfe1066ae164cf7b4d87","name":"Torenmolen 30","address":"Torenmolen 30","city":"Dinteloord","operatorName":"Vattenfall InCharge","maxPowerKw":11,"isMegawatt":false,"status":"UNAVAILABLE","source":"ndw"}},{"type":"Feature","geometry":{"type":"Point","coordinates":[4.363184,51.635926]},"properties":{"type":"charge","layer":"passenger","locationId":"NLLOC004978","name":"NLD, Dinteloord, Europastraat 42","address":"Europastraat 42","city":"Dinteloord","operatorName":"Allego","maxPowerKw":0,"isMegawatt":false,"status":"AVAILABLE","source":"ndw","priceKwh":0.511}},{"type":"Feature","geometry":{"type":"Point","coordinates":[4.308914,51.586893]},"properties":{"type":"charge","layer":"passenger","locationId":"66e0203e74c509001c2420ec","name":"Dinami sports & fitness V.O.F.","address":"Leerlooierij 15","city":"Steenbergen","operatorName":"Pluq","maxPowerKw":22,"isMegawatt":false,"status":"UNAVAILABLE","source":"ndw","priceKwh":0.44}},{"type":"Feature","geometry":{"type":"Point","coordinates":[4.316702,51.587163]},"properties":{"type":"charge","layer":"passenger","locationId":"3dfbf153e06fcaf61ed907a01e8646ff","name":"Visserstraat 35","address":"Visserstraat 35","city":"Steenbergen","operatorName":"Vattenfall InCharge","maxPowerKw":11,"isMegawatt":false,"status":"AVAILABLE","source":"ndw"}},{"type":"Feature","geometry":{"type":"Point","coordinates":[4.316206,51.576506]},"properties":{"type":"charge","layer":"passenger","locationId":"b72daa2c-2d61-48ad-afa9-28de54086597","name":"Iepstraat","address":"Iepstraat 4","city":"Steenbergen","operatorName":"Vattenfall InCharge","maxPowerKw":11,"isMegawatt":false,"status":"AVAILABLE","source":"ndw"}},{"type":"Feature","geometry":{"type":"Point","coordinates":[4.325509,51.59281]},"properties":{"type":"charge","layer":"passenger","locationId":"d98e3543-62bd-4326-aa9b-ae7d1ab0ecdc","name":"Panneman","address":"Panneman 1","city":"Steenbergen","operatorName":"Vattenfall InCharge","maxPowerKw":11,"isMegawatt":false,"status":"CHARGING","source":"ndw"}},{"type":"Feature","geometry":{"type":"Point","coordinates":[4.271258,51.610319]},"properties":{"type":"charge","layer":"passenger","locationId":"NLLOC007304","name":"NL, Heensedijk 31, 4655 AK, De Heen","address":"Heensedijk 31","city":"De Heen","operatorName":"Allego","maxPowerKw":0,"isMegawatt":false,"status":"AVAILABLE","source":"ndw","priceKwh":0.511}},{"type":"Feature","geometry":{"type":"Point","coordinates":[4.327647,51.593153]},"properties":{"type":"charge","layer":"passenger","locationId":"14d7d83d9c3762b4a29491929d53d76e","name":"Wisselkom 21","address":"Wisselkom 21","city":"Steenbergen","operatorName":"Vattenfall InCharge","maxPowerKw":11,"isMegawatt":false,"status":"AVAILABLE","source":"ndw"}},{"type":"Feature","geometry":{"type":"Point","coordinates":[4.314089,51.580732]},"properties":{"type":"charge","layer":"passenger","locationId":"91276d06-a147-4892-b91b-dd02dcc0b5cf","name":"Van Leuvenstraat","address":"Van Leuvenstraat 1","city":"Steenbergen","operatorName":"Vattenfall InCharge","maxPowerKw":11,"isMegawatt":false,"status":"AVAILABLE","source":"ndw"}},{"type":"Feature","geometry":{"type":"Point","coordinates":[4.31238,51.58187]},"properties":{"type":"charge","layer":"passenger","locationId":"690d54a96bc8451354d59673bb7d4877","name":"Burgemeester van Loonstraat 11","address":"Burgemeester van Loonstraat 11","city":"Steenbergen","operatorName":"Vattenfall InCharge","maxPowerKw":11,"isMegawatt":false,"status":"AVAILABLE","source":"ndw"}},{"type":"Feature","geometry":{"type":"Point","coordinates":[4.373451,51.637657]},"properties":{"type":"charge","layer":"passenger","locationId":"58c2db25-6a0b-42e3-81ff-571729d5ec8b","name":"Molendijk","address":"Molendijk 5","city":"Dinteloord","operatorName":"Vattenfall InCharge","maxPowerKw":11,"isMegawatt":false,"status":"AVAILABLE","source":"ndw"}},{"type":"Feature","geometry":{"type":"Point","coordinates":[4.220556,51.591007]},"properties":{"type":"charge","layer":"passenger","locationId":"b080bf0c03c99f28ffac28a06d16422e","name":"Kees van de Sandestraat 5","address":"Kees van de Sandestraat 5","city":"Nieuw-Vossemeer","operatorName":"Vattenfall InCharge","maxPowerKw":11,"isMegawatt":false,"status":"AVAILABLE","source":"ndw"}},{"type":"Feature","geometry":{"type":"Point","coordinates":[4.329919,51.591153]},"properties":{"type":"charge","layer":"passenger","locationId":"13963596-d2ca-4301-86e2-a3ff6a497fae","name":"Vlamingvaart","address":"Vlamingvaart 49","city":"Steenbergen","operatorName":"Vattenfall InCharge","maxPowerKw":11,"isMegawatt":false,"status":"AVAILABLE","source":"ndw"}},{"type":"Feature","geometry":{"type":"Point","coordinates":[4.370009,51.632461]},"properties":{"type":"charge","layer":"passenger","locationId":"1cfc170b-c364-42ff-8355-f99f93c0d367","name":"Willem Barentszhof 1","address":"Willem Barentszhof 1","city":"Dinteloord","operatorName":"Vattenfall InCharge","maxPowerKw":11,"isMegawatt":false,"status":"AVAILABLE","source":"ndw"}},{"type":"Feature","geometry":{"type":"Point","coordinates":[4.31776,51.588592]},"properties":{"type":"charge","layer":"passenger","locationId":"NLLOC001797","name":"NLD, Steenbergen, Nieuwstad 2","address":"Nieuwstad 2","city":"Steenbergen","operatorName":"Allego","maxPowerKw":0,"isMegawatt":false,"status":"AVAILABLE","source":"ndw","priceKwh":0.511}},{"type":"Feature","geometry":{"type":"Point","coordinates":[4.22036,51.593721]},"properties":{"type":"charge","layer":"passenger","locationId":"fd9769f4d3ea7be696d9e2907f5484a1","name":"Grondzeiler 11","address":"Grondzeiler 11","city":"Nieuw-Vossemeer","operatorName":"Vattenfall InCharge","maxPowerKw":11,"isMegawatt":false,"status":"AVAILABLE","source":"ndw"}},{"type":"Feature","geometry":{"type":"Point","coordinates":[4.315524,51.573902]},"properties":{"type":"charge","layer":"passenger","locationId":"d79cdb19-0f0a-4b89-9e9f-a25c28a220dd","name":"Oudlandsestraat","address":"Oudlandsestraat 135","city":"Steenbergen","operatorName":"Vattenfall InCharge","maxPowerKw":11,"isMegawatt":false,"status":"AVAILABLE","source":"ndw"}},{"type":"Feature","geometry":{"type":"Point","coordinates":[4.32438,51.59418]},"properties":{"type":"charge","layer":"passenger","locationId":"1c9bf86a-3ae6-44b4-b637-dcb5a48d1167","name":"Doorvaart 20","address":"Doorvaart 20","city":"Steenbergen","operatorName":"Vattenfall InCharge","maxPowerKw":11,"isMegawatt":false,"status":"AVAILABLE","source":"ndw"}},{"type":"Feature","geometry":{"type":"Point","coordinates":[4.324656,51.591399]},"properties":{"type":"charge","layer":"passenger","locationId":"ad2d5655-e772-4890-9233-249ddb484d03","name":"Oostene","address":"Oostene 1","city":"Steenbergen","operatorName":"Vattenfall InCharge","maxPowerKw":11,"isMegawatt":false,"status":"AVAILABLE","source":"ndw"}},{"type":"Feature","geometry":{"type":"Point","coordinates":[4.328726,51.589331]},"properties":{"type":"charge","layer":"passenger","locationId":"68d00419-b58d-40b4-a276-bdb2208de3bd","name":"Arnold van Lieropstraat 18","address":"Arnold van Lieropstraat 18","city":"Steenbergen","operatorName":"Vattenfall InCharge","maxPowerKw":11,"isMegawatt":false,"status":"AVAILABLE","source":"ndw"}},{"type":"Feature","geometry":{"type":"Point","coordinates":[4.371505,51.6341]},"properties":{"type":"charge","layer":"passenger","locationId":"b8d7b59025dc9f8dd7081009dedc8ae5","name":"De Galjoen 16","address":"De Galjoen 16","city":"Dinteloord","operatorName":"Vattenfall InCharge","maxPowerKw":11,"isMegawatt":false,"status":"AVAILABLE","source":"ndw"}},{"type":"Feature","geometry":{"type":"Point","coordinates":[4.31799,51.576454]},"properties":{"type":"charge","layer":"passenger","locationId":"7ac63f9b-1251-4c66-899d-c741074b83d5","name":"Eikstraat","address":"Eikstraat 13","city":"Steenbergen","operatorName":"Vattenfall InCharge","maxPowerKw":11,"isMegawatt":false,"status":"AVAILABLE","source":"ndw"}},{"type":"Feature","geometry":{"type":"Point","coordinates":[4.40921,51.566352]},"properties":{"type":"charge","layer":"passenger","locationId":"a664daae-a85c-4efb-b23d-0bfdd6997552","name":"Engels Dorp 14","address":"Engels Dorp 14","city":"Kruisland","operatorName":"Vattenfall InCharge","maxPowerKw":11,"isMegawatt":false,"status":"AVAILABLE","source":"ndw"}},{"type":"Feature","geometry":{"type":"Point","coordinates":[4.316465,51.578051]},"properties":{"type":"charge","layer":"passenger","locationId":"fed4e157-0b6c-4743-a062-1d5277a65632","name":"Magnoliastraat 9","address":"Magnoliastraat 9","city":"Steenbergen","operatorName":"Vattenfall InCharge","maxPowerKw":11,"isMegawatt":false,"status":"AVAILABLE","source":"ndw"}},{"type":"Feature","geometry":{"type":"MultiPolygon","coordinates":[[[[4.371213253012015,51.65620928283379],[4.375902639663619,51.65190294722865],[4.3763971453878945,51.65193340166751],[4.380769242489915,51.650584608635064],[4.386668388055745,51.646180841835125],[4.392436281971036,51.644814436468415],[4.397169376462103,51.64305124430171],[4.399904586767618,51.638805361114045],[4.4091082504724115,51.63271953215618],[4.413492358210622,51.63116429045889],[4.421207331677933,51.63081856523257],[4.423859207337558,51.63026517150045],[4.42500188221458,51.62946608794752],[4.428815928189497,51.6232708997497],[4.437827797793388,51.61711936011813],[4.4357044502943275,51.61517485451579],[4.43376539148636,51.61593965060915],[4.431934902835557,51.613911417913165],[4.432463477876362,51.612891311654224],[4.431546440452404,51.610845208731554],[4.426674699272765,51.61174041433529],[4.4280181103574385,51.60540534792465],[4.429337814598169,51.59387877766129],[4.429922395167573,51.59024791441701],[4.432925674831156,51.58279735644868],[4.443998796864329,51.56909559444586],[4.441953453516026,51.56738519253727],[4.441077621302643,51.55849173916147],[4.438380876355389,51.55639134411346],[4.429031694450907,51.555701334977314],[4.428204082771982,51.553598463260116],[4.4268776966261925,51.55238280212343],[4.411467797817036,51.551598568109654],[4.3780895862546805,51.54431465269251],[4.373597177678028,51.544002981988164],[4.36158187319806,51.54591277215456],[4.317976898859985,51.551215629667624],[4.297159818998045,51.55365751319322],[4.29623335034962,51.55385941188895],[4.297813322395274,51.555912998203226],[4.298165343472879,51.55894807998331],[4.273128981826394,51.564437858318286],[4.268394621630281,51.56485140030863],[4.267269239490896,51.56494496795422],[4.267504251010131,51.5663101300155],[4.267622234338377,51.5680101194952],[4.252026565754697,51.570657679014744],[4.242975351353316,51.562979782987576],[4.242935718814866,51.55912526168687],[4.239725016519059,51.550918397309076],[4.23611879123131,51.55036572959092],[4.235585586263788,51.55272387566622],[4.232443704040317,51.55905482766137],[4.228121157275034,51.56371629634473],[4.198891682775806,51.58597545055207],[4.195718210448395,51.5889752963107],[4.1922317617618665,51.59390171473686],[4.190817279572274,51.59738468643664],[4.190162549587057,51.60095405849394],[4.190573771974404,51.606056014030166],[4.191685086769073,51.609337158138544],[4.197659673645217,51.61804816013806],[4.20502101306903,51.62356162765547],[4.214466774015156,51.62766423439618],[4.227822508299597,51.63102279938439],[4.23732382198609,51.63401462828544],[4.2404181598211,51.63321168417103],[4.238276396103388,51.632491238572214],[4.240972000595737,51.63205187260296],[4.252923168485385,51.63232664945761],[4.253254946693909,51.63077248743009],[4.258694435106118,51.63147046128728],[4.2592666720050785,51.63313976683243],[4.264406548511264,51.63592173236074],[4.271575451593119,51.637942967045156],[4.274434146861927,51.63814828530798],[4.2762041895407545,51.63727837507024],[4.282432393383979,51.63980866456527],[4.290189018018126,51.64051504969833],[4.292903280254826,51.641391916966654],[4.292177736480023,51.63891203430068],[4.295317325856888,51.638963386236995],[4.294937307589513,51.64200571398104],[4.295662798465646,51.64235038100231],[4.298795174530414,51.64187848364925],[4.309282857964696,51.64526587072544],[4.3174458304513665,51.64627777277186],[4.332119867998876,51.64474390064069],[4.337118234794397,51.645199015752134],[4.350268994357469,51.648118648337125],[4.361060424985751,51.652473658721874],[4.368773605581418,51.6571362235598],[4.371213253012015,51.65620928283379]]]]},"properties":{"type":"boundary","gemeente":"Steenbergen","code":"GM0851"}}]}