{"type":"FeatureCollection","metadata":{"gemeente":"Texel","slug":"texel","code":"GM0448","generated_at":"2026-06-07T19:22:09.578Z","total_passenger":71,"total_freight":0,"bounds":[4.662809279574865,52.95988772396907,4.908336449513144,53.18534057753501],"operators":["Allego","E-Flux by Road","EQUANS","Laadnet","NXT Charging Solutions","Pluq","TotalEnergies","Ubitricity","e-VOLTT"]},"features":[{"type":"Feature","geometry":{"type":"Point","coordinates":[4.790752,53.051967]},"properties":{"type":"charge","layer":"passenger","locationId":"21195748-ac4f-11ec-8616-42010a840005","name":"TNLP007195","address":"Verzetstraat 16","city":"Den Burg","operatorName":"TotalEnergies","maxPowerKw":17,"isMegawatt":false,"status":"UNAVAILABLE","source":"ndw","priceKwh":0.4}},{"type":"Feature","geometry":{"type":"Point","coordinates":[4.80273,53.05432]},"properties":{"type":"charge","layer":"passenger","locationId":"80ee3098-6101-11f0-90b9-42010aa400b8","name":"PP002360","address":"Burdetstraat 2","city":"Den Burg","operatorName":"TotalEnergies","maxPowerKw":0,"isMegawatt":false,"status":"UNAVAILABLE","source":"ndw","priceKwh":0.4}},{"type":"Feature","geometry":{"type":"Point","coordinates":[4.789152,53.079731]},"properties":{"type":"charge","layer":"passenger","locationId":"632b2686e7ebe54eedff077f","name":"Gerard Vrasdonk 's station","address":"Nieuwlanderweg  16","city":"de waal","operatorName":"E-Flux by Road","maxPowerKw":22,"isMegawatt":false,"status":"AVAILABLE","source":"ndw","priceKwh":0.63}},{"type":"Feature","geometry":{"type":"Point","coordinates":[4.85417,53.18062]},"properties":{"type":"charge","layer":"passenger","locationId":"265b1e1a-8f31-11e8-9618-42010a840002","name":"TNLP003535","address":"Vuurtorenweg 189","city":"De Cocksdorp","operatorName":"TotalEnergies","maxPowerKw":17,"isMegawatt":false,"status":"UNAVAILABLE","source":"ndw","priceKwh":0.4}},{"type":"Feature","geometry":{"type":"Point","coordinates":[4.74494,53.07787]},"properties":{"type":"charge","layer":"passenger","locationId":"21090d14-8f31-11e8-a692-42010a840002","name":"TNLP003511","address":"Ruijslaan 92","city":"De Koog","operatorName":"TotalEnergies","maxPowerKw":17,"isMegawatt":false,"status":"UNAVAILABLE","source":"ndw","priceKwh":0.4}},{"type":"Feature","geometry":{"type":"Point","coordinates":[4.76373,53.09854]},"properties":{"type":"charge","layer":"passenger","locationId":"7821e30a-7fa7-11f0-b9ac-42010aa400b8","name":"TNLP003538","address":"Nikadel 75","city":"De Koog","operatorName":"TotalEnergies","maxPowerKw":17,"isMegawatt":false,"status":"UNAVAILABLE","source":"ndw","priceKwh":0.4}},{"type":"Feature","geometry":{"type":"Point","coordinates":[4.758046,53.072475]},"properties":{"type":"charge","layer":"passenger","locationId":"4198219","name":"Laadnet De Bremakker","address":"Tempelierweg 40","city":"Den Burg","operatorName":"Laadnet","maxPowerKw":22,"isMegawatt":false,"status":"AVAILABLE","source":"ndw"}},{"type":"Feature","geometry":{"type":"Point","coordinates":[4.752871,53.024728]},"properties":{"type":"charge","layer":"passenger","locationId":"743","name":"Shell Recharge NL Stolpweg 12","address":"Stolpweg 12","city":"Den Hoorn Texel","operatorName":"Ubitricity","maxPowerKw":11,"isMegawatt":false,"status":"AVAILABLE","source":"ndw","priceKwh":0.388}},{"type":"Feature","geometry":{"type":"Point","coordinates":[4.76382,53.091443]},"properties":{"type":"charge","layer":"passenger","locationId":"3964756","name":"Laadnet Landgoed Hotel Tatenhove","address":"Bosrandweg 202","city":"De Koog","operatorName":"Laadnet","maxPowerKw":22,"isMegawatt":false,"status":"AVAILABLE","source":"ndw"}},{"type":"Feature","geometry":{"type":"Point","coordinates":[4.856583,53.15096]},"properties":{"type":"charge","layer":"passenger","locationId":"68456828df9e8a6eba7abbd6","name":"Kust Texel","address":"Roggeslootweg 291","city":"De Cocksdorp","operatorName":"E-Flux by Road","maxPowerKw":8,"isMegawatt":false,"status":"AVAILABLE","source":"ndw","priceKwh":0.53}},{"type":"Feature","geometry":{"type":"Point","coordinates":[4.788701,53.056574]},"properties":{"type":"charge","layer":"passenger","locationId":"9ad38cb4-bf58-11eb-972d-42010a840003","name":"TNLP006197","address":"Noordwester 17","city":"Den Burg","operatorName":"TotalEnergies","maxPowerKw":17,"isMegawatt":false,"status":"UNAVAILABLE","source":"ndw","priceKwh":0.4}},{"type":"Feature","geometry":{"type":"Point","coordinates":[4.79774,53.05696]},"properties":{"type":"charge","layer":"passenger","locationId":"228b409e-8f31-11e8-93cc-42010a840002","name":"TNLP003548","address":"Waalderstraat 45","city":"Den Burg","operatorName":"TotalEnergies","maxPowerKw":17,"isMegawatt":false,"status":"UNAVAILABLE","source":"ndw","priceKwh":0.4}},{"type":"Feature","geometry":{"type":"Point","coordinates":[4.869073,53.156344]},"properties":{"type":"charge","layer":"passenger","locationId":"729b43ea-c2b9-11eb-a689-42010a840064","name":"TNLP006192","address":"Buijsstraat 4","city":"De Cocksdorp","operatorName":"TotalEnergies","maxPowerKw":17,"isMegawatt":false,"status":"UNAVAILABLE","source":"ndw","priceKwh":0.4}},{"type":"Feature","geometry":{"type":"Point","coordinates":[4.846771,53.035021]},"properties":{"type":"charge","layer":"passenger","locationId":"d13ded5e-8aaa-11f0-b3df-42010aa400b8","name":"PP005653","address":"De Ruyterstraat 61","city":"Oudeschild","operatorName":"TotalEnergies","maxPowerKw":0,"isMegawatt":false,"status":"UNAVAILABLE","source":"ndw","priceKwh":0.4}},{"type":"Feature","geometry":{"type":"Point","coordinates":[4.79775,53.05029]},"properties":{"type":"charge","layer":"passenger","locationId":"f0b39fb6-d546-11ec-bfa3-42010a840003","name":"TNLP003610","address":"Emmalaan 53","city":"Den Burg","operatorName":"TotalEnergies","maxPowerKw":17,"isMegawatt":false,"status":"UNAVAILABLE","source":"ndw","priceKwh":0.4}},{"type":"Feature","geometry":{"type":"Point","coordinates":[4.792559,53.050981]},"properties":{"type":"charge","layer":"passenger","locationId":"8c5dfa42-1e7d-11eb-8dcb-42010a840fc2","name":"PP005619","address":"Anne Frankstraat 5","city":"Den Burg","operatorName":"TotalEnergies","maxPowerKw":0,"isMegawatt":false,"status":"UNAVAILABLE","source":"ndw","priceKwh":0.4}},{"type":"Feature","geometry":{"type":"Point","coordinates":[4.87024,53.1547]},"properties":{"type":"charge","layer":"passenger","locationId":"26c8c906-8f31-11e8-b81d-42010a840002","name":"TNLP003547","address":"Molenlaan 1","city":"De Cocksdorp","operatorName":"TotalEnergies","maxPowerKw":17,"isMegawatt":false,"status":"UNAVAILABLE","source":"ndw","priceKwh":0.4}},{"type":"Feature","geometry":{"type":"Point","coordinates":[4.752871,53.024728]},"properties":{"type":"charge","layer":"passenger","locationId":"b249fff6-0954-11ea-a7ef-42010a84002c","name":"Shell Recharge NL Stolpweg 12 Den Hoorn Texel","address":"Stolpweg 12","city":"Den Hoorn Texel","operatorName":"Ubitricity","maxPowerKw":11,"isMegawatt":false,"status":"AVAILABLE","source":"ndw","priceKwh":0.39}},{"type":"Feature","geometry":{"type":"Point","coordinates":[4.795222,53.055497]},"properties":{"type":"charge","layer":"passenger","locationId":"1f853622-080a-11ef-987a-42010aa400b8","name":"TNLP003531","address":"Vogelenzang 10","city":"Den Burg","operatorName":"TotalEnergies","maxPowerKw":17,"isMegawatt":false,"status":"UNAVAILABLE","source":"ndw","priceKwh":0.4}},{"type":"Feature","geometry":{"type":"Point","coordinates":[4.790722,53.05392]},"properties":{"type":"charge","layer":"passenger","locationId":"c5c067b2-d546-11ec-b96d-42010a840003","name":"Shell Recharge NL Gasthuisstraat 67 Den Burg","address":"Gasthuisstraat 67","city":"Den Burg","operatorName":"Ubitricity","maxPowerKw":11,"isMegawatt":false,"status":"AVAILABLE","source":"ndw","priceKwh":0.39}},{"type":"Feature","geometry":{"type":"Point","coordinates":[4.764665,53.099797]},"properties":{"type":"charge","layer":"passenger","locationId":"20b329f0-ac4f-11ec-9303-42010a840050","name":"TNLP007200","address":"Strijbosstraat 10","city":"De Koog","operatorName":"TotalEnergies","maxPowerKw":17,"isMegawatt":false,"status":"AVAILABLE","source":"ndw","priceKwh":0.39}},{"type":"Feature","geometry":{"type":"Point","coordinates":[4.761459,53.081753]},"properties":{"type":"charge","layer":"passenger","locationId":"e7c19a04-f1c8-11ec-a361-42010aa40fc0","name":"Allego - Van der Valk Texel-Koog","address":"Pelikaanweg 18","city":"De Koog","operatorName":"Allego","maxPowerKw":0,"isMegawatt":false,"status":"CHARGING","source":"ndw"}},{"type":"Feature","geometry":{"type":"Point","coordinates":[4.84928,53.03783]},"properties":{"type":"charge","layer":"passenger","locationId":"56ccbb2c-8785-11f0-a7c9-42010aa400b8","name":"TNLP003619","address":"De Ruyterstraat 8","city":"Oude Schild","operatorName":"TotalEnergies","maxPowerKw":17,"isMegawatt":false,"status":"AVAILABLE","source":"ndw","priceKwh":0.39}},{"type":"Feature","geometry":{"type":"Point","coordinates":[4.79677,53.05241]},"properties":{"type":"charge","layer":"passenger","locationId":"246d3818-8f31-11e8-8d13-42010a840002","name":"TNLP003533","address":"Keesomlaan 17","city":"Den Burg","operatorName":"TotalEnergies","maxPowerKw":17,"isMegawatt":false,"status":"UNAVAILABLE","source":"ndw","priceKwh":0.4}},{"type":"Feature","geometry":{"type":"Point","coordinates":[4.803212,53.059954]},"properties":{"type":"charge","layer":"passenger","locationId":"79833e52-34d4-11ef-97fe-42010aa400b8","name":"TNLP008968","address":"Buyengors 79","city":"Den Burg","operatorName":"TotalEnergies","maxPowerKw":14,"isMegawatt":false,"status":"UNAVAILABLE","source":"ndw","priceKwh":0.4}},{"type":"Feature","geometry":{"type":"Point","coordinates":[4.757674,53.071859]},"properties":{"type":"charge","layer":"passenger","locationId":"4208941","name":"Laadnet Tempelierweg 39","address":"Tempelierweg 39","city":"Den Burg","operatorName":"Laadnet","maxPowerKw":11,"isMegawatt":false,"status":"AVAILABLE","source":"ndw"}},{"type":"Feature","geometry":{"type":"Point","coordinates":[4.79944,53.05887]},"properties":{"type":"charge","layer":"passenger","locationId":"239c8240-8f31-11e8-a622-42010a840002","name":"TNLP003541","address":"Waalderstraat 84","city":"Den Burg","operatorName":"TotalEnergies","maxPowerKw":17,"isMegawatt":false,"status":"UNAVAILABLE","source":"ndw","priceKwh":0.4}},{"type":"Feature","geometry":{"type":"Point","coordinates":[4.871308,53.055974]},"properties":{"type":"charge","layer":"passenger","locationId":"4208946","name":"Laadnet Villa Waddenstrandje","address":"IJsdijk 15A","city":"Oudeschild","operatorName":"Laadnet","maxPowerKw":11,"isMegawatt":false,"status":"AVAILABLE","source":"ndw"}},{"type":"Feature","geometry":{"type":"Point","coordinates":[4.73635,53.08084]},"properties":{"type":"charge","layer":"passenger","locationId":"1b62b888-3ad8-11eb-b501-42010a840003","name":"TNLP003526","address":"Ruijslaan 94","city":"De Koog","operatorName":"TotalEnergies","maxPowerKw":17,"isMegawatt":false,"status":"UNAVAILABLE","source":"ndw","priceKwh":0.4}},{"type":"Feature","geometry":{"type":"Point","coordinates":[4.71113,53.02128]},"properties":{"type":"charge","layer":"passenger","locationId":"0D5A2DD8-1537-4E86-B32B-B18E6AA53A24","name":"PP002621","address":"Hoornderslag 8","city":"Den Hoorn","operatorName":"TotalEnergies","maxPowerKw":0,"isMegawatt":false,"status":"UNAVAILABLE","source":"ndw"}},{"type":"Feature","geometry":{"type":"Point","coordinates":[4.756749,53.070117]},"properties":{"type":"charge","layer":"passenger","locationId":"4208944","name":"Laadnet Tempelierweg 1","address":"Tempelierweg 1","city":"Den Burg","operatorName":"Laadnet","maxPowerKw":11,"isMegawatt":false,"status":"AVAILABLE","source":"ndw"}},{"type":"Feature","geometry":{"type":"Point","coordinates":[4.893058,53.097533]},"properties":{"type":"charge","layer":"passenger","locationId":"4208939","name":"Laadnet Oost 72","address":"Oost 72","city":"Oosterend","operatorName":"Laadnet","maxPowerKw":11,"isMegawatt":false,"status":"AVAILABLE","source":"ndw"}},{"type":"Feature","geometry":{"type":"Point","coordinates":[4.802194,53.050983]},"properties":{"type":"charge","layer":"passenger","locationId":"c9e75368-ca53-11f0-83cf-42010aa400b8","name":"PP002538","address":"Emmalaan 15","city":"Den Burg","operatorName":"TotalEnergies","maxPowerKw":17,"isMegawatt":false,"status":"AVAILABLE","source":"ndw","priceKwh":0.39}},{"type":"Feature","geometry":{"type":"Point","coordinates":[4.871877,53.141742]},"properties":{"type":"charge","layer":"passenger","locationId":"2122223","name":"Laadnet Hoeve Holland","address":"Hollandseweg 22","city":"De Cocksdorp","operatorName":"Laadnet","maxPowerKw":11,"isMegawatt":false,"status":"AVAILABLE","source":"ndw"}},{"type":"Feature","geometry":{"type":"Point","coordinates":[4.87492,53.08519]},"properties":{"type":"charge","layer":"passenger","locationId":"e921c37c-d546-11ec-8b56-42010a840003","name":"TNLP003660","address":"Bijenkorfweg 2","city":"Oosterend","operatorName":"TotalEnergies","maxPowerKw":17,"isMegawatt":false,"status":"AVAILABLE","source":"ndw","priceKwh":0.39}},{"type":"Feature","geometry":{"type":"Point","coordinates":[4.790722,53.05392]},"properties":{"type":"charge","layer":"passenger","locationId":"748","name":"Shell Recharge NL Gasthuisstraat 67","address":"Gasthuisstraat 67","city":"Den Burg","operatorName":"Ubitricity","maxPowerKw":11,"isMegawatt":false,"status":"AVAILABLE","source":"ndw","priceKwh":0.388}},{"type":"Feature","geometry":{"type":"Point","coordinates":[4.86765,53.153758]},"properties":{"type":"charge","layer":"passenger","locationId":"3969003","name":"Laadnet Dekker Beheer","address":"Molenlaan 30","city":"De Cocksdorp","operatorName":"Laadnet","maxPowerKw":22,"isMegawatt":false,"status":"AVAILABLE","source":"ndw"}},{"type":"Feature","geometry":{"type":"Point","coordinates":[4.757144,53.070102]},"properties":{"type":"charge","layer":"passenger","locationId":"4208945","name":"Laadnet Tempelierweg 2","address":"Tempelierweg 2","city":"Den Burg","operatorName":"Laadnet","maxPowerKw":11,"isMegawatt":false,"status":"AVAILABLE","source":"ndw"}},{"type":"Feature","geometry":{"type":"Point","coordinates":[4.774072,53.086483]},"properties":{"type":"charge","layer":"passenger","locationId":"4208898","name":"Laadnet Villapark Bleekerscoogh","address":"Pontweg 194","city":"De Koog","operatorName":"Laadnet","maxPowerKw":11,"isMegawatt":false,"status":"UNAVAILABLE","source":"ndw"}},{"type":"Feature","geometry":{"type":"Point","coordinates":[4.823017,53.072508]},"properties":{"type":"charge","layer":"passenger","locationId":"849d05ba-993a-11ee-aa0a-42010aa40fc0","name":"TNLP009878","address":"Vermaningspad 2","city":"De Waal","operatorName":"TotalEnergies","maxPowerKw":17,"isMegawatt":false,"status":"AVAILABLE","source":"ndw","priceKwh":0.39}},{"type":"Feature","geometry":{"type":"Point","coordinates":[4.811794,53.057234]},"properties":{"type":"charge","layer":"passenger","locationId":"a907a87c-a04e-11ee-8289-42010aa40fc0","name":"TNLP009875","address":"Klaverspanner 3","city":"Den Burg","operatorName":"TotalEnergies","maxPowerKw":17,"isMegawatt":false,"status":"AVAILABLE","source":"ndw","priceKwh":0.39}},{"type":"Feature","geometry":{"type":"Point","coordinates":[4.89131,53.11746]},"properties":{"type":"charge","layer":"passenger","locationId":"6673eaa13dc721001c849105","name":"Waddenpark Avanti Texel","address":"Stuifweg 22","city":"Oosterend","operatorName":"Pluq","maxPowerKw":8,"isMegawatt":false,"status":"AVAILABLE","source":"ndw","priceKwh":0.4}},{"type":"Feature","geometry":{"type":"Point","coordinates":[4.791911,53.056746]},"properties":{"type":"charge","layer":"passenger","locationId":"04a463de-8462-11f0-9fe3-42010aa400b8","name":"TNLP009824","address":"Jan Dirksoord 33","city":"Den Burg","operatorName":"TotalEnergies","maxPowerKw":17,"isMegawatt":false,"status":"AVAILABLE","source":"ndw","priceKwh":0.39}},{"type":"Feature","geometry":{"type":"Point","coordinates":[4.769127,53.101502]},"properties":{"type":"charge","layer":"passenger","locationId":"62b01791b44141dde1d141b3","name":"Landal Beach Park - 83","address":"Stappeland 83","city":"De Koog","operatorName":"E-Flux by Road","maxPowerKw":22,"isMegawatt":false,"status":"AVAILABLE","source":"ndw","priceKwh":0.88}},{"type":"Feature","geometry":{"type":"Point","coordinates":[4.762307,53.099648]},"properties":{"type":"charge","layer":"passenger","locationId":"4b3406ca-3159-11ec-a097-42010a840003","name":"EQUANS Fletcher Fletcher Hotel-Restaurant De Cooghen","address":"Dorpsstraat 10","city":"De Koog","operatorName":"EQUANS","maxPowerKw":0,"isMegawatt":false,"status":"AVAILABLE","source":"ndw","priceKwh":0.4}},{"type":"Feature","geometry":{"type":"Point","coordinates":[4.71113,53.02128]},"properties":{"type":"charge","layer":"passenger","locationId":"3d9505cc-d547-11ec-a7ca-42010a840003","name":"PP002621","address":"Hoornderslag 8","city":"Den Hoorn","operatorName":"TotalEnergies","maxPowerKw":0,"isMegawatt":false,"status":"AVAILABLE","source":"ndw","priceKwh":0.39}},{"type":"Feature","geometry":{"type":"Point","coordinates":[4.79954,53.093037]},"properties":{"type":"charge","layer":"passenger","locationId":"676047e5558f7c8951841496","name":"64109 Noord-Holland Noord Beheerkantoor Texel","address":"Nieuwlanderweg 38","city":"De Waal","operatorName":"E-Flux by Road","maxPowerKw":11,"isMegawatt":false,"status":"CHARGING","source":"ndw","priceKwh":0.43}},{"type":"Feature","geometry":{"type":"Point","coordinates":[4.89261,53.117337]},"properties":{"type":"charge","layer":"passenger","locationId":"6a21462091577dfa7233a10e","name":"Stuifweg 20 Texel EV charging","address":"Stuifweg 20","city":"Oosterend","operatorName":"E-Flux by Road","maxPowerKw":15,"isMegawatt":false,"status":"CHARGING","source":"ndw","priceKwh":0.49}},{"type":"Feature","geometry":{"type":"Point","coordinates":[4.791911,53.056746]},"properties":{"type":"charge","layer":"passenger","locationId":"3BF32016-4187-4259-934C-D7CD156A8709","name":"TNLP009824","address":"Jan Dirksoord 33","city":"Den Burg","operatorName":"TotalEnergies","maxPowerKw":17,"isMegawatt":false,"status":"AVAILABLE","source":"ndw"}},{"type":"Feature","geometry":{"type":"Point","coordinates":[4.84233,53.131905]},"properties":{"type":"charge","layer":"passenger","locationId":"64a58290a46e57001c44212d","name":"A De Ridder 's station","address":"Postweg 163","city":"De Cocksdorp","operatorName":"E-Flux by Road","maxPowerKw":11,"isMegawatt":false,"status":"AVAILABLE","source":"ndw","priceKwh":0.48}},{"type":"Feature","geometry":{"type":"Point","coordinates":[4.852456,53.152421]},"properties":{"type":"charge","layer":"passenger","locationId":"69a6e28dc41fa97d0c31b882","name":"Krim 471","address":"Roggeslootweg  471","city":"De Cocksdorp","operatorName":"E-Flux by Road","maxPowerKw":8,"isMegawatt":false,"status":"AVAILABLE","source":"ndw","priceKwh":0.67}},{"type":"Feature","geometry":{"type":"Point","coordinates":[4.811794,53.057234]},"properties":{"type":"charge","layer":"passenger","locationId":"789ee347-b991-46ed-bcaa-cf5740c75672","name":"TNLP009875","address":"Klaverspanner 3","city":"Den Burg","operatorName":"TotalEnergies","maxPowerKw":17,"isMegawatt":false,"status":"AVAILABLE","source":"ndw"}},{"type":"Feature","geometry":{"type":"Point","coordinates":[4.764334,53.097883]},"properties":{"type":"charge","layer":"passenger","locationId":"68dced68085fcbd23290d025","name":"NXT Charge - De Koog - Nikadel 75 - DC","address":"Nikadel 75","city":"De Koog","operatorName":"NXT Charging Solutions","maxPowerKw":270,"isMegawatt":false,"status":"UNAVAILABLE","source":"ndw","priceKwh":0.63}},{"type":"Feature","geometry":{"type":"Point","coordinates":[4.764665,53.099797]},"properties":{"type":"charge","layer":"passenger","locationId":"8bb6e582-6a65-4af9-961b-645a9d3bcfc6","name":"TNLP007200","address":"Strijbosstraat 10","city":"De Koog","operatorName":"TotalEnergies","maxPowerKw":17,"isMegawatt":false,"status":"AVAILABLE","source":"ndw"}},{"type":"Feature","geometry":{"type":"Point","coordinates":[4.802194,53.050983]},"properties":{"type":"charge","layer":"passenger","locationId":"B3C488AE-DCBE-425C-A94A-8451DCA7F94D","name":"PP002538","address":"Emmalaan 15","city":"Den Burg","operatorName":"TotalEnergies","maxPowerKw":17,"isMegawatt":false,"status":"UNAVAILABLE","source":"ndw"}},{"type":"Feature","geometry":{"type":"Point","coordinates":[4.897136,53.11354]},"properties":{"type":"charge","layer":"passenger","locationId":"63f34110c76b7f0012b46444","name":"Prins Hendrik huisje 41","address":"Stuifweg 41","city":"Oosterend","operatorName":"E-Flux by Road","maxPowerKw":22,"isMegawatt":false,"status":"AVAILABLE","source":"ndw","priceKwh":0.33}},{"type":"Feature","geometry":{"type":"Point","coordinates":[4.789152,53.079731]},"properties":{"type":"charge","layer":"passenger","locationId":"632b2603e078bc91bba6983c","name":"Gerard Vrasdonk 's station","address":"Nieuwlanderweg  16","city":"de Waal","operatorName":"E-Flux by Road","maxPowerKw":22,"isMegawatt":false,"status":"AVAILABLE","source":"ndw","priceKwh":0.63}},{"type":"Feature","geometry":{"type":"Point","coordinates":[4.893314,53.096854]},"properties":{"type":"charge","layer":"passenger","locationId":"6703c469c79eb9001c5df2fd","name":"Laadstation Kokkel","address":"Oost 48","city":"Oost","operatorName":"E-Flux by Road","maxPowerKw":22,"isMegawatt":false,"status":"AVAILABLE","source":"ndw","priceKwh":0.53}},{"type":"Feature","geometry":{"type":"Point","coordinates":[4.761459,53.081753]},"properties":{"type":"charge","layer":"passenger","locationId":"NLLOC025159","name":"Allego - Van der Valk Texel-Koog","address":"Pelikaanweg 18","city":"De Koog","operatorName":"Allego","maxPowerKw":0,"isMegawatt":false,"status":"AVAILABLE","source":"ndw","priceKwh":0.655}},{"type":"Feature","geometry":{"type":"Point","coordinates":[4.84699,53.155406]},"properties":{"type":"charge","layer":"passenger","locationId":"4208938","name":"Laadnet Krimweg 63","address":"Krimweg 63","city":"De Cocksdorp","operatorName":"Laadnet","maxPowerKw":11,"isMegawatt":false,"status":"AVAILABLE","source":"ndw"}},{"type":"Feature","geometry":{"type":"Point","coordinates":[4.893233,53.096835]},"properties":{"type":"charge","layer":"passenger","locationId":"670f9b98dd310e001c1cd673","name":"Laadstation Mossel op Oost","address":"Oost 50","city":"Oosterend","operatorName":"E-Flux by Road","maxPowerKw":22,"isMegawatt":false,"status":"CHARGING","source":"ndw","priceKwh":0.53}},{"type":"Feature","geometry":{"type":"Point","coordinates":[4.762307,53.099648]},"properties":{"type":"charge","layer":"passenger","locationId":"88925185","name":"EQUANS Fletcher Fletcher Hotel-Restaurant De Cooghen","address":"Dorpsstraat 10","city":"De Koog","operatorName":"EQUANS","maxPowerKw":0,"isMegawatt":false,"status":"AVAILABLE","source":"ndw"}},{"type":"Feature","geometry":{"type":"Point","coordinates":[4.845662,53.040217]},"properties":{"type":"charge","layer":"passenger","locationId":"65703bacd46d39001c854873","name":"Bouwcenter RAB Texel","address":"Heemskerckstraat 50","city":"Oudeschild, Texel","operatorName":"E-Flux by Road","maxPowerKw":22,"isMegawatt":false,"status":"AVAILABLE","source":"ndw","priceKwh":0.43}},{"type":"Feature","geometry":{"type":"Point","coordinates":[4.852026,53.152304]},"properties":{"type":"charge","layer":"passenger","locationId":"66754a6ee7b519001cca2189","name":"Krim 567","address":"Roggeslootweg 567","city":"De Cocksdorp","operatorName":"E-Flux by Road","maxPowerKw":22,"isMegawatt":false,"status":"AVAILABLE","source":"ndw","priceKwh":0.53}},{"type":"Feature","geometry":{"type":"Point","coordinates":[4.862398,53.076236]},"properties":{"type":"charge","layer":"passenger","locationId":"67f79aad0035339c58949c4b","name":"Spykdorp station","address":"Nesweg 17","city":"Oosterend","operatorName":"E-Flux by Road","maxPowerKw":11,"isMegawatt":false,"status":"AVAILABLE","source":"ndw","priceKwh":0.43}},{"type":"Feature","geometry":{"type":"Point","coordinates":[4.857711,53.14909]},"properties":{"type":"charge","layer":"passenger","locationId":"690dc62fa0436385afdd1bd5","name":"Kaap Zilt Texel","address":"Roggeslootweg  125","city":"de Cocksdorp","operatorName":"E-Flux by Road","maxPowerKw":8,"isMegawatt":false,"status":"AVAILABLE","source":"ndw","priceKwh":0.57}},{"type":"Feature","geometry":{"type":"Point","coordinates":[4.840709,53.05433]},"properties":{"type":"charge","layer":"passenger","locationId":"OST23P0069_0093_0","name":"OST23P0069_0093_0","address":"Laagwaalderweg 21C","city":"Oudeschild","operatorName":"e-VOLTT","maxPowerKw":0,"isMegawatt":false,"status":"AVAILABLE","source":"ndw","priceKwh":0.802}},{"type":"Feature","geometry":{"type":"Point","coordinates":[4.79636,53.048865]},"properties":{"type":"charge","layer":"passenger","locationId":"6531138510273d001cae8396","name":"Schietsportcentrum Odysseus","address":"Emmalaan 65","city":"Den Burg","operatorName":"E-Flux by Road","maxPowerKw":22,"isMegawatt":false,"status":"AVAILABLE","source":"ndw","priceKwh":0.4}},{"type":"Feature","geometry":{"type":"Point","coordinates":[4.859709,53.150158]},"properties":{"type":"charge","layer":"passenger","locationId":"65df3815bb49f1001c07421a","name":"Vakantiepark De Krim Texel","address":"Roggeslootweg","city":"De cocksdorp","operatorName":"E-Flux by Road","maxPowerKw":8,"isMegawatt":false,"status":"AVAILABLE","source":"ndw","priceKwh":1.18}},{"type":"Feature","geometry":{"type":"Point","coordinates":[4.823017,53.072508]},"properties":{"type":"charge","layer":"passenger","locationId":"1A052915-31C3-445A-94E9-A55C7662B2CB","name":"TNLP009878","address":"Vermaningspad 2","city":"De Waal","operatorName":"TotalEnergies","maxPowerKw":17,"isMegawatt":false,"status":"AVAILABLE","source":"ndw"}},{"type":"Feature","geometry":{"type":"Point","coordinates":[4.793899,53.059993]},"properties":{"type":"charge","layer":"passenger","locationId":"3964736","name":"Laadnet Garage Rentenaar","address":"Bernhardlaan 200","city":"Den Burg","operatorName":"Laadnet","maxPowerKw":22,"isMegawatt":false,"status":"AVAILABLE","source":"ndw"}},{"type":"Feature","geometry":{"type":"MultiPolygon","coordinates":[[[[4.674544048853099,52.95988772396907],[4.668369844040454,52.961918641665044],[4.662809279574865,52.968575996842254],[4.663241115206057,52.97576883357133],[4.666931740122615,52.98316678571417],[4.671300194247041,52.98632208047308],[4.676854521784127,52.98773783529707],[4.685062328542991,52.987701891358576],[4.689828150329928,52.98547095287917],[4.68948247372396,52.982087837956946],[4.6928373719714225,52.97965391316687],[4.710782195598414,52.975073317304904],[4.702428301603592,52.973437268025464],[4.690053342103016,52.96881426611355],[4.685104112470752,52.96457451798061],[4.681696339235104,52.9601239728153],[4.674544048853099,52.95988772396907]]],[[[4.881068010025666,53.155084268397935],[4.88650588585446,53.15605763879016],[4.893353193505692,53.151623011669386],[4.9077546329137665,53.13537406895432],[4.908336449513144,53.13302809024021],[4.905921310255915,53.131264812469986],[4.904440083577181,53.132161774754806],[4.905361640206047,53.13028783949612],[4.90465598223136,53.128970657883656],[4.902139839756789,53.127819031152235],[4.902963593103647,53.12581130020564],[4.900243147788159,53.125014740708195],[4.898334646981211,53.10014818219826],[4.900393907948196,53.087857009486044],[4.899709945810647,53.08340451575831],[4.897155716204621,53.07856641042872],[4.88765632247378,53.07258874292477],[4.880575371893564,53.070886067313964],[4.878779506286173,53.06690301900426],[4.876747308503196,53.06563776578047],[4.873195435699886,53.0648648927384],[4.873144773557451,53.05536276020281],[4.861597198570619,53.048109752758336],[4.86179969111004,53.04706200875507],[4.860013570928798,53.04431230444743],[4.856282135747541,53.04090568960149],[4.85315677920453,53.04010313240138],[4.852623995289935,53.04024488695025],[4.854039237114726,53.04074380811823],[4.855055647657349,53.04194196571022],[4.856577070315409,53.04166637340094],[4.858512869478117,53.04330698876585],[4.860462700255946,53.04675428597957],[4.8598386139052945,53.046895206209754],[4.856762209685115,53.044767596512514],[4.857988620662828,53.04409004061764],[4.856862689417316,53.04362074767494],[4.856157469598701,53.04262660767359],[4.855627053187322,53.04277178731176],[4.855972872368824,53.04331327230829],[4.853296847950345,53.04335096962724],[4.851318967532569,53.0400625346757],[4.850854601198766,53.039859661122286],[4.850228705757457,53.040345420213],[4.8496160957383285,53.04006284405379],[4.850155163947793,53.03952508239348],[4.849410911699418,53.03912492384372],[4.850342507001175,53.03882861968226],[4.851416250146731,53.039340344660346],[4.853082356134823,53.03891111900685],[4.847166108633009,53.03400206264872],[4.838523181853084,53.03081348047516],[4.8305965038806455,53.0297252366582],[4.81948740240232,53.029016773410454],[4.792668554105348,53.00841000924491],[4.793827912944659,53.00725117664962],[4.796943897873216,53.00738614488724],[4.796806148837253,53.00696585237699],[4.793576859443135,53.00682256539264],[4.793022006496631,53.00603125155698],[4.797393651024737,53.005033182336014],[4.793099201146826,53.002386601454035],[4.792227565708011,53.00206324728845],[4.784987667228372,53.00175439262309],[4.782424317878591,53.00414666293069],[4.780603078112913,53.003179617654325],[4.782250865880524,53.00137158079443],[4.77281740854283,53.00596014431284],[4.769371977291516,53.00589561940134],[4.75497856788159,53.01017349102198],[4.749451619747689,53.010573690247625],[4.746511046639946,53.010172667527996],[4.753800170283164,53.0043483928239],[4.762412820864691,53.001207551821686],[4.762839937569143,53.00162955884318],[4.763870449663284,53.00154572365696],[4.7635489657142145,53.00227457817728],[4.768730063158352,53.000062260539536],[4.770067002717102,53.00011883544843],[4.772013888496279,52.99851783652361],[4.77295289444593,52.998532820981985],[4.773658941820248,52.996328513776554],[4.759964027306138,52.99349870002299],[4.752125215852282,52.99077491950527],[4.736598878013378,52.98902149738584],[4.730492531719119,52.98374464589425],[4.72033057302696,52.991267467412335],[4.7135050108515495,52.997339948770836],[4.709776457765341,53.01311383513453],[4.70862696006578,53.02238482098168],[4.710161769524594,53.03328625730749],[4.716110723896762,53.051591457487234],[4.723531287551365,53.067629683504165],[4.735248950802452,53.08232391938921],[4.7474632354986515,53.094987962909954],[4.758140481329537,53.10589194576745],[4.7611164201876175,53.10837312239066],[4.775710764161459,53.12200015277291],[4.797504107108712,53.14090624537334],[4.810240636937796,53.1550124189023],[4.820608033513475,53.16429888038702],[4.831137837472453,53.17181396936985],[4.837958117903341,53.178818709374376],[4.840861413102899,53.183319759817344],[4.8448874439001735,53.18482632844213],[4.854427380332762,53.18534057753501],[4.859698979606832,53.183500116583645],[4.86112294880898,53.18302143917308],[4.873093235159003,53.172325919755004],[4.874790897714822,53.166842738159346],[4.879687231451723,53.16401023178521],[4.876852695273399,53.16159240166758],[4.8775895225755415,53.15782956723614],[4.878723592720451,53.15696865765712],[4.881068010025666,53.155084268397935]]]]},"properties":{"type":"boundary","gemeente":"Texel","code":"GM0448"}}]}