{"type":"FeatureCollection","metadata":{"gemeente":"Venlo","slug":"venlo","code":"GM0983","generated_at":"2026-06-02T13:19:22.438Z","total_passenger":370,"total_freight":4,"bounds":[6.071902933993976,51.277549647750554,6.226767563658139,51.50781667313443],"operators":["Allego","ChargePoint","DAEN Mobility","E-Flux by Road","EQUANS","Eneco","Fastned","Laadnet","Lidl","Milence","Opcharge","Pluq","Q-Park Netherlands","SMA eMobility Portal","Shell Recharge","Tanx","Vattenfall InCharge"]},"features":[{"type":"Feature","geometry":{"type":"Point","coordinates":[6.18001,51.37828]},"properties":{"type":"charge","layer":"passenger","locationId":"dd4b1bec-64b1-408a-97e8-f2202eb4bce5","name":"Gelreplein","address":"Gelreplein 11","city":"Venlo","operatorName":"Vattenfall InCharge","maxPowerKw":11,"isMegawatt":false,"status":"AVAILABLE","source":"ndw"}},{"type":"Feature","geometry":{"type":"Point","coordinates":[6.137949,51.342088]},"properties":{"type":"charge","layer":"passenger","locationId":"f8801b06-3664-4874-a5d7-1f1bb8e43bc8","name":"In de Beeten","address":"In de Beeten 25","city":"Tegelen","operatorName":"Vattenfall InCharge","maxPowerKw":11,"isMegawatt":false,"status":"AVAILABLE","source":"ndw"}},{"type":"Feature","geometry":{"type":"Point","coordinates":[6.119689,51.333885]},"properties":{"type":"charge","layer":"passenger","locationId":"438536898fc31816034eafcdb9ae6820","name":"Veerweg 14","address":"Veerweg 14","city":"Steyl","operatorName":"Vattenfall InCharge","maxPowerKw":11,"isMegawatt":false,"status":"AVAILABLE","source":"ndw"}},{"type":"Feature","geometry":{"type":"Point","coordinates":[6.163125,51.366366]},"properties":{"type":"charge","layer":"passenger","locationId":"440ffa36-abfd-489c-8089-32fe42f6e37b","name":"Nedinscoplein","address":"Nedinscoplein 40","city":"Venlo","operatorName":"Vattenfall InCharge","maxPowerKw":11,"isMegawatt":false,"status":"AVAILABLE","source":"ndw"}},{"type":"Feature","geometry":{"type":"Point","coordinates":[6.149815,51.368355]},"properties":{"type":"charge","layer":"passenger","locationId":"3d492698-1dc4-465c-bab1-8282215e68f4","name":"Wieenpassage","address":"Wieenpassage 40","city":"VENLO","operatorName":"Vattenfall InCharge","maxPowerKw":11,"isMegawatt":false,"status":"AVAILABLE","source":"ndw"}},{"type":"Feature","geometry":{"type":"Point","coordinates":[6.133912,51.396353]},"properties":{"type":"charge","layer":"passenger","locationId":"60dc8ea44d8fb239df8980fc","name":"Holland Casino Venlo","address":"Floralaan 7","city":"Venlo","operatorName":"E-Flux by Road","maxPowerKw":22,"isMegawatt":false,"status":"AVAILABLE","source":"ndw"}},{"type":"Feature","geometry":{"type":"Point","coordinates":[6.169296,51.377083]},"properties":{"type":"charge","layer":"passenger","locationId":"7de3610d-cd92-4829-b687-b00eccb415a7","name":"Dokter Mathijssenstraat 15","address":"Dokter Mathijssenstraat 15","city":"Venlo","operatorName":"Vattenfall InCharge","maxPowerKw":11,"isMegawatt":false,"status":"AVAILABLE","source":"ndw"}},{"type":"Feature","geometry":{"type":"Point","coordinates":[6.151648,51.335811]},"properties":{"type":"charge","layer":"passenger","locationId":"35a72e99e2aeda3703fc14613a192571","name":"Lijsterlaan 17","address":"Lijsterlaan 17","city":"Tegelen","operatorName":"Vattenfall InCharge","maxPowerKw":11,"isMegawatt":false,"status":"AVAILABLE","source":"ndw"}},{"type":"Feature","geometry":{"type":"Point","coordinates":[6.115549,51.31146]},"properties":{"type":"charge","layer":"passenger","locationId":"cd883587-adbe-4ff3-9669-93c385075200","name":"Nellemenkeslaan 3","address":"Nellemenkeslaan 3","city":"Belfeld","operatorName":"Vattenfall InCharge","maxPowerKw":11,"isMegawatt":false,"status":"AVAILABLE","source":"ndw"}},{"type":"Feature","geometry":{"type":"Point","coordinates":[6.1711,51.372832]},"properties":{"type":"charge","layer":"passenger","locationId":"9f262164-f0c0-11ed-94e4-42010aa40fc8","name":"Q-Park Venlo Nolensplein","address":"Mgr. Nolensplein 50","city":"Venlo","operatorName":"Q-Park Netherlands","maxPowerKw":11,"isMegawatt":false,"status":"AVAILABLE","source":"ndw"}},{"type":"Feature","geometry":{"type":"Point","coordinates":[6.178226,51.371851]},"properties":{"type":"charge","layer":"passenger","locationId":"2fb08428-0e2d-11eb-a8a0-42010a840005","name":"Shell Recharge Krefeldsweg 5","address":"Krefeldsweg 5","city":"Venlo","operatorName":"Shell Recharge","maxPowerKw":175,"isMegawatt":false,"status":"AVAILABLE","source":"ndw"}},{"type":"Feature","geometry":{"type":"Point","coordinates":[6.174254,51.3954]},"properties":{"type":"charge","layer":"passenger","locationId":"NLLOC000925","name":"Allego - Van der Valk Venlo A67","address":"Nijmeegseweg 90","city":"Venlo","operatorName":"Allego","maxPowerKw":0,"isMegawatt":false,"status":"AVAILABLE","source":"ndw"}},{"type":"Feature","geometry":{"type":"Point","coordinates":[6.13445,51.341662]},"properties":{"type":"charge","layer":"passenger","locationId":"03918b03-a25e-488e-9994-d1f107b12acd","name":"Engerstraat 1","address":"Engerstraat 1","city":"Tegelen","operatorName":"Vattenfall InCharge","maxPowerKw":11,"isMegawatt":false,"status":"AVAILABLE","source":"ndw"}},{"type":"Feature","geometry":{"type":"Point","coordinates":[6.184725,51.38117]},"properties":{"type":"charge","layer":"passenger","locationId":"88b33c20-ba7e-11f0-babc-42010aa400b8","name":"FOURCE BV VENLO 4","address":"307 Straelseweg","city":"Venlo","operatorName":"ChargePoint","maxPowerKw":22,"isMegawatt":false,"status":"UNAVAILABLE","source":"ndw"}},{"type":"Feature","geometry":{"type":"Point","coordinates":[6.191399,51.358244]},"properties":{"type":"charge","layer":"passenger","locationId":"fc84a300-4272-4f96-a3ce-8cac231b4897","name":"Anjerweg","address":"Anjerweg 34","city":"Venlo","operatorName":"Vattenfall InCharge","maxPowerKw":11,"isMegawatt":false,"status":"AVAILABLE","source":"ndw"}},{"type":"Feature","geometry":{"type":"Point","coordinates":[6.176871,51.36089]},"properties":{"type":"charge","layer":"passenger","locationId":"558fd1a8-f9fa-444f-b7f1-41b7f620b8da","name":"Maagdenbergweg 1","address":"Maagdenbergweg 1","city":"Venlo","operatorName":"Vattenfall InCharge","maxPowerKw":11,"isMegawatt":false,"status":"AVAILABLE","source":"ndw"}},{"type":"Feature","geometry":{"type":"Point","coordinates":[6.14804,51.36148]},"properties":{"type":"charge","layer":"passenger","locationId":"0c8f6b58-926a-4c8c-ae79-1a1bcb0d709a","name":"Molenbossen","address":"Molenbossen 114","city":"Venlo","operatorName":"Vattenfall InCharge","maxPowerKw":11,"isMegawatt":false,"status":"AVAILABLE","source":"ndw"}},{"type":"Feature","geometry":{"type":"Point","coordinates":[6.1711,51.372832]},"properties":{"type":"charge","layer":"passenger","locationId":"4D21258E-B83F-44CC-A958-B1D7C27482FF","name":"Q-Park Venlo Nolensplein","address":"Mgr. Nolensplein 50","city":"Venlo","operatorName":"Q-Park Netherlands","maxPowerKw":11,"isMegawatt":false,"status":"AVAILABLE","source":"ndw"}},{"type":"Feature","geometry":{"type":"Point","coordinates":[6.180444,51.380748]},"properties":{"type":"charge","layer":"passenger","locationId":"9780dd17-4887-42d9-9fe9-1039fbb70abc","name":"Pieter Breughelstraat","address":"Pieter Breughelstraat 11","city":"Venlo","operatorName":"Vattenfall InCharge","maxPowerKw":11,"isMegawatt":false,"status":"AVAILABLE","source":"ndw"}},{"type":"Feature","geometry":{"type":"Point","coordinates":[6.184725,51.38117]},"properties":{"type":"charge","layer":"passenger","locationId":"NLCPIL7310105","name":"FOURCE BV VENLO 4","address":"307 Straelseweg","city":"Venlo","operatorName":"ChargePoint","maxPowerKw":22,"isMegawatt":false,"status":"AVAILABLE","source":"ndw"}},{"type":"Feature","geometry":{"type":"Point","coordinates":[6.140191,51.391879]},"properties":{"type":"charge","layer":"passenger","locationId":"5CD38285-472C-48B7-B618-D0EFFDFE129A","name":"Eneco eMobility Celsiusweg 5 Venlo","address":"Celsiusweg 5","city":"Venlo","operatorName":"Eneco","maxPowerKw":0,"isMegawatt":false,"status":"AVAILABLE","source":"ndw"}},{"type":"Feature","geometry":{"type":"Point","coordinates":[6.176117,51.35955]},"properties":{"type":"charge","layer":"passenger","locationId":"6bf0f073-3f10-4f55-b41c-d2da48a02059","name":"Smaragd","address":"Smaragd 35","city":"Venlo","operatorName":"Vattenfall InCharge","maxPowerKw":11,"isMegawatt":false,"status":"AVAILABLE","source":"ndw"}},{"type":"Feature","geometry":{"type":"Point","coordinates":[6.169177,51.356495]},"properties":{"type":"charge","layer":"passenger","locationId":"13582f0ad1345280fd21caa0832f56d4","name":"Aalscholverstraat 6","address":"Aalscholverstraat 6","city":"Venlo","operatorName":"Vattenfall InCharge","maxPowerKw":11,"isMegawatt":false,"status":"AVAILABLE","source":"ndw"}},{"type":"Feature","geometry":{"type":"Point","coordinates":[6.174151,51.356773]},"properties":{"type":"charge","layer":"passenger","locationId":"bb3e1fa8ca4091fd30b02f44ac9f88b5","name":"Broekestraat 21","address":"Broekestraat 21","city":"Venlo","operatorName":"Vattenfall InCharge","maxPowerKw":11,"isMegawatt":false,"status":"AVAILABLE","source":"ndw"}},{"type":"Feature","geometry":{"type":"Point","coordinates":[6.112812,51.307839]},"properties":{"type":"charge","layer":"passenger","locationId":"f2717c10-4b47-494c-848c-94a4bd0ef698","name":"Oranjeplein","address":"Oranjeplein 8","city":"Belfeld","operatorName":"Vattenfall InCharge","maxPowerKw":11,"isMegawatt":false,"status":"AVAILABLE","source":"ndw"}},{"type":"Feature","geometry":{"type":"Point","coordinates":[6.1715,51.3697]},"properties":{"type":"charge","layer":"passenger","locationId":"7a892c59-f658-4faf-9a73-ee1d90c0a66e","name":"Lohofstraat 1","address":"Lohofstraat 1","city":"Venlo","operatorName":"Vattenfall InCharge","maxPowerKw":11,"isMegawatt":false,"status":"AVAILABLE","source":"ndw"}},{"type":"Feature","geometry":{"type":"Point","coordinates":[6.154871,51.33456]},"properties":{"type":"charge","layer":"passenger","locationId":"f665c68d-a22d-471b-8b5f-ab448f28ceab","name":"Brachterweg 42","address":"Brachterweg 42","city":"Tegelen","operatorName":"Vattenfall InCharge","maxPowerKw":22,"isMegawatt":false,"status":"AVAILABLE","source":"ndw"}},{"type":"Feature","geometry":{"type":"Point","coordinates":[6.136325,51.339999]},"properties":{"type":"charge","layer":"passenger","locationId":"27a167b1-22da-4ac6-b96a-567eef0f10aa","name":"Breukenhof","address":"Breukenhof 1","city":"Tegelen","operatorName":"Vattenfall InCharge","maxPowerKw":11,"isMegawatt":false,"status":"AVAILABLE","source":"ndw"}},{"type":"Feature","geometry":{"type":"Point","coordinates":[6.175122,51.392408]},"properties":{"type":"charge","layer":"passenger","locationId":"671a4cbcc8e00f001d3d16a0","name":"SKS Group","address":"Noorderpoort 7","city":"Venlo","operatorName":"Pluq","maxPowerKw":22,"isMegawatt":false,"status":"AVAILABLE","source":"ndw"}},{"type":"Feature","geometry":{"type":"Point","coordinates":[6.172087,51.373823]},"properties":{"type":"charge","layer":"passenger","locationId":"8bc4cf69-38af-4262-b099-a4bdbb80b24f","name":"Noord Buitensingel 13","address":"Noord Buitensingel 13","city":"Venlo","operatorName":"Vattenfall InCharge","maxPowerKw":11,"isMegawatt":false,"status":"AVAILABLE","source":"ndw"}},{"type":"Feature","geometry":{"type":"Point","coordinates":[6.178068,51.479991]},"properties":{"type":"charge","layer":"passenger","locationId":"2dbc2790a89501aaebd544ecf81dbfa1","name":"Lage Lei 8","address":"Lage Lei 8","city":"Arcen","operatorName":"Vattenfall InCharge","maxPowerKw":11,"isMegawatt":false,"status":"AVAILABLE","source":"ndw"}},{"type":"Feature","geometry":{"type":"Point","coordinates":[6.176505,51.368461]},"properties":{"type":"charge","layer":"passenger","locationId":"398e4207-1243-40db-b56f-de8d0b28ac69","name":"Burgemeester van Rijnsingel 28","address":"Burgemeester van Rijnsingel 28","city":"Venlo","operatorName":"Vattenfall InCharge","maxPowerKw":11,"isMegawatt":false,"status":"AVAILABLE","source":"ndw"}},{"type":"Feature","geometry":{"type":"Point","coordinates":[6.180187,51.366995]},"properties":{"type":"charge","layer":"passenger","locationId":"9ef094c7-2a3d-4dbc-85ac-77bd8cfc57bc","name":"Hertog Reinoudsingel","address":"Hertog Reinoudsingel 156","city":"Venlo","operatorName":"Vattenfall InCharge","maxPowerKw":11,"isMegawatt":false,"status":"AVAILABLE","source":"ndw"}},{"type":"Feature","geometry":{"type":"Point","coordinates":[6.140191,51.391879]},"properties":{"type":"charge","layer":"passenger","locationId":"e45d94ba-4e72-11e8-97b2-42010a840002","name":"Eneco eMobility Celsiusweg 5 Venlo","address":"Celsiusweg 5","city":"Venlo","operatorName":"Eneco","maxPowerKw":0,"isMegawatt":false,"status":"AVAILABLE","source":"ndw"}},{"type":"Feature","geometry":{"type":"Point","coordinates":[6.147231,51.367431]},"properties":{"type":"charge","layer":"passenger","locationId":"ecc403c4-a7a6-4ac0-bd59-ad87ad276635","name":"Hendrik van Veldekestraat","address":"Hendrik van Veldekestraat 21","city":"Venlo","operatorName":"Vattenfall InCharge","maxPowerKw":11,"isMegawatt":false,"status":"AVAILABLE","source":"ndw"}},{"type":"Feature","geometry":{"type":"Point","coordinates":[6.16912,51.41807]},"properties":{"type":"charge","layer":"passenger","locationId":"bc3aef16-fec7-4620-b361-845bcdb5f3bb","name":"Verger der Kampstraat","address":"Verger der Kampstraat 43","city":"Velden","operatorName":"Vattenfall InCharge","maxPowerKw":11,"isMegawatt":false,"status":"AVAILABLE","source":"ndw"}},{"type":"Feature","geometry":{"type":"Point","coordinates":[6.175949,51.363346]},"properties":{"type":"charge","layer":"passenger","locationId":"220aed90-79eb-49a2-9749-e0b3a1164440","name":"Zandstraat","address":"Zandstraat 7","city":"Venlo","operatorName":"Vattenfall InCharge","maxPowerKw":11,"isMegawatt":false,"status":"AVAILABLE","source":"ndw"}},{"type":"Feature","geometry":{"type":"Point","coordinates":[6.131508,51.395998]},"properties":{"type":"charge","layer":"passenger","locationId":"5a6a3aae-ea1c-11ef-94e0-42010aa400b8","name":"Eneco eMobility Synergy Health - Faunalaan 38 - Venlo","address":"Faunalaan 38","city":"Venlo","operatorName":"Eneco","maxPowerKw":22,"isMegawatt":false,"status":"AVAILABLE","source":"ndw"}},{"type":"Feature","geometry":{"type":"Point","coordinates":[6.147377,51.382076]},"properties":{"type":"charge","layer":"passenger","locationId":"9d61ed22-3b1f-11ef-9951-42010aa400b8","name":"Eneco eMobility Hedin Automotive - Venlo","address":"Groot-Bollerweg 24","city":"Venlo","operatorName":"Eneco","maxPowerKw":22,"isMegawatt":false,"status":"AVAILABLE","source":"ndw"}},{"type":"Feature","geometry":{"type":"Point","coordinates":[6.172014,51.384664]},"properties":{"type":"charge","layer":"passenger","locationId":"787d8e54-03d1-47c1-bdb8-5c9568e1ff2d","name":"Rummerkampstraat 51","address":"Rummerkampstraat 51","city":"Venlo","operatorName":"Vattenfall InCharge","maxPowerKw":11,"isMegawatt":false,"status":"AVAILABLE","source":"ndw"}},{"type":"Feature","geometry":{"type":"Point","coordinates":[6.17215,51.36927]},"properties":{"type":"charge","layer":"passenger","locationId":"8baadd18-0c93-11ec-aae9-42010a840032","name":"Q-Park Venlo Arsenaal","address":"Nassaustraat 87","city":"Venlo","operatorName":"Q-Park Netherlands","maxPowerKw":11,"isMegawatt":false,"status":"AVAILABLE","source":"ndw"}},{"type":"Feature","geometry":{"type":"Point","coordinates":[6.140191,51.391879]},"properties":{"type":"charge","layer":"passenger","locationId":"c8136718-d082-11f0-b8f9-42010aa400b8","name":"Eneco eMobility Celsiusweg 5 Venlo","address":"Celsiusweg 5","city":"Venlo","operatorName":"Eneco","maxPowerKw":0,"isMegawatt":false,"status":"CHARGING","source":"ndw"}},{"type":"Feature","geometry":{"type":"Point","coordinates":[6.176029,51.392848]},"properties":{"type":"charge","layer":"passenger","locationId":"22b1d6e45ad24a1691cf","name":"Campanile Venlo","address":"Noorderpoort 5","city":"Venlo","operatorName":"Opcharge","maxPowerKw":22,"isMegawatt":false,"status":"AVAILABLE","source":"ndw"}},{"type":"Feature","geometry":{"type":"Point","coordinates":[6.165186,51.368422]},"properties":{"type":"charge","layer":"passenger","locationId":"92467d42-5a3c-11e8-a0be-42010a840002","name":"Q-Park Venlo Roermondsepoort","address":"Prinsessesingel 28","city":"Venlo","operatorName":"Q-Park Netherlands","maxPowerKw":11,"isMegawatt":false,"status":"AVAILABLE","source":"ndw"}},{"type":"Feature","geometry":{"type":"Point","coordinates":[6.143598,51.361688]},"properties":{"type":"charge","layer":"passenger","locationId":"62ef6c2d-1534-40ad-9e27-c121a2512949","name":"Prins Mauritsstraat 17","address":"Prins Mauritsstraat 17","city":"Venlo","operatorName":"Vattenfall InCharge","maxPowerKw":11,"isMegawatt":false,"status":"AVAILABLE","source":"ndw"}},{"type":"Feature","geometry":{"type":"Point","coordinates":[6.190733,51.37275]},"properties":{"type":"charge","layer":"passenger","locationId":"db5d3227-cc83-4535-9751-7014cfc1e26f","name":"Rijnbeekstraat","address":"Rijnbeekstraat 414","city":"Venlo","operatorName":"Vattenfall InCharge","maxPowerKw":11,"isMegawatt":false,"status":"AVAILABLE","source":"ndw"}},{"type":"Feature","geometry":{"type":"Point","coordinates":[6.172061,51.361692]},"properties":{"type":"charge","layer":"passenger","locationId":"ed61220f-4bff-46a0-b38c-9969fb34432e","name":"Sloterbeekstraat","address":"Sloterbeekstraat 95","city":"Venlo","operatorName":"Vattenfall InCharge","maxPowerKw":11,"isMegawatt":false,"status":"AVAILABLE","source":"ndw"}},{"type":"Feature","geometry":{"type":"Point","coordinates":[6.184751,51.372126]},"properties":{"type":"charge","layer":"passenger","locationId":"2222db21-908e-4747-926b-2d95aef7366e","name":"Rijnbeekstraat","address":"Rijnbeekstraat 107","city":"Venlo","operatorName":"Vattenfall InCharge","maxPowerKw":11,"isMegawatt":false,"status":"AVAILABLE","source":"ndw"}},{"type":"Feature","geometry":{"type":"Point","coordinates":[6.184997,51.381093]},"properties":{"type":"charge","layer":"passenger","locationId":"NLCPIL7310195","name":"FOURCE BV VENLO 1","address":"307 Straelseweg","city":"Venlo","operatorName":"ChargePoint","maxPowerKw":22,"isMegawatt":false,"status":"AVAILABLE","source":"ndw"}},{"type":"Feature","geometry":{"type":"Point","coordinates":[6.178226,51.371851]},"properties":{"type":"charge","layer":"passenger","locationId":"33","name":"Shell Recharge NL2036 - Shell Auto Quick Service","address":"Krefeldsweg 5","city":"Venlo","operatorName":"Shell Recharge","maxPowerKw":175,"isMegawatt":false,"status":"AVAILABLE","source":"ndw"}},{"type":"Feature","geometry":{"type":"Point","coordinates":[6.167185,51.444912]},"properties":{"type":"charge","layer":"passenger","locationId":"f86f18436f06f922bda536d15c6c6615","name":"Diepstraat 12","address":"Diepstraat 12","city":"Lomm","operatorName":"Vattenfall InCharge","maxPowerKw":11,"isMegawatt":false,"status":"AVAILABLE","source":"ndw"}},{"type":"Feature","geometry":{"type":"Point","coordinates":[6.131709,51.406563]},"properties":{"type":"charge","layer":"passenger","locationId":"d2019313a70f47d7bb26621dca8f6722","name":"Venlo - Enes B.V.","address":"Venrayseweg 124","city":"Venlo","operatorName":"Opcharge","maxPowerKw":22,"isMegawatt":false,"status":"AVAILABLE","source":"ndw"}},{"type":"Feature","geometry":{"type":"Point","coordinates":[6.16358,51.41699]},"properties":{"type":"charge","layer":"passenger","locationId":"bc2ce0fc-51c3-496b-b32d-1b2dec1f67e6","name":"Kloosterstraat","address":"Kloosterstraat 47","city":"Velden","operatorName":"Vattenfall InCharge","maxPowerKw":11,"isMegawatt":false,"status":"AVAILABLE","source":"ndw"}},{"type":"Feature","geometry":{"type":"Point","coordinates":[6.164649,51.36902]},"properties":{"type":"charge","layer":"passenger","locationId":"0B3A0D91-D95E-4884-9877-EA0DA20CCB39","name":"Q-Park Venlo Centrum Maasboulevard","address":"Prinsessesingel 5","city":"Venlo","operatorName":"Q-Park Netherlands","maxPowerKw":11,"isMegawatt":false,"status":"CHARGING","source":"ndw"}},{"type":"Feature","geometry":{"type":"Point","coordinates":[6.135956,51.389162]},"properties":{"type":"charge","layer":"passenger","locationId":"696893fc972e877dd9cfccce","name":"Lineage Venlo","address":"Archimedesweg 19","city":"Venlo","operatorName":"Tanx","maxPowerKw":11,"isMegawatt":false,"status":"AVAILABLE","source":"ndw"}},{"type":"Feature","geometry":{"type":"Point","coordinates":[6.183644,51.37703]},"properties":{"type":"charge","layer":"passenger","locationId":"30fb27e3-04a8-466c-a492-8fd217dfd60a","name":"Albert Cuypstraat","address":"Albert Cuypstraat 104","city":"Venlo","operatorName":"Vattenfall InCharge","maxPowerKw":11,"isMegawatt":false,"status":"AVAILABLE","source":"ndw"}},{"type":"Feature","geometry":{"type":"Point","coordinates":[6.119622,51.3734]},"properties":{"type":"charge","layer":"passenger","locationId":"ab682126-f8d5-11ed-9629-42010aa40fc0","name":"HOTEL MAASHOF MAASHOF 3","address":"Maashoflaan 1","city":"Venlo","operatorName":"ChargePoint","maxPowerKw":22,"isMegawatt":false,"status":"UNAVAILABLE","source":"ndw"}},{"type":"Feature","geometry":{"type":"Point","coordinates":[6.183601,51.374341]},"properties":{"type":"charge","layer":"passenger","locationId":"dc4138a6-6cb4-4f56-a628-a23ca892be45","name":"Laaghuissingel","address":"Laaghuissingel 3","city":"Venlo","operatorName":"Vattenfall InCharge","maxPowerKw":11,"isMegawatt":false,"status":"AVAILABLE","source":"ndw"}},{"type":"Feature","geometry":{"type":"Point","coordinates":[6.151099,51.3656]},"properties":{"type":"charge","layer":"passenger","locationId":"eb309746fbb7738d1af6f10a63e312be","name":"Laurentiusstraat 10","address":"Laurentiusstraat 10","city":"Venlo","operatorName":"Vattenfall InCharge","maxPowerKw":11,"isMegawatt":false,"status":"AVAILABLE","source":"ndw"}},{"type":"Feature","geometry":{"type":"Point","coordinates":[6.125931,51.317415]},"properties":{"type":"charge","layer":"passenger","locationId":"4351118","name":"Laadnet Nedinsco","address":"Schoolstraat 136","city":"Belfeld","operatorName":"Laadnet","maxPowerKw":22,"isMegawatt":false,"status":"AVAILABLE","source":"ndw"}},{"type":"Feature","geometry":{"type":"Point","coordinates":[6.171565,51.373596]},"properties":{"type":"charge","layer":"passenger","locationId":"2ea0af5c-8105-11ed-a48d-42010aa40059","name":"Q-Park Venlo Blok van Gendt","address":"Valuasstraat 26 A","city":"Venlo","operatorName":"Q-Park Netherlands","maxPowerKw":11,"isMegawatt":false,"status":"AVAILABLE","source":"ndw"}},{"type":"Feature","geometry":{"type":"Point","coordinates":[6.13049,51.39661]},"properties":{"type":"charge","layer":"passenger","locationId":"4d9ceac4-ea1c-11ef-90bb-42010aa400b8","name":"Eneco eMobility Faunalaan 46Venlo","address":"Faunalaan 46","city":"Venlo","operatorName":"Eneco","maxPowerKw":22,"isMegawatt":false,"status":"AVAILABLE","source":"ndw"}},{"type":"Feature","geometry":{"type":"Point","coordinates":[6.081959,51.416123]},"properties":{"type":"charge","layer":"passenger","locationId":"6979be381ebad361d2feef2b","name":"James Tobinstraat Haba Trading I VidaXL","address":"James Tobinstraat 1","city":"Venlo","operatorName":"Tanx","maxPowerKw":11,"isMegawatt":false,"status":"AVAILABLE","source":"ndw"}},{"type":"Feature","geometry":{"type":"Point","coordinates":[6.178821,51.444747]},"properties":{"type":"charge","layer":"passenger","locationId":"69b3f7882160377483e87f14","name":"Oerlikon Eldim (NL) B.V.","address":"Spikweien 24","city":"Lomm","operatorName":"Tanx","maxPowerKw":11,"isMegawatt":false,"status":"AVAILABLE","source":"ndw"}},{"type":"Feature","geometry":{"type":"Point","coordinates":[6.141317,51.335759]},"properties":{"type":"charge","layer":"passenger","locationId":"69f3419d7b11fd5b740e3e1a","name":"Aannemingsbedrijf P.H. van der Velden b.v.","address":"Aan de Zwarte Hond 1","city":"Tegelen","operatorName":"Tanx","maxPowerKw":11,"isMegawatt":false,"status":"AVAILABLE","source":"ndw"}},{"type":"Feature","geometry":{"type":"Point","coordinates":[6.136438,51.361523]},"properties":{"type":"charge","layer":"passenger","locationId":"f0696369-7b5d-4260-826b-389a1a1c4e5e","name":"Frederik Hendrikstraat 185","address":"Frederik Hendrikstraat 185","city":"Venlo","operatorName":"Vattenfall InCharge","maxPowerKw":11,"isMegawatt":false,"status":"AVAILABLE","source":"ndw"}},{"type":"Feature","geometry":{"type":"Point","coordinates":[6.156674,51.358518]},"properties":{"type":"charge","layer":"passenger","locationId":"87e41855-c0c6-490c-b91f-a8d26534b9c8","name":"Tegelseweg 210","address":"Tegelseweg 210","city":"Venlo","operatorName":"Vattenfall InCharge","maxPowerKw":22,"isMegawatt":false,"status":"AVAILABLE","source":"ndw"}},{"type":"Feature","geometry":{"type":"Point","coordinates":[6.1711,51.372832]},"properties":{"type":"charge","layer":"passenger","locationId":"e35e1eec-d54f-11f0-b9d9-42010aa400b8","name":"Q-Park Venlo Nolensplein","address":"Mgr. Nolensplein 50","city":"Venlo","operatorName":"Q-Park Netherlands","maxPowerKw":11,"isMegawatt":false,"status":"AVAILABLE","source":"ndw"}},{"type":"Feature","geometry":{"type":"Point","coordinates":[6.14777,51.375252]},"properties":{"type":"charge","layer":"passenger","locationId":"918af618-b8df-11ef-b647-42010aa400b8","name":"Shell Recharge Ottostraat 19","address":"Ottostraat 19","city":"Venlo","operatorName":"Shell Recharge","maxPowerKw":150,"isMegawatt":false,"status":"AVAILABLE","source":"ndw"}},{"type":"Feature","geometry":{"type":"Point","coordinates":[6.136352,51.331135]},"properties":{"type":"charge","layer":"passenger","locationId":"27c018e5-4196-434b-89c9-45127a896acb","name":"Kasteellaan 10","address":"Kasteellaan 10","city":"Tegelen","operatorName":"Vattenfall InCharge","maxPowerKw":22,"isMegawatt":false,"status":"AVAILABLE","source":"ndw"}},{"type":"Feature","geometry":{"type":"Point","coordinates":[6.173551,51.485874]},"properties":{"type":"charge","layer":"passenger","locationId":"667c017ac4fe2c001c31799a","name":"Hertog Jan Proeverij","address":"Kruisweg 43","city":"Arcen","operatorName":"Pluq","maxPowerKw":22,"isMegawatt":false,"status":"AVAILABLE","source":"ndw"}},{"type":"Feature","geometry":{"type":"Point","coordinates":[6.135562,51.347092]},"properties":{"type":"charge","layer":"passenger","locationId":"e805ebd8-b710-4595-9f11-a89ce107d3c2","name":"Lisdodde 3","address":"Lisdodde 3","city":"Tegelen","operatorName":"Vattenfall InCharge","maxPowerKw":11,"isMegawatt":false,"status":"UNAVAILABLE","source":"ndw"}},{"type":"Feature","geometry":{"type":"Point","coordinates":[6.140433,51.388106]},"properties":{"type":"charge","layer":"passenger","locationId":"13080488-b9cf-11f0-b9a7-42010aa400b8","name":"EQUANS Weir Minerals","address":"Egtenrayseweg 26","city":"Venlo","operatorName":"EQUANS","maxPowerKw":0,"isMegawatt":false,"status":"AVAILABLE","source":"ndw"}},{"type":"Feature","geometry":{"type":"Point","coordinates":[6.166893,51.379649]},"properties":{"type":"charge","layer":"passenger","locationId":"67613258a59727ffb2d429db","name":"Hotel Restaurant Valuas","address":"Sint Urbanusweg 11","city":"Venlo","operatorName":"Tanx","maxPowerKw":22,"isMegawatt":false,"status":"AVAILABLE","source":"ndw"}},{"type":"Feature","geometry":{"type":"Point","coordinates":[6.152718,51.382705]},"properties":{"type":"charge","layer":"passenger","locationId":"3843559","name":"Laadnet Habraken van Walraven Venlo","address":"Groot Bollerweg 12A","city":"Venlo","operatorName":"Laadnet","maxPowerKw":22,"isMegawatt":false,"status":"UNAVAILABLE","source":"ndw"}},{"type":"Feature","geometry":{"type":"Point","coordinates":[6.137586,51.36376]},"properties":{"type":"charge","layer":"passenger","locationId":"efc5592d-5f37-4dad-a6b0-bb7acf13a2a3","name":"Prins Mauritsstraat","address":"Prins Mauritsstraat 129","city":"Venlo","operatorName":"Vattenfall InCharge","maxPowerKw":11,"isMegawatt":false,"status":"AVAILABLE","source":"ndw"}},{"type":"Feature","geometry":{"type":"Point","coordinates":[6.119691,51.333426]},"properties":{"type":"charge","layer":"passenger","locationId":"18f93231-3b9d-4535-854d-aef4ebf1713e","name":"Veerweg","address":"Veerweg 3","city":"Steyl","operatorName":"Vattenfall InCharge","maxPowerKw":11,"isMegawatt":false,"status":"AVAILABLE","source":"ndw"}},{"type":"Feature","geometry":{"type":"Point","coordinates":[6.153924,51.383813]},"properties":{"type":"charge","layer":"passenger","locationId":"66ed4ea52143db001cf1a4f9","name":"Jozef Hermans kantoor","address":"Tjalkkade 4","city":"Venlo","operatorName":"Tanx","maxPowerKw":11,"isMegawatt":false,"status":"AVAILABLE","source":"ndw"}},{"type":"Feature","geometry":{"type":"Point","coordinates":[6.175406,51.366605]},"properties":{"type":"charge","layer":"passenger","locationId":"1a91b43f224dec8aec12dec76cef1383","name":"Heutzstraat 59","address":"Heutzstraat 59","city":"Venlo","operatorName":"Vattenfall InCharge","maxPowerKw":11,"isMegawatt":false,"status":"AVAILABLE","source":"ndw"}},{"type":"Feature","geometry":{"type":"Point","coordinates":[6.169677,51.383574]},"properties":{"type":"charge","layer":"passenger","locationId":"33e68239370c94ba7672a04ad6abd06a","name":"Karbindersstraat 2","address":"Karbindersstraat 2","city":"Venlo","operatorName":"Vattenfall InCharge","maxPowerKw":11,"isMegawatt":false,"status":"AVAILABLE","source":"ndw"}},{"type":"Feature","geometry":{"type":"Point","coordinates":[6.081001,51.396825]},"properties":{"type":"charge","layer":"passenger","locationId":"3966408","name":"Laadnet Nedinsco Laadstations Voorzijde","address":"Jan van Riebeeckweg 5","city":"Venlo","operatorName":"Laadnet","maxPowerKw":22,"isMegawatt":false,"status":"AVAILABLE","source":"ndw"}},{"type":"Feature","geometry":{"type":"Point","coordinates":[6.140918,51.350354]},"properties":{"type":"charge","layer":"passenger","locationId":"7c764950d6499e3d6484dafa470c3143","name":"Boskampstraat 27","address":"Boskampstraat 27","city":"Tegelen","operatorName":"Vattenfall InCharge","maxPowerKw":11,"isMegawatt":false,"status":"AVAILABLE","source":"ndw"}},{"type":"Feature","geometry":{"type":"Point","coordinates":[6.14777,51.375252]},"properties":{"type":"charge","layer":"passenger","locationId":"5071","name":"Shell Recharge NL9187 - Gamma Venlo","address":"Ottostraat 19","city":"Venlo","operatorName":"Shell Recharge","maxPowerKw":150,"isMegawatt":false,"status":"AVAILABLE","source":"ndw"}},{"type":"Feature","geometry":{"type":"Point","coordinates":[6.08524,51.407422]},"properties":{"type":"charge","layer":"passenger","locationId":"6979bbcfab65d4d5a8c31745","name":"Mary Kingsleystraat Haba Trading I VidaXL","address":"Mary Kingsleystraat 1","city":"Venlo","operatorName":"Tanx","maxPowerKw":11,"isMegawatt":false,"status":"AVAILABLE","source":"ndw"}},{"type":"Feature","geometry":{"type":"Point","coordinates":[6.160567,51.361631]},"properties":{"type":"charge","layer":"passenger","locationId":"2324fbfa-8c7d-4455-a431-aba299a42827","name":"Tegelseweg","address":"Tegelseweg 136","city":"Venlo","operatorName":"Vattenfall InCharge","maxPowerKw":11,"isMegawatt":false,"status":"AVAILABLE","source":"ndw"}},{"type":"Feature","geometry":{"type":"Point","coordinates":[6.149275,51.34256]},"properties":{"type":"charge","layer":"passenger","locationId":"0ce567b7-1613-4be1-96a4-08656c962721","name":"Lindestraat 1","address":"Lindestraat 1","city":"Tegelen","operatorName":"Vattenfall InCharge","maxPowerKw":11,"isMegawatt":false,"status":"AVAILABLE","source":"ndw"}},{"type":"Feature","geometry":{"type":"Point","coordinates":[6.176831,51.370974]},"properties":{"type":"charge","layer":"passenger","locationId":"f4b56a8b-8436-4b14-980d-07a4356f8872","name":"Deken van Oppensingel","address":"Deken van Oppensingel 67","city":"Venlo","operatorName":"Vattenfall InCharge","maxPowerKw":11,"isMegawatt":false,"status":"AVAILABLE","source":"ndw"}},{"type":"Feature","geometry":{"type":"Point","coordinates":[6.1811,51.361898]},"properties":{"type":"charge","layer":"passenger","locationId":"7ef58c01-30f4-461f-a820-5edabf16583d","name":"Lidl VENLO-Groenveldsingel","address":"Groenveldsingel","city":"Venlo","operatorName":"Lidl","maxPowerKw":22,"isMegawatt":false,"status":"UNAVAILABLE","source":"ndw"}},{"type":"Feature","geometry":{"type":"Point","coordinates":[6.187671,51.381111]},"properties":{"type":"charge","layer":"passenger","locationId":"66ea6cfb142641001d682b1d","name":"Leurs Tuincentrum","address":"Straelseweg 370","city":"Venlo","operatorName":"E-Flux by Road","maxPowerKw":24,"isMegawatt":false,"status":"AVAILABLE","source":"ndw"}},{"type":"Feature","geometry":{"type":"Point","coordinates":[6.170349,51.360918]},"properties":{"type":"charge","layer":"passenger","locationId":"69f2f6ff-a234-4bdb-9dab-6ca471ab238a","name":"Verrekampplein 39","address":"Verrekampplein 39","city":"Venlo","operatorName":"Vattenfall InCharge","maxPowerKw":11,"isMegawatt":false,"status":"AVAILABLE","source":"ndw"}},{"type":"Feature","geometry":{"type":"Point","coordinates":[6.150142,51.348043]},"properties":{"type":"charge","layer":"passenger","locationId":"5ec7d4fd-170a-4b71-b7f0-b72b0e8afaa1","name":"Goselingstraat 74","address":"Goselingstraat 74","city":"Tegelen","operatorName":"Vattenfall InCharge","maxPowerKw":11,"isMegawatt":false,"status":"AVAILABLE","source":"ndw"}},{"type":"Feature","geometry":{"type":"Point","coordinates":[6.15754,51.36196]},"properties":{"type":"charge","layer":"passenger","locationId":"597f38cac6effca85421799472e872b9","name":"Mathilde Wibautstraat 12","address":"Mathilde Wibautstraat 12","city":"Venlo","operatorName":"Vattenfall InCharge","maxPowerKw":11,"isMegawatt":false,"status":"AVAILABLE","source":"ndw"}},{"type":"Feature","geometry":{"type":"Point","coordinates":[6.13849,51.39243]},"properties":{"type":"charge","layer":"passenger","locationId":"0861F48C-1FFE-43E2-906E-0B2ACDEF87E8","name":"Eneco eMobility Celsiusweg 8 Venlo","address":"Celsiusweg 8","city":"Venlo","operatorName":"Eneco","maxPowerKw":0,"isMegawatt":false,"status":"AVAILABLE","source":"ndw"}},{"type":"Feature","geometry":{"type":"Point","coordinates":[6.128878,51.366281]},"properties":{"type":"charge","layer":"passenger","locationId":"db67764063ef488ad9d6c58035714924","name":"Grimmstraat 48","address":"Grimmstraat 48","city":"Venlo","operatorName":"Vattenfall InCharge","maxPowerKw":11,"isMegawatt":false,"status":"AVAILABLE","source":"ndw"}},{"type":"Feature","geometry":{"type":"Point","coordinates":[6.174254,51.3954]},"properties":{"type":"charge","layer":"passenger","locationId":"c3bf8a9a-b255-11e9-9555-42010a840003","name":"Allego - Van der Valk Venlo A67","address":"Nijmeegseweg 90","city":"Venlo","operatorName":"Allego","maxPowerKw":0,"isMegawatt":false,"status":"AVAILABLE","source":"ndw"}},{"type":"Feature","geometry":{"type":"Point","coordinates":[6.17215,51.36927]},"properties":{"type":"charge","layer":"passenger","locationId":"FB53C8C3-0A25-44C6-8C4A-8FEFC9D33B60","name":"Q-Park Venlo Arsenaal","address":"Nassaustraat 87","city":"Venlo","operatorName":"Q-Park Netherlands","maxPowerKw":11,"isMegawatt":false,"status":"AVAILABLE","source":"ndw"}},{"type":"Feature","geometry":{"type":"Point","coordinates":[6.178074,51.495955]},"properties":{"type":"charge","layer":"passenger","locationId":"47528ce8-3159-11ec-9faa-42010a840003","name":"EQUANS Fletcher Fletcher Hotel-Restaurant Rooland","address":"Roobeekweg 1","city":"Arcen","operatorName":"EQUANS","maxPowerKw":0,"isMegawatt":false,"status":"AVAILABLE","source":"ndw"}},{"type":"Feature","geometry":{"type":"Point","coordinates":[6.19192,51.367196]},"properties":{"type":"charge","layer":"passenger","locationId":"d22ebcd063adceef6481323287255e3c","name":"Veldzuring 30","address":"Veldzuring 30","city":"Venlo","operatorName":"Vattenfall InCharge","maxPowerKw":11,"isMegawatt":false,"status":"AVAILABLE","source":"ndw"}},{"type":"Feature","geometry":{"type":"Point","coordinates":[6.19952,51.50272]},"properties":{"type":"charge","layer":"passenger","locationId":"667c0bf75edc12001ce3b674","name":"Campland Arcen","address":"Dorperheideweg 45","city":"Arcen","operatorName":"Pluq","maxPowerKw":22,"isMegawatt":false,"status":"AVAILABLE","source":"ndw"}},{"type":"Feature","geometry":{"type":"Point","coordinates":[6.139276,51.345386]},"properties":{"type":"charge","layer":"passenger","locationId":"c7ea4f3e-3eb5-4050-b528-138963a7606a","name":"Hoogstraat 3","address":"Hoogstraat 3","city":"Tegelen","operatorName":"Vattenfall InCharge","maxPowerKw":11,"isMegawatt":false,"status":"AVAILABLE","source":"ndw"}},{"type":"Feature","geometry":{"type":"Point","coordinates":[6.188604,51.387001]},"properties":{"type":"charge","layer":"passenger","locationId":"ab45ad00eb19b7841b3ba77d271c0a0f","name":"De Ossenberg 2","address":"De Ossenberg 2","city":"Venlo","operatorName":"Vattenfall InCharge","maxPowerKw":11,"isMegawatt":false,"status":"AVAILABLE","source":"ndw"}},{"type":"Feature","geometry":{"type":"Point","coordinates":[6.14136,51.34961]},"properties":{"type":"charge","layer":"passenger","locationId":"3b0b1a1b-ae7d-4cdd-9159-9b0c67a951b7","name":"Beekpunge","address":"Beekpunge 12","city":"Tegelen","operatorName":"Vattenfall InCharge","maxPowerKw":11,"isMegawatt":false,"status":"AVAILABLE","source":"ndw"}},{"type":"Feature","geometry":{"type":"Point","coordinates":[6.12253,51.320645]},"properties":{"type":"charge","layer":"passenger","locationId":"40E29DC2-E68F-4687-B3F0-E9439420EA7A","name":"Eneco eMobility Total Belting","address":"Blauwwater 17","city":"Belffeld","operatorName":"Eneco","maxPowerKw":11,"isMegawatt":false,"status":"CHARGING","source":"ndw"}},{"type":"Feature","geometry":{"type":"Point","coordinates":[6.169137,51.356559]},"properties":{"type":"charge","layer":"passenger","locationId":"352bb422f4954b2165527544b27e5bca","name":"Stormvogelstraat 1","address":"Stormvogelstraat 1","city":"Venlo","operatorName":"Vattenfall InCharge","maxPowerKw":11,"isMegawatt":false,"status":"AVAILABLE","source":"ndw"}},{"type":"Feature","geometry":{"type":"Point","coordinates":[6.171738,51.367924]},"properties":{"type":"charge","layer":"passenger","locationId":"cb599165-96c6-4e67-90fb-0986c55dc281","name":"Nassaustraat","address":"Nassaustraat 6","city":"Venlo","operatorName":"Vattenfall InCharge","maxPowerKw":11,"isMegawatt":false,"status":"AVAILABLE","source":"ndw"}},{"type":"Feature","geometry":{"type":"Point","coordinates":[6.182231,51.380006]},"properties":{"type":"charge","layer":"passenger","locationId":"466ff5f9-da1b-4b17-ad3d-1749492442b6","name":"Paulus Potterstraat","address":"Paulus Potterstraat 39","city":"Venlo","operatorName":"Vattenfall InCharge","maxPowerKw":11,"isMegawatt":false,"status":"AVAILABLE","source":"ndw"}},{"type":"Feature","geometry":{"type":"Point","coordinates":[6.129628,51.343777]},"properties":{"type":"charge","layer":"passenger","locationId":"118a649b-6301-4110-a3f4-2f13b2947cad","name":"Riviersingel 63","address":"Riviersingel 63","city":"Tegelen","operatorName":"Vattenfall InCharge","maxPowerKw":11,"isMegawatt":false,"status":"AVAILABLE","source":"ndw"}},{"type":"Feature","geometry":{"type":"Point","coordinates":[6.140433,51.388106]},"properties":{"type":"charge","layer":"passenger","locationId":"91234269","name":"EQUANS Weir Minerals","address":"Egtenrayseweg 26","city":"Venlo","operatorName":"EQUANS","maxPowerKw":0,"isMegawatt":false,"status":"AVAILABLE","source":"ndw"}},{"type":"Feature","geometry":{"type":"Point","coordinates":[6.143113,51.333748]},"properties":{"type":"charge","layer":"passenger","locationId":"5320594c-617b-4f70-b240-de76a40fd485","name":"Nachtegaalstraat","address":"Nachtegaalstraat 232","city":"Tegelen","operatorName":"Vattenfall InCharge","maxPowerKw":11,"isMegawatt":false,"status":"AVAILABLE","source":"ndw"}},{"type":"Feature","geometry":{"type":"Point","coordinates":[6.163018,51.362383]},"properties":{"type":"charge","layer":"passenger","locationId":"86eaeb9e-4cb9-4f20-9bc3-12415e4f2fc9","name":"Pastoor Op Heijstraat","address":"Pastoor Op Heijstraat 25","city":"Venlo","operatorName":"Vattenfall InCharge","maxPowerKw":11,"isMegawatt":false,"status":"AVAILABLE","source":"ndw"}},{"type":"Feature","geometry":{"type":"Point","coordinates":[6.143039,51.346634]},"properties":{"type":"charge","layer":"passenger","locationId":"5793be07519a90e7b1df3cc4e9c4fb1c","name":"Lingsterhofweg 128","address":"Lingsterhofweg 128","city":"Tegelen","operatorName":"Vattenfall InCharge","maxPowerKw":11,"isMegawatt":false,"status":"CHARGING","source":"ndw"}},{"type":"Feature","geometry":{"type":"Point","coordinates":[6.143995,51.367059]},"properties":{"type":"charge","layer":"passenger","locationId":"acc87a13a58aa484a662a957d3c24fb5","name":"Alberdingk Thijmstraat 55","address":"Alberdingk Thijmstraat 55","city":"Venlo","operatorName":"Vattenfall InCharge","maxPowerKw":11,"isMegawatt":false,"status":"AVAILABLE","source":"ndw"}},{"type":"Feature","geometry":{"type":"Point","coordinates":[6.150011,51.331478]},"properties":{"type":"charge","layer":"passenger","locationId":"10affe27-d42a-4e38-9456-dd4186485d57","name":"Potkuilenstraat 38","address":"Potkuilenstraat 38","city":"Tegelen","operatorName":"Vattenfall InCharge","maxPowerKw":11,"isMegawatt":false,"status":"AVAILABLE","source":"ndw"}},{"type":"Feature","geometry":{"type":"Point","coordinates":[6.179146,51.381905]},"properties":{"type":"charge","layer":"passenger","locationId":"da8c146a-84a5-4fd6-b3ed-00166937d5f5","name":"Rubensstraat","address":"Rubensstraat 1","city":"Venlo","operatorName":"Vattenfall InCharge","maxPowerKw":11,"isMegawatt":false,"status":"AVAILABLE","source":"ndw"}},{"type":"Feature","geometry":{"type":"Point","coordinates":[6.149161,51.37205]},"properties":{"type":"charge","layer":"passenger","locationId":"f0969f6e496276edd1916808192183d1","name":"Leeuwerikplein 1f","address":"Leeuwerikplein 1f","city":"Venlo","operatorName":"Vattenfall InCharge","maxPowerKw":11,"isMegawatt":false,"status":"AVAILABLE","source":"ndw"}},{"type":"Feature","geometry":{"type":"Point","coordinates":[6.13049,51.39661]},"properties":{"type":"charge","layer":"passenger","locationId":"982610D8-6F26-4EB7-BB96-95DC43F5F958","name":"Eneco eMobility Synergy Health Faunalaan 46 Venlo","address":"Faunalaan 46","city":"Venlo","operatorName":"Eneco","maxPowerKw":22,"isMegawatt":false,"status":"AVAILABLE","source":"ndw"}},{"type":"Feature","geometry":{"type":"Point","coordinates":[6.14071,51.38598]},"properties":{"type":"charge","layer":"passenger","locationId":"EAF20F3B-6E65-4F34-80BB-8DCCD9BDE205","name":"Eneco eMobility Groot Egtenrayseweg 58 Venlo","address":"Groot Egtenrayseweg 58","city":"Venlo","operatorName":"Eneco","maxPowerKw":22,"isMegawatt":false,"status":"AVAILABLE","source":"ndw"}},{"type":"Feature","geometry":{"type":"Point","coordinates":[6.128633,51.3212]},"properties":{"type":"charge","layer":"passenger","locationId":"684acd567766fc0a721c0d2d","name":"PME kantoor (parkeerplaatsen hoofdingang)","address":"Craenakker 28","city":"Belfeld","operatorName":"E-Flux by Road","maxPowerKw":22,"isMegawatt":false,"status":"AVAILABLE","source":"ndw"}},{"type":"Feature","geometry":{"type":"Point","coordinates":[6.183875,51.362487]},"properties":{"type":"charge","layer":"passenger","locationId":"2aae8c2d-4fa8-4f0f-9362-dc457101e76b","name":"Frans Coehorststraat","address":"Frans Coehorststraat 32","city":"Venlo","operatorName":"Vattenfall InCharge","maxPowerKw":11,"isMegawatt":false,"status":"AVAILABLE","source":"ndw"}},{"type":"Feature","geometry":{"type":"Point","coordinates":[6.151769,51.344676]},"properties":{"type":"charge","layer":"passenger","locationId":"33636bd7-e6e2-420d-9932-40ee590f4136","name":"Wilgenstraat 18","address":"Wilgenstraat 18","city":"Tegelen","operatorName":"Vattenfall InCharge","maxPowerKw":11,"isMegawatt":false,"status":"AVAILABLE","source":"ndw"}},{"type":"Feature","geometry":{"type":"Point","coordinates":[6.135581,51.368431]},"properties":{"type":"charge","layer":"passenger","locationId":"231dd966-b2e6-4e84-a856-7a82a5b97e21","name":"Byronstraat","address":"Byronstraat 18","city":"Venlo","operatorName":"Vattenfall InCharge","maxPowerKw":11,"isMegawatt":false,"status":"AVAILABLE","source":"ndw"}},{"type":"Feature","geometry":{"type":"Point","coordinates":[6.173801,51.36435]},"properties":{"type":"charge","layer":"passenger","locationId":"fb410de38dfe6a285e569a7a47ab18df","name":"Kaldenkerkerweg 13B","address":"Kaldenkerkerweg 13B","city":"Venlo","operatorName":"Vattenfall InCharge","maxPowerKw":11,"isMegawatt":false,"status":"AVAILABLE","source":"ndw"}},{"type":"Feature","geometry":{"type":"Point","coordinates":[6.125619,51.319001]},"properties":{"type":"charge","layer":"passenger","locationId":"684805341a92015d6aa722f6","name":"Ohron B.V.","address":"Blauwwater 1","city":"Belfeld","operatorName":"E-Flux by Road","maxPowerKw":22,"isMegawatt":false,"status":"AVAILABLE","source":"ndw"}},{"type":"Feature","geometry":{"type":"Point","coordinates":[6.166186,51.362361]},"properties":{"type":"charge","layer":"passenger","locationId":"55126aa8-7bea-4189-91d2-b9dc7aea54a2","name":"Hendrikxstraat","address":"Hendrikxstraat 108","city":"Venlo","operatorName":"Vattenfall InCharge","maxPowerKw":11,"isMegawatt":false,"status":"AVAILABLE","source":"ndw"}},{"type":"Feature","geometry":{"type":"Point","coordinates":[6.120093,51.312406]},"properties":{"type":"charge","layer":"passenger","locationId":"73db11425744bb3f941eed5f6b58a278","name":"Irenelaan 93","address":"Irenelaan 93","city":"Belfeld","operatorName":"Vattenfall InCharge","maxPowerKw":11,"isMegawatt":false,"status":"AVAILABLE","source":"ndw"}},{"type":"Feature","geometry":{"type":"Point","coordinates":[6.148452,51.344376]},"properties":{"type":"charge","layer":"passenger","locationId":"d56c26b4-67e0-4a7a-9025-5bf5611d9b9a","name":"Kerkhoflaan 28","address":"Kerkhoflaan 28","city":"Tegelen","operatorName":"Vattenfall InCharge","maxPowerKw":11,"isMegawatt":false,"status":"AVAILABLE","source":"ndw"}},{"type":"Feature","geometry":{"type":"Point","coordinates":[6.171348,51.357369]},"properties":{"type":"charge","layer":"passenger","locationId":"7a9de6d9-ee40-4c97-93a3-03ee3c8920a5","name":"Kerkhofweg 53","address":"Kerkhofweg 53","city":"Venlo","operatorName":"Vattenfall InCharge","maxPowerKw":11,"isMegawatt":false,"status":"AVAILABLE","source":"ndw"}},{"type":"Feature","geometry":{"type":"Point","coordinates":[6.150972,51.38241]},"properties":{"type":"charge","layer":"passenger","locationId":"699c9597413cefe98c55be02","name":"Burgstate B.V. I Parlevinkerweg 1 Venlo","address":"Parlevinkerweg 1","city":"Venlo","operatorName":"Tanx","maxPowerKw":11,"isMegawatt":false,"status":"AVAILABLE","source":"ndw"}},{"type":"Feature","geometry":{"type":"Point","coordinates":[6.130524,51.357949]},"properties":{"type":"charge","layer":"passenger","locationId":"c157efa2-d32a-4f71-9524-405201435661","name":"Zalzerskampweg 78","address":"Zalzerskampweg 78","city":"Venlo","operatorName":"Vattenfall InCharge","maxPowerKw":11,"isMegawatt":false,"status":"AVAILABLE","source":"ndw"}},{"type":"Feature","geometry":{"type":"Point","coordinates":[6.15355,51.367683]},"properties":{"type":"charge","layer":"passenger","locationId":"9ee824ee-31b2-499f-a294-d9cfa28c7e75","name":"1e Maasveldstraat","address":"1e Maasveldstraat 4","city":"Venlo","operatorName":"Vattenfall InCharge","maxPowerKw":11,"isMegawatt":false,"status":"AVAILABLE","source":"ndw"}},{"type":"Feature","geometry":{"type":"Point","coordinates":[6.173504,51.371104]},"properties":{"type":"charge","layer":"passenger","locationId":"00bd4e1c-d59a-49cc-98c3-5ab4e7d2b2ce","name":"Monseigneur Boermansstraat","address":"Monseigneur Boermansstraat 1C","city":"Venlo","operatorName":"Vattenfall InCharge","maxPowerKw":11,"isMegawatt":false,"status":"AVAILABLE","source":"ndw"}},{"type":"Feature","geometry":{"type":"Point","coordinates":[6.169135,51.374603]},"properties":{"type":"charge","layer":"passenger","locationId":"32a41604-3534-4b34-8dae-a2c24608611f","name":"Maaskade 62","address":"Maaskade 62","city":"Venlo","operatorName":"Vattenfall InCharge","maxPowerKw":11,"isMegawatt":false,"status":"AVAILABLE","source":"ndw"}},{"type":"Feature","geometry":{"type":"Point","coordinates":[6.182492,51.363694]},"properties":{"type":"charge","layer":"passenger","locationId":"e0998065-2423-4e51-9726-55af00d3b85f","name":"Groenveldsingel","address":"Groenveldsingel 87","city":"Venlo","operatorName":"Vattenfall InCharge","maxPowerKw":11,"isMegawatt":false,"status":"AVAILABLE","source":"ndw"}},{"type":"Feature","geometry":{"type":"Point","coordinates":[6.163439,51.366478]},"properties":{"type":"charge","layer":"passenger","locationId":"cd881801-6049-487f-b289-bb4f5b8822b9","name":"Nedinscoplein 40","address":"Nedinscoplein 40","city":"Venlo","operatorName":"Vattenfall InCharge","maxPowerKw":11,"isMegawatt":false,"status":"AVAILABLE","source":"ndw"}},{"type":"Feature","geometry":{"type":"Point","coordinates":[6.164314,51.363165]},"properties":{"type":"charge","layer":"passenger","locationId":"3440f706-2f0b-4dbe-be8e-a5692d78cff7","name":"Hendrikxstraat","address":"Hendrikxstraat 15","city":"Venlo","operatorName":"Vattenfall InCharge","maxPowerKw":11,"isMegawatt":false,"status":"AVAILABLE","source":"ndw"}},{"type":"Feature","geometry":{"type":"Point","coordinates":[6.14811,51.34481]},"properties":{"type":"charge","layer":"passenger","locationId":"cb49187e7bb1b3f3e88f74da9c4edffc","name":"Broeklaan 113","address":"Broeklaan 113","city":"Tegelen","operatorName":"Vattenfall InCharge","maxPowerKw":11,"isMegawatt":false,"status":"AVAILABLE","source":"ndw"}},{"type":"Feature","geometry":{"type":"Point","coordinates":[6.186694,51.367499]},"properties":{"type":"charge","layer":"passenger","locationId":"2cd1e94a-75e4-4b56-a515-b375d7736c6b","name":"Burgemeester van Rooyhof","address":"Burgemeester van Rooyhof 2","city":"Venlo","operatorName":"Vattenfall InCharge","maxPowerKw":11,"isMegawatt":false,"status":"AVAILABLE","source":"ndw"}},{"type":"Feature","geometry":{"type":"Point","coordinates":[6.172817,51.378801]},"properties":{"type":"charge","layer":"passenger","locationId":"8b8f6115-9788-4035-ba5a-54e02bd4c061","name":"Dokter Blumenkampstraat 18","address":"Dokter Blumenkampstraat 18","city":"Venlo","operatorName":"Vattenfall InCharge","maxPowerKw":11,"isMegawatt":false,"status":"AVAILABLE","source":"ndw"}},{"type":"Feature","geometry":{"type":"Point","coordinates":[6.150222,51.378846]},"properties":{"type":"charge","layer":"passenger","locationId":"1550A308-6288-4755-AA5F-8D6A165B6AEB","name":"Eneco eMobility De Gruisdonk 23 Venlo","address":"De Gruisdonk 23","city":"Venlo","operatorName":"Eneco","maxPowerKw":0,"isMegawatt":false,"status":"AVAILABLE","source":"ndw"}},{"type":"Feature","geometry":{"type":"Point","coordinates":[6.190819,51.387467]},"properties":{"type":"charge","layer":"passenger","locationId":"2771669b-27b4-422d-b89b-fba637f9b5d5","name":"Doesborgweg","address":"Doesborgweg 1","city":"Venlo","operatorName":"Vattenfall InCharge","maxPowerKw":11,"isMegawatt":false,"status":"AVAILABLE","source":"ndw"}},{"type":"Feature","geometry":{"type":"Point","coordinates":[6.17789,51.37542]},"properties":{"type":"charge","layer":"passenger","locationId":"151869ba-357f-4178-bd9a-526cf9011b5c","name":"Craneveldstraat","address":"Craneveldstraat 1","city":"Venlo","operatorName":"Vattenfall InCharge","maxPowerKw":11,"isMegawatt":false,"status":"AVAILABLE","source":"ndw"}},{"type":"Feature","geometry":{"type":"Point","coordinates":[6.18692,51.36194]},"properties":{"type":"charge","layer":"passenger","locationId":"46ca11648122a5e49f8b16b2296801d5","name":"Wethouder Lommenstraat 4","address":"Wethouder Lommenstraat 4","city":"Venlo","operatorName":"Vattenfall InCharge","maxPowerKw":11,"isMegawatt":false,"status":"AVAILABLE","source":"ndw"}},{"type":"Feature","geometry":{"type":"Point","coordinates":[6.163721,51.359679]},"properties":{"type":"charge","layer":"passenger","locationId":"618e0de8-fcc7-4153-80ac-089780a192ac","name":"Reigerstraat","address":"Reigerstraat 4","city":"Venlo","operatorName":"Vattenfall InCharge","maxPowerKw":11,"isMegawatt":false,"status":"AVAILABLE","source":"ndw"}},{"type":"Feature","geometry":{"type":"Point","coordinates":[6.171565,51.373596]},"properties":{"type":"charge","layer":"passenger","locationId":"F3CAE88D-2820-4CE8-A608-87C1A9A5DE66","name":"Q-Park Venlo Blok van Gendt","address":"Valuasstraat 26 A","city":"Venlo","operatorName":"Q-Park Netherlands","maxPowerKw":11,"isMegawatt":false,"status":"AVAILABLE","source":"ndw"}},{"type":"Feature","geometry":{"type":"Point","coordinates":[6.181963,51.356412]},"properties":{"type":"charge","layer":"passenger","locationId":"d56249b3-a34c-47ef-923e-bc54569b4d83","name":"Kapelaan Nausstraat","address":"Kapelaan Nausstraat 27","city":"Venlo","operatorName":"Vattenfall InCharge","maxPowerKw":11,"isMegawatt":false,"status":"AVAILABLE","source":"ndw"}},{"type":"Feature","geometry":{"type":"Point","coordinates":[6.124793,51.359123]},"properties":{"type":"charge","layer":"passenger","locationId":"2ca03d766217eb0e18c3187d978f225f","name":"Hoverhofweg 39","address":"Hoverhofweg 39","city":"Venlo","operatorName":"Vattenfall InCharge","maxPowerKw":11,"isMegawatt":false,"status":"AVAILABLE","source":"ndw"}},{"type":"Feature","geometry":{"type":"Point","coordinates":[6.13797,51.340261]},"properties":{"type":"charge","layer":"passenger","locationId":"1d23e882d913a4ad9b0e1d65be69140c","name":"Gasthuisstraat 118","address":"Gasthuisstraat 118","city":"Tegelen","operatorName":"Vattenfall InCharge","maxPowerKw":11,"isMegawatt":false,"status":"AVAILABLE","source":"ndw"}},{"type":"Feature","geometry":{"type":"Point","coordinates":[6.111853,51.311901]},"properties":{"type":"charge","layer":"passenger","locationId":"f79ca5ba3b140cb658af3444d473077e","name":"Schoolstraat 2","address":"Schoolstraat 2","city":"Belfeld","operatorName":"Vattenfall InCharge","maxPowerKw":11,"isMegawatt":false,"status":"AVAILABLE","source":"ndw"}},{"type":"Feature","geometry":{"type":"Point","coordinates":[6.149121,51.372089]},"properties":{"type":"charge","layer":"passenger","locationId":"c7e07d67-9ff7-42bf-aa9e-fdc02e19feec","name":"Leeuwerikplein","address":"Leeuwerikplein 1","city":"Venlo","operatorName":"Vattenfall InCharge","maxPowerKw":11,"isMegawatt":false,"status":"CHARGING","source":"ndw"}},{"type":"Feature","geometry":{"type":"Point","coordinates":[6.191853,51.384985]},"properties":{"type":"charge","layer":"passenger","locationId":"5152143d-f62c-4168-a6da-36363f34efd7","name":"Michaelstraat 14","address":"Michaelstraat 14","city":"Venlo","operatorName":"Vattenfall InCharge","maxPowerKw":11,"isMegawatt":false,"status":"AVAILABLE","source":"ndw"}},{"type":"Feature","geometry":{"type":"Point","coordinates":[6.178197,51.366925]},"properties":{"type":"charge","layer":"passenger","locationId":"4e0e621bafdac3b886a8b9ebcd991aa1","name":"Boenerstraat 2","address":"Boenerstraat 2","city":"Venlo","operatorName":"Vattenfall InCharge","maxPowerKw":11,"isMegawatt":false,"status":"AVAILABLE","source":"ndw"}},{"type":"Feature","geometry":{"type":"Point","coordinates":[6.186303,51.472276]},"properties":{"type":"charge","layer":"passenger","locationId":"66c715565ade34001ca1cb97","name":"Het Limburgs Landschap","address":"Lingsforterweg 26","city":"Arcen","operatorName":"Pluq","maxPowerKw":22,"isMegawatt":false,"status":"AVAILABLE","source":"ndw"}},{"type":"Feature","geometry":{"type":"Point","coordinates":[6.186853,51.380621]},"properties":{"type":"charge","layer":"passenger","locationId":"67cab3573ced18983851dc96","name":"Leurs Equidrôme Venlo","address":"Straelseweg 374","city":"Venlo","operatorName":"SMA eMobility Portal","maxPowerKw":22,"isMegawatt":false,"status":"AVAILABLE","source":"ndw"}},{"type":"Feature","geometry":{"type":"Point","coordinates":[6.174776,51.412311]},"properties":{"type":"charge","layer":"passenger","locationId":"0a88cae1-af94-49a0-94d4-1bb12e0f1439","name":"Akkerwinde","address":"Akkerwinde 51","city":"Velden","operatorName":"Vattenfall InCharge","maxPowerKw":11,"isMegawatt":false,"status":"AVAILABLE","source":"ndw"}},{"type":"Feature","geometry":{"type":"Point","coordinates":[6.119622,51.3734]},"properties":{"type":"charge","layer":"passenger","locationId":"NLCPIL6707345","name":"HOTEL MAASHOF MAASHOF 3","address":"Maashoflaan 1","city":"Venlo","operatorName":"ChargePoint","maxPowerKw":22,"isMegawatt":false,"status":"AVAILABLE","source":"ndw"}},{"type":"Feature","geometry":{"type":"Point","coordinates":[6.176396,51.361427]},"properties":{"type":"charge","layer":"passenger","locationId":"cf46c532-3b12-48eb-9bc3-6251c2db47b2","name":"Kaldenkerkerweg","address":"Kaldenkerkerweg 55","city":"Venlo","operatorName":"Vattenfall InCharge","maxPowerKw":11,"isMegawatt":false,"status":"AVAILABLE","source":"ndw"}},{"type":"Feature","geometry":{"type":"Point","coordinates":[6.123928,51.329413]},"properties":{"type":"charge","layer":"passenger","locationId":"975e4c80-2873-4872-b994-f28e51b52eb1","name":"Roermondseweg 147","address":"Roermondseweg 147","city":"Steyl","operatorName":"Vattenfall InCharge","maxPowerKw":11,"isMegawatt":false,"status":"AVAILABLE","source":"ndw"}},{"type":"Feature","geometry":{"type":"Point","coordinates":[6.161741,51.36054]},"properties":{"type":"charge","layer":"passenger","locationId":"18f6f489-997a-4f45-953c-c64df65beb27","name":"IJsvogelstraat","address":"IJsvogelstraat 4","city":"Venlo","operatorName":"Vattenfall InCharge","maxPowerKw":11,"isMegawatt":false,"status":"AVAILABLE","source":"ndw"}},{"type":"Feature","geometry":{"type":"Point","coordinates":[6.175972,51.364805]},"properties":{"type":"charge","layer":"passenger","locationId":"c1cd618935ecebe84fd354e2caba0b49","name":"Vijverhofstraat 40","address":"Vijverhofstraat 40","city":"Venlo","operatorName":"Vattenfall InCharge","maxPowerKw":11,"isMegawatt":false,"status":"AVAILABLE","source":"ndw"}},{"type":"Feature","geometry":{"type":"Point","coordinates":[6.180461,51.47405]},"properties":{"type":"charge","layer":"passenger","locationId":"667bf2130f770a001c9266cc","name":"Restaurant de Oude Hoeve","address":"Raadhuisplein 6","city":"Arcen","operatorName":"Pluq","maxPowerKw":17,"isMegawatt":false,"status":"AVAILABLE","source":"ndw"}},{"type":"Feature","geometry":{"type":"Point","coordinates":[6.14786,51.34822]},"properties":{"type":"charge","layer":"passenger","locationId":"088f8ec97dfce62878aeb12f334d0206","name":"Ariënsstraat 23","address":"Ariënsstraat 23","city":"Tegelen","operatorName":"Vattenfall InCharge","maxPowerKw":11,"isMegawatt":false,"status":"AVAILABLE","source":"ndw"}},{"type":"Feature","geometry":{"type":"Point","coordinates":[6.176948,51.366945]},"properties":{"type":"charge","layer":"passenger","locationId":"1636b4df-650b-4f66-8f2b-317fcae4ad0f","name":"Van Schelbergenstraat","address":"Van Schelbergenstraat 1","city":"Venlo","operatorName":"Vattenfall InCharge","maxPowerKw":11,"isMegawatt":false,"status":"AVAILABLE","source":"ndw"}},{"type":"Feature","geometry":{"type":"Point","coordinates":[6.134901,51.333986]},"properties":{"type":"charge","layer":"passenger","locationId":"8533ce59-2490-409f-94ef-b108bca1b6b5","name":"Stationsstraat","address":"Stationsstraat 44","city":"Steyl","operatorName":"Vattenfall InCharge","maxPowerKw":11,"isMegawatt":false,"status":"AVAILABLE","source":"ndw"}},{"type":"Feature","geometry":{"type":"Point","coordinates":[6.130681,51.339771]},"properties":{"type":"charge","layer":"passenger","locationId":"fb708e1bd19b8d9dd1f3827ed93d7f1d","name":"Bergstraat 43","address":"Bergstraat 43","city":"Tegelen","operatorName":"Vattenfall InCharge","maxPowerKw":11,"isMegawatt":false,"status":"AVAILABLE","source":"ndw"}},{"type":"Feature","geometry":{"type":"Point","coordinates":[6.175853,51.38113]},"properties":{"type":"charge","layer":"passenger","locationId":"a85588a7befbb81dd6eb34829823799f","name":"Meeuwbeemdweg 23","address":"Meeuwbeemdweg 23","city":"Venlo","operatorName":"Vattenfall InCharge","maxPowerKw":11,"isMegawatt":false,"status":"AVAILABLE","source":"ndw"}},{"type":"Feature","geometry":{"type":"Point","coordinates":[6.146243,51.338096]},"properties":{"type":"charge","layer":"passenger","locationId":"363f6896f2104db7e3c714660c6adb9f","name":"De Drink 60","address":"De Drink 60","city":"Tegelen","operatorName":"Vattenfall InCharge","maxPowerKw":11,"isMegawatt":false,"status":"AVAILABLE","source":"ndw"}},{"type":"Feature","geometry":{"type":"Point","coordinates":[6.125582,51.375991]},"properties":{"type":"charge","layer":"passenger","locationId":"3bfdc3a2ea3040de6268410f798392df","name":"Mispelstraat 28","address":"Mispelstraat 28","city":"Venlo","operatorName":"Vattenfall InCharge","maxPowerKw":11,"isMegawatt":false,"status":"AVAILABLE","source":"ndw"}},{"type":"Feature","geometry":{"type":"Point","coordinates":[6.171579,51.358808]},"properties":{"type":"charge","layer":"passenger","locationId":"0af0e842-ef9d-43f8-ac10-dc31cd67cf42","name":"Kerkhofweg 80","address":"Kerkhofweg 80","city":"Venlo","operatorName":"Vattenfall InCharge","maxPowerKw":11,"isMegawatt":false,"status":"AVAILABLE","source":"ndw"}},{"type":"Feature","geometry":{"type":"Point","coordinates":[6.128633,51.3212]},"properties":{"type":"charge","layer":"passenger","locationId":"684aceec59511df0b52ee82c","name":"PME hal (zijkant parkeerplaatsen)","address":"Craenakker  30","city":"Belfeld","operatorName":"E-Flux by Road","maxPowerKw":22,"isMegawatt":false,"status":"AVAILABLE","source":"ndw"}},{"type":"Feature","geometry":{"type":"Point","coordinates":[6.144996,51.376086]},"properties":{"type":"charge","layer":"passenger","locationId":"2067fb15-71a8-4d9d-944a-32063ba5418d","name":"Nieuwborgstraat 163","address":"Nieuwborgstraat 163","city":"Venlo","operatorName":"Vattenfall InCharge","maxPowerKw":11,"isMegawatt":false,"status":"AVAILABLE","source":"ndw"}},{"type":"Feature","geometry":{"type":"Point","coordinates":[6.184508,51.358452]},"properties":{"type":"charge","layer":"passenger","locationId":"de94bbd795a594137e300912b8fac56c","name":"Sint Ignatiusstraat 33","address":"Sint Ignatiusstraat 33","city":"Venlo","operatorName":"Vattenfall InCharge","maxPowerKw":11,"isMegawatt":false,"status":"AVAILABLE","source":"ndw"}},{"type":"Feature","geometry":{"type":"Point","coordinates":[6.147377,51.382076]},"properties":{"type":"charge","layer":"passenger","locationId":"1ABCF84C-4CC3-48D5-804D-6D67A1B0D9EA","name":"Eneco eMobility Hedin Automotive B.V. - Groot-Bollerweg 24 - Venlo","address":"Groot-Bollerweg 24","city":"Venlo","operatorName":"Eneco","maxPowerKw":22,"isMegawatt":false,"status":"AVAILABLE","source":"ndw"}},{"type":"Feature","geometry":{"type":"Point","coordinates":[6.17269,51.371504]},"properties":{"type":"charge","layer":"passenger","locationId":"748c1f44-3681-427c-b81c-d112dd3351fc","name":"Monseigneur Boermansstraat","address":"Monseigneur Boermansstraat 10","city":"Venlo","operatorName":"Vattenfall InCharge","maxPowerKw":11,"isMegawatt":false,"status":"AVAILABLE","source":"ndw"}},{"type":"Feature","geometry":{"type":"Point","coordinates":[6.114297,51.410527]},"properties":{"type":"charge","layer":"passenger","locationId":"689adcde7134086892886fa8","name":"Frost Service Venlo B.V.","address":"Richard Stonestraat 15","city":"Venlo","operatorName":"Tanx","maxPowerKw":11,"isMegawatt":false,"status":"AVAILABLE","source":"ndw"}},{"type":"Feature","geometry":{"type":"Point","coordinates":[6.180915,51.474196]},"properties":{"type":"charge","layer":"passenger","locationId":"b520a7f34d55c3efa077f4da0fe8f5f6","name":"Koestraat 17","address":"Koestraat 17","city":"Arcen","operatorName":"Vattenfall InCharge","maxPowerKw":11,"isMegawatt":false,"status":"AVAILABLE","source":"ndw"}},{"type":"Feature","geometry":{"type":"Point","coordinates":[6.185432,51.367721]},"properties":{"type":"charge","layer":"passenger","locationId":"7fe6eebf-526f-4f46-a3b7-b8aad8b4d544","name":"Laaghuissingel","address":"Laaghuissingel 177","city":"Venlo","operatorName":"Vattenfall InCharge","maxPowerKw":11,"isMegawatt":false,"status":"CHARGING","source":"ndw"}},{"type":"Feature","geometry":{"type":"Point","coordinates":[6.170386,51.366874]},"properties":{"type":"charge","layer":"passenger","locationId":"809aee06-0c81-404b-839a-3ec210b79fd6","name":"Spoorstraat 38","address":"Spoorstraat 38","city":"Venlo","operatorName":"Vattenfall InCharge","maxPowerKw":11,"isMegawatt":false,"status":"AVAILABLE","source":"ndw"}},{"type":"Feature","geometry":{"type":"Point","coordinates":[6.166038,51.359967]},"properties":{"type":"charge","layer":"passenger","locationId":"9d0bfab9-3eaa-492b-b3c5-d86b3394ef15","name":"Houtsnipstraat","address":"Houtsnipstraat 9","city":"Venlo","operatorName":"Vattenfall InCharge","maxPowerKw":11,"isMegawatt":false,"status":"AVAILABLE","source":"ndw"}},{"type":"Feature","geometry":{"type":"Point","coordinates":[6.12717,51.33236]},"properties":{"type":"charge","layer":"passenger","locationId":"078886474ebe27502dad057367b7d422","name":"Neeringerweg 4","address":"Neeringerweg 4","city":"Steyl","operatorName":"Vattenfall InCharge","maxPowerKw":11,"isMegawatt":false,"status":"AVAILABLE","source":"ndw"}},{"type":"Feature","geometry":{"type":"Point","coordinates":[6.137521,51.369921]},"properties":{"type":"charge","layer":"passenger","locationId":"8f30be01-3fc0-41aa-8d06-d888bf2be81c","name":"Drie Decembersingel 44A","address":"Drie Decembersingel 44A","city":"Venlo","operatorName":"Vattenfall InCharge","maxPowerKw":11,"isMegawatt":false,"status":"CHARGING","source":"ndw"}},{"type":"Feature","geometry":{"type":"Point","coordinates":[6.15009,51.34363]},"properties":{"type":"charge","layer":"passenger","locationId":"b711ee4be6a149680957b2de8c5bc28a","name":"Mauritsstraat 37","address":"Mauritsstraat 37","city":"Tegelen","operatorName":"Vattenfall InCharge","maxPowerKw":11,"isMegawatt":false,"status":"AVAILABLE","source":"ndw"}},{"type":"Feature","geometry":{"type":"Point","coordinates":[6.132109,51.333869]},"properties":{"type":"charge","layer":"passenger","locationId":"ad0ce54231968f9f4022611538bb1ea0","name":"Keramiekstraat 43","address":"Keramiekstraat 43","city":"Steyl","operatorName":"Vattenfall InCharge","maxPowerKw":11,"isMegawatt":false,"status":"AVAILABLE","source":"ndw"}},{"type":"Feature","geometry":{"type":"Point","coordinates":[6.180093,51.366056]},"properties":{"type":"charge","layer":"passenger","locationId":"a44962a1-90e6-4394-9567-5d5c2b0fa316","name":"Hertog Reinoudsingel 87","address":"Hertog Reinoudsingel 87","city":"Venlo","operatorName":"Vattenfall InCharge","maxPowerKw":11,"isMegawatt":false,"status":"AVAILABLE","source":"ndw"}},{"type":"Feature","geometry":{"type":"Point","coordinates":[6.15562,51.33546]},"properties":{"type":"charge","layer":"passenger","locationId":"6c9c5a430305d9441ebbf5ee8f2376c8","name":"IJzergieterspad 4","address":"IJzergieterspad 4","city":"Tegelen","operatorName":"Vattenfall InCharge","maxPowerKw":11,"isMegawatt":false,"status":"AVAILABLE","source":"ndw"}},{"type":"Feature","geometry":{"type":"Point","coordinates":[6.176672,51.385743]},"properties":{"type":"charge","layer":"passenger","locationId":"853f1e27-e85c-4b22-a39f-86a03a8003f1","name":"Karbindersstraat ","address":"Karbindersstraat  108","city":"Venlo","operatorName":"Vattenfall InCharge","maxPowerKw":11,"isMegawatt":false,"status":"AVAILABLE","source":"ndw"}},{"type":"Feature","geometry":{"type":"Point","coordinates":[6.149113,51.338248]},"properties":{"type":"charge","layer":"passenger","locationId":"d840c4e4-9c80-42b9-9483-b3732b126bdf","name":"Salvatorstraat","address":"Salvatorstraat 15","city":"Tegelen","operatorName":"Vattenfall InCharge","maxPowerKw":11,"isMegawatt":false,"status":"AVAILABLE","source":"ndw"}},{"type":"Feature","geometry":{"type":"Point","coordinates":[6.114867,51.306863]},"properties":{"type":"charge","layer":"passenger","locationId":"db183eac-bcd3-4428-b189-1cfedaba9453","name":"Veldekestraat","address":"Veldekestraat 40","city":"Belfeld","operatorName":"Vattenfall InCharge","maxPowerKw":11,"isMegawatt":false,"status":"AVAILABLE","source":"ndw"}},{"type":"Feature","geometry":{"type":"Point","coordinates":[6.125644,51.366191]},"properties":{"type":"charge","layer":"passenger","locationId":"3359e54b2c2b224edfd23fd49a8dcc8c","name":"Lessingstraat 66","address":"Lessingstraat 66","city":"Venlo","operatorName":"Vattenfall InCharge","maxPowerKw":11,"isMegawatt":false,"status":"AVAILABLE","source":"ndw"}},{"type":"Feature","geometry":{"type":"Point","coordinates":[6.11575,51.37858]},"properties":{"type":"charge","layer":"passenger","locationId":"6e9b32bbe6b621cae2f48ceaadb7ec18","name":"Nellenweg 2","address":"Nellenweg 2","city":"Venlo","operatorName":"Vattenfall InCharge","maxPowerKw":11,"isMegawatt":false,"status":"AVAILABLE","source":"ndw"}},{"type":"Feature","geometry":{"type":"Point","coordinates":[6.186716,51.382651]},"properties":{"type":"charge","layer":"passenger","locationId":"cc5e34d655f9cf05cc92e0ce2488d67c","name":"Straelseweg 325A","address":"Straelseweg 325A","city":"Venlo","operatorName":"Vattenfall InCharge","maxPowerKw":11,"isMegawatt":false,"status":"AVAILABLE","source":"ndw"}},{"type":"Feature","geometry":{"type":"Point","coordinates":[6.156698,51.35417]},"properties":{"type":"charge","layer":"passenger","locationId":"7a01e051-4cea-490f-87e2-64e60fa5ed72","name":"Wylrehofweg","address":"Wylrehofweg 15","city":"Venlo","operatorName":"Vattenfall InCharge","maxPowerKw":11,"isMegawatt":false,"status":"AVAILABLE","source":"ndw"}},{"type":"Feature","geometry":{"type":"Point","coordinates":[6.170708,51.38155]},"properties":{"type":"charge","layer":"passenger","locationId":"ea086c1a-5fc6-4fca-8ba3-4a736bbf252e","name":"Damianusstraat 2","address":"Damianusstraat 2","city":"Venlo","operatorName":"Vattenfall InCharge","maxPowerKw":11,"isMegawatt":false,"status":"AVAILABLE","source":"ndw"}},{"type":"Feature","geometry":{"type":"Point","coordinates":[6.168642,51.354279]},"properties":{"type":"charge","layer":"passenger","locationId":"76c4d675-34bb-4019-ba02-e19eabd12f37","name":"Diamanthof 5","address":"Diamanthof 5","city":"Venlo","operatorName":"Vattenfall InCharge","maxPowerKw":11,"isMegawatt":false,"status":"AVAILABLE","source":"ndw"}},{"type":"Feature","geometry":{"type":"Point","coordinates":[6.161619,51.358689]},"properties":{"type":"charge","layer":"passenger","locationId":"c3380962-8c1d-47a4-acb0-31efa890470b","name":"Kraanvogelstraat","address":"Kraanvogelstraat 43","city":"Venlo","operatorName":"Vattenfall InCharge","maxPowerKw":11,"isMegawatt":false,"status":"UNAVAILABLE","source":"ndw"}},{"type":"Feature","geometry":{"type":"Point","coordinates":[6.137805,51.347498]},"properties":{"type":"charge","layer":"passenger","locationId":"b1f4161b-bbce-4034-bed3-6a8930dba31d","name":"Hemelsleutel","address":"Hemelsleutel 1","city":"Tegelen","operatorName":"Vattenfall InCharge","maxPowerKw":11,"isMegawatt":false,"status":"AVAILABLE","source":"ndw"}},{"type":"Feature","geometry":{"type":"Point","coordinates":[6.135928,51.37396]},"properties":{"type":"charge","layer":"passenger","locationId":"c2f47e81c8884eaf448baab5938723e9","name":"Alberickstraat 177","address":"Alberickstraat 177","city":"Venlo","operatorName":"Vattenfall InCharge","maxPowerKw":11,"isMegawatt":false,"status":"AVAILABLE","source":"ndw"}},{"type":"Feature","geometry":{"type":"Point","coordinates":[6.131457,51.366578]},"properties":{"type":"charge","layer":"passenger","locationId":"d063ae4cea6fce4769b16f7da3162e63","name":"Molièrelaan 54","address":"Molièrelaan 54","city":"Venlo","operatorName":"Vattenfall InCharge","maxPowerKw":11,"isMegawatt":false,"status":"AVAILABLE","source":"ndw"}},{"type":"Feature","geometry":{"type":"Point","coordinates":[6.189491,51.480233]},"properties":{"type":"charge","layer":"passenger","locationId":"6835bc7f53ebed4ff8ac4c66","name":"Bed & Breakfast aan de Beek","address":"Brandemolen 18","city":"Arcen","operatorName":"E-Flux by Road","maxPowerKw":11,"isMegawatt":false,"status":"AVAILABLE","source":"ndw"}},{"type":"Feature","geometry":{"type":"Point","coordinates":[6.1396,51.38311]},"properties":{"type":"charge","layer":"passenger","locationId":"4f7659e8-bcf9-46fc-a409-5df3a1085947","name":"Wattstraat 6","address":"Wattstraat 6","city":"Venlo","operatorName":"Vattenfall InCharge","maxPowerKw":11,"isMegawatt":false,"status":"AVAILABLE","source":"ndw"}},{"type":"Feature","geometry":{"type":"Point","coordinates":[6.133312,51.358439]},"properties":{"type":"charge","layer":"passenger","locationId":"dbf4401d-51ba-443a-9315-812d566e9098","name":"In Het Veld","address":"In Het Veld 22","city":"Venlo","operatorName":"Vattenfall InCharge","maxPowerKw":11,"isMegawatt":false,"status":"AVAILABLE","source":"ndw"}},{"type":"Feature","geometry":{"type":"Point","coordinates":[6.153312,51.369597]},"properties":{"type":"charge","layer":"passenger","locationId":"b8cee53d-0cdd-4fa5-bbf4-dbc4a98a66b9","name":"2e Lambertusstraat 2B","address":"2e Lambertusstraat 2B","city":"Venlo","operatorName":"Vattenfall InCharge","maxPowerKw":11,"isMegawatt":false,"status":"AVAILABLE","source":"ndw"}},{"type":"Feature","geometry":{"type":"Point","coordinates":[6.128985,51.377056]},"properties":{"type":"charge","layer":"passenger","locationId":"3180818a-18da-445e-8f70-4af979dc9762","name":"Heggeroosstraat","address":"Heggeroosstraat 45","city":"Venlo","operatorName":"Vattenfall InCharge","maxPowerKw":11,"isMegawatt":false,"status":"AVAILABLE","source":"ndw"}},{"type":"Feature","geometry":{"type":"Point","coordinates":[6.189806,51.377842]},"properties":{"type":"charge","layer":"passenger","locationId":"138cabbf-63b1-49fa-b193-01c17a482fbd","name":"Gebroeders Wienerstraat","address":"Gebroeders Wienerstraat 42A","city":"Venlo","operatorName":"Vattenfall InCharge","maxPowerKw":11,"isMegawatt":false,"status":"AVAILABLE","source":"ndw"}},{"type":"Feature","geometry":{"type":"Point","coordinates":[6.179114,51.364363]},"properties":{"type":"charge","layer":"passenger","locationId":"4063540b-fa56-479e-9ba2-ff704fe126b1","name":"Mecklenburgstraat 10","address":"Mecklenburgstraat 10","city":"Venlo","operatorName":"Vattenfall InCharge","maxPowerKw":11,"isMegawatt":false,"status":"AVAILABLE","source":"ndw"}},{"type":"Feature","geometry":{"type":"Point","coordinates":[6.160299,51.331467]},"properties":{"type":"charge","layer":"passenger","locationId":"b162263cf7a03f0019fcb4e74acff563","name":"Wambachsingel 25","address":"Wambachsingel 25","city":"Tegelen","operatorName":"Vattenfall InCharge","maxPowerKw":11,"isMegawatt":false,"status":"AVAILABLE","source":"ndw"}},{"type":"Feature","geometry":{"type":"Point","coordinates":[6.119808,51.313824]},"properties":{"type":"charge","layer":"passenger","locationId":"bc2b190c-6a51-44c5-b7e5-3196250ea9ac","name":"Irenelaan","address":"Irenelaan 21","city":"Belfeld","operatorName":"Vattenfall InCharge","maxPowerKw":11,"isMegawatt":false,"status":"AVAILABLE","source":"ndw"}},{"type":"Feature","geometry":{"type":"Point","coordinates":[6.160356,51.365061]},"properties":{"type":"charge","layer":"passenger","locationId":"76e73bf9-e22a-4815-9444-5673b78ea836","name":"Seinestraat 58","address":"Seinestraat 58","city":"Venlo","operatorName":"Vattenfall InCharge","maxPowerKw":11,"isMegawatt":false,"status":"AVAILABLE","source":"ndw"}},{"type":"Feature","geometry":{"type":"Point","coordinates":[6.137422,51.336219]},"properties":{"type":"charge","layer":"passenger","locationId":"3646c0ee0af913322eabc554c2ab9013","name":"Steenweg 13","address":"Steenweg 13","city":"Tegelen","operatorName":"Vattenfall InCharge","maxPowerKw":11,"isMegawatt":false,"status":"AVAILABLE","source":"ndw"}},{"type":"Feature","geometry":{"type":"Point","coordinates":[6.183553,51.354588]},"properties":{"type":"charge","layer":"passenger","locationId":"78d97e63031bb4ebdeb431b7644f5a6e","name":"Casinoweg 3","address":"Casinoweg 3","city":"Venlo","operatorName":"Vattenfall InCharge","maxPowerKw":11,"isMegawatt":false,"status":"AVAILABLE","source":"ndw"}},{"type":"Feature","geometry":{"type":"Point","coordinates":[6.14048,51.34351]},"properties":{"type":"charge","layer":"passenger","locationId":"f61ee557-5522-4067-81c7-b3eaf48c13c6","name":"Bongerdstraat","address":"Bongerdstraat 229","city":"Tegelen","operatorName":"Vattenfall InCharge","maxPowerKw":11,"isMegawatt":false,"status":"CHARGING","source":"ndw"}},{"type":"Feature","geometry":{"type":"Point","coordinates":[6.165186,51.368422]},"properties":{"type":"charge","layer":"passenger","locationId":"32F570C3-05B4-400D-AED0-BDB30AAF5E25","name":"Q-Park Venlo Roermondsepoort","address":"Prinsessesingel 28","city":"Venlo","operatorName":"Q-Park Netherlands","maxPowerKw":11,"isMegawatt":false,"status":"AVAILABLE","source":"ndw"}},{"type":"Feature","geometry":{"type":"Point","coordinates":[6.18452,51.357345]},"properties":{"type":"charge","layer":"passenger","locationId":"7caee10e-847f-4c5f-a0b1-c9b017a121b7","name":"Loyolastraat","address":"Loyolastraat 2","city":"Venlo","operatorName":"Vattenfall InCharge","maxPowerKw":11,"isMegawatt":false,"status":"AVAILABLE","source":"ndw"}},{"type":"Feature","geometry":{"type":"Point","coordinates":[6.17713,51.361613]},"properties":{"type":"charge","layer":"passenger","locationId":"a18980da01a7e259a333eb2a9fedccaf","name":"Oranjestraat 8","address":"Oranjestraat 8","city":"Venlo","operatorName":"Vattenfall InCharge","maxPowerKw":11,"isMegawatt":false,"status":"AVAILABLE","source":"ndw"}},{"type":"Feature","geometry":{"type":"Point","coordinates":[6.171039,51.448967]},"properties":{"type":"charge","layer":"passenger","locationId":"e8f7a6a06a1e10474ae3c588458552d6","name":"Antoniusplein 1","address":"Antoniusplein 1","city":"Lomm","operatorName":"Vattenfall InCharge","maxPowerKw":11,"isMegawatt":false,"status":"AVAILABLE","source":"ndw"}},{"type":"Feature","geometry":{"type":"Point","coordinates":[6.147539,51.337531]},"properties":{"type":"charge","layer":"passenger","locationId":"39a6ccee-48eb-41c6-a39a-aa712c5ec05d","name":"Nachtegaalstraat","address":"Nachtegaalstraat 51","city":"Tegelen","operatorName":"Vattenfall InCharge","maxPowerKw":11,"isMegawatt":false,"status":"AVAILABLE","source":"ndw"}},{"type":"Feature","geometry":{"type":"Point","coordinates":[6.177349,51.365024]},"properties":{"type":"charge","layer":"passenger","locationId":"eadac1fe-49d3-4113-8f74-ebfbce959f69","name":"Van Schelbergenstraat","address":"Van Schelbergenstraat 55","city":"Venlo","operatorName":"Vattenfall InCharge","maxPowerKw":11,"isMegawatt":false,"status":"AVAILABLE","source":"ndw"}},{"type":"Feature","geometry":{"type":"Point","coordinates":[6.126018,51.313928]},"properties":{"type":"charge","layer":"passenger","locationId":"4ce180c7-6df0-4dc4-bc88-42be5eed87b9","name":"Leijgraaf","address":"Leijgraaf 152","city":"Belfeld","operatorName":"Vattenfall InCharge","maxPowerKw":11,"isMegawatt":false,"status":"AVAILABLE","source":"ndw"}},{"type":"Feature","geometry":{"type":"Point","coordinates":[6.186479,51.377344]},"properties":{"type":"charge","layer":"passenger","locationId":"6fed3a50-708b-468f-b517-d21ab29df801","name":"Brialmontstraat","address":"Brialmontstraat 117","city":"Venlo","operatorName":"Vattenfall InCharge","maxPowerKw":11,"isMegawatt":false,"status":"AVAILABLE","source":"ndw"}},{"type":"Feature","geometry":{"type":"Point","coordinates":[6.125136,51.377399]},"properties":{"type":"charge","layer":"passenger","locationId":"d15a9a7d-2d08-4d87-aea3-d35aed4baf9c","name":"Cotoneasterstraat","address":"Cotoneasterstraat 5","city":"Venlo","operatorName":"Vattenfall InCharge","maxPowerKw":11,"isMegawatt":false,"status":"AVAILABLE","source":"ndw"}},{"type":"Feature","geometry":{"type":"Point","coordinates":[6.139699,51.371798]},"properties":{"type":"charge","layer":"passenger","locationId":"6a0ad6d5-1f92-491d-9f26-5393fbaacca3","name":"Constantijn Huygensstraat","address":"Constantijn Huygensstraat 19","city":"Venlo","operatorName":"Vattenfall InCharge","maxPowerKw":11,"isMegawatt":false,"status":"AVAILABLE","source":"ndw"}},{"type":"Feature","geometry":{"type":"Point","coordinates":[6.195569,51.362476]},"properties":{"type":"charge","layer":"passenger","locationId":"6447c04d8bd54600129d1964","name":"Karel van Egmondstraat","address":"Karel van Egmondstraat 224","city":"Venlo","operatorName":"E-Flux by Road","maxPowerKw":7,"isMegawatt":false,"status":"AVAILABLE","source":"ndw"}},{"type":"Feature","geometry":{"type":"Point","coordinates":[6.151931,51.373804]},"properties":{"type":"charge","layer":"passenger","locationId":"09188c08-984e-4679-b899-9eb6954ae09b","name":"Pepijnstraat","address":"Pepijnstraat 169","city":"Venlo","operatorName":"Vattenfall InCharge","maxPowerKw":11,"isMegawatt":false,"status":"AVAILABLE","source":"ndw"}},{"type":"Feature","geometry":{"type":"Point","coordinates":[6.184419,51.383387]},"properties":{"type":"charge","layer":"passenger","locationId":"1d545a44-1c0c-407c-a33e-592cb9e8d54d","name":"Buys Ballotstraat","address":"Buys Ballotstraat 10","city":"Venlo","operatorName":"Vattenfall InCharge","maxPowerKw":11,"isMegawatt":false,"status":"AVAILABLE","source":"ndw"}},{"type":"Feature","geometry":{"type":"Point","coordinates":[6.154261,51.36618]},"properties":{"type":"charge","layer":"passenger","locationId":"c4f4f635825e3a579463d9cc54a29707","name":"Antoniuslaan 254","address":"Antoniuslaan 254","city":"Venlo","operatorName":"Vattenfall InCharge","maxPowerKw":11,"isMegawatt":false,"status":"AVAILABLE","source":"ndw"}},{"type":"Feature","geometry":{"type":"Point","coordinates":[6.128551,51.360814]},"properties":{"type":"charge","layer":"passenger","locationId":"a2cf7b8c586b476051fd1cc74e24e7b8","name":"Luuschweg 31","address":"Luuschweg 31","city":"Venlo","operatorName":"Vattenfall InCharge","maxPowerKw":11,"isMegawatt":false,"status":"AVAILABLE","source":"ndw"}},{"type":"Feature","geometry":{"type":"Point","coordinates":[6.183867,51.480242]},"properties":{"type":"charge","layer":"passenger","locationId":"922608","name":"DAE-NL-2000053","address":"Wijdtveld 33","city":"Arcen","operatorName":"DAEN Mobility","maxPowerKw":4,"isMegawatt":false,"status":"AVAILABLE","source":"ndw"}},{"type":"Feature","geometry":{"type":"Point","coordinates":[6.126686,51.335169]},"properties":{"type":"charge","layer":"passenger","locationId":"c203b9a1-d9e6-4786-8a46-110f054b8db3","name":"Maasstraat 62","address":"Maasstraat 62","city":"Steyl","operatorName":"Vattenfall InCharge","maxPowerKw":11,"isMegawatt":false,"status":"AVAILABLE","source":"ndw"}},{"type":"Feature","geometry":{"type":"Point","coordinates":[6.156876,51.360824]},"properties":{"type":"charge","layer":"passenger","locationId":"effe18aa-c1ef-4d68-bcd2-cd1a107f579f","name":"Ariënswei","address":"Ariënswei 42","city":"Venlo","operatorName":"Vattenfall InCharge","maxPowerKw":11,"isMegawatt":false,"status":"CHARGING","source":"ndw"}},{"type":"Feature","geometry":{"type":"Point","coordinates":[6.180171,51.366995]},"properties":{"type":"charge","layer":"passenger","locationId":"c9558bda-ed65-4bee-95fc-18ed57afb0f8","name":"Hertog Reinoudsingel","address":"Hertog Reinoudsingel 100","city":"Venlo","operatorName":"Vattenfall InCharge","maxPowerKw":11,"isMegawatt":false,"status":"UNAVAILABLE","source":"ndw"}},{"type":"Feature","geometry":{"type":"Point","coordinates":[6.188131,51.387106]},"properties":{"type":"charge","layer":"passenger","locationId":"b2575c1952581858f8287b82557d6dbb","name":"Van Coehoornstraat 30","address":"Van Coehoornstraat 30","city":"Venlo","operatorName":"Vattenfall InCharge","maxPowerKw":11,"isMegawatt":false,"status":"AVAILABLE","source":"ndw"}},{"type":"Feature","geometry":{"type":"Point","coordinates":[6.174474,51.354825]},"properties":{"type":"charge","layer":"passenger","locationId":"cc83eb6811d930751ae180ed6e1f080e","name":"Onyx 18","address":"Onyx 18","city":"Venlo","operatorName":"Vattenfall InCharge","maxPowerKw":11,"isMegawatt":false,"status":"AVAILABLE","source":"ndw"}},{"type":"Feature","geometry":{"type":"Point","coordinates":[6.174665,51.378427]},"properties":{"type":"charge","layer":"passenger","locationId":"d5f4c05a-6e2b-4836-8543-d2e9dfe53013","name":"Dokter Blumenkampstraat","address":"Dokter Blumenkampstraat 2","city":"Venlo","operatorName":"Vattenfall InCharge","maxPowerKw":11,"isMegawatt":false,"status":"AVAILABLE","source":"ndw"}},{"type":"Feature","geometry":{"type":"Point","coordinates":[6.153552,51.388963]},"properties":{"type":"charge","layer":"passenger","locationId":"66f25e9a41edab001c3be03e","name":"Don Schreurs 's station","address":"Ankerkade 16","city":"Venlo","operatorName":"E-Flux by Road","maxPowerKw":22,"isMegawatt":false,"status":"AVAILABLE","source":"ndw"}},{"type":"Feature","geometry":{"type":"Point","coordinates":[6.182133,51.388824]},"properties":{"type":"charge","layer":"passenger","locationId":"68a6dcf5013f40db66bf3731","name":"Fivehu I Upforce locatie Venlo","address":"Laurens Janszoon Costerstraat 30","city":"Venlo","operatorName":"Tanx","maxPowerKw":11,"isMegawatt":false,"status":"AVAILABLE","source":"ndw"}},{"type":"Feature","geometry":{"type":"Point","coordinates":[6.216432,51.480278]},"properties":{"type":"charge","layer":"passenger","locationId":"67cad0902c611b636bcc5ebc","name":"ARCEN 208","address":"Dorperheideweg 12-208","city":"Arcen","operatorName":"E-Flux by Road","maxPowerKw":22,"isMegawatt":false,"status":"AVAILABLE","source":"ndw"}},{"type":"Feature","geometry":{"type":"Point","coordinates":[6.178628,51.501932]},"properties":{"type":"charge","layer":"passenger","locationId":"6697a564ba9165001c32a5ee","name":"Stichting Golf Maasduinen","address":"Verlengde Roobeekweg 4A","city":"Arcen","operatorName":"Pluq","maxPowerKw":17,"isMegawatt":false,"status":"AVAILABLE","source":"ndw"}},{"type":"Feature","geometry":{"type":"Point","coordinates":[6.173501,51.376677]},"properties":{"type":"charge","layer":"passenger","locationId":"9074b5c0-3ee4-487e-ad07-29cf7b7a091a","name":"Hogeweg 85","address":"Hogeweg 85","city":"Venlo","operatorName":"Vattenfall InCharge","maxPowerKw":11,"isMegawatt":false,"status":"AVAILABLE","source":"ndw"}},{"type":"Feature","geometry":{"type":"Point","coordinates":[6.188436,51.480287]},"properties":{"type":"charge","layer":"passenger","locationId":"63d7c23f29a2fd0012027405","name":"In de Vlinderkes","address":"Brandemolen 20","city":"Arcen","operatorName":"E-Flux by Road","maxPowerKw":17,"isMegawatt":false,"status":"AVAILABLE","source":"ndw"}},{"type":"Feature","geometry":{"type":"Point","coordinates":[6.136911,51.348472]},"properties":{"type":"charge","layer":"passenger","locationId":"9dfa805f-3f2e-4fc0-86d4-4e732520ba24","name":"Hemelsleutel 41","address":"Hemelsleutel 41","city":"Tegelen","operatorName":"Vattenfall InCharge","maxPowerKw":11,"isMegawatt":false,"status":"AVAILABLE","source":"ndw"}},{"type":"Feature","geometry":{"type":"Point","coordinates":[6.182809,51.477057]},"properties":{"type":"charge","layer":"passenger","locationId":"9ea989205db93c3b24fa8323cc37edee","name":"Tiggelerhof 2","address":"Tiggelerhof 2","city":"Arcen","operatorName":"Vattenfall InCharge","maxPowerKw":11,"isMegawatt":false,"status":"AVAILABLE","source":"ndw"}},{"type":"Feature","geometry":{"type":"Point","coordinates":[6.177056,51.373147]},"properties":{"type":"charge","layer":"passenger","locationId":"50da39f6-b8ae-4e2e-b945-8f93ef1a790b","name":"Herungerstraat","address":"Herungerstraat 57","city":"Venlo","operatorName":"Vattenfall InCharge","maxPowerKw":11,"isMegawatt":false,"status":"AVAILABLE","source":"ndw"}},{"type":"Feature","geometry":{"type":"Point","coordinates":[6.126221,51.360794]},"properties":{"type":"charge","layer":"passenger","locationId":"8ec35472-a3da-4857-b1ca-924671034b27","name":"Moutzhofweg 124","address":"Moutzhofweg 124","city":"Venlo","operatorName":"Vattenfall InCharge","maxPowerKw":11,"isMegawatt":false,"status":"AVAILABLE","source":"ndw"}},{"type":"Feature","geometry":{"type":"Point","coordinates":[6.169494,51.415278]},"properties":{"type":"charge","layer":"passenger","locationId":"268abe2d-c2ec-4845-b37d-e3d74aad86f8","name":"Schandeloseweg 3","address":"Schandeloseweg 3","city":"Velden","operatorName":"Vattenfall InCharge","maxPowerKw":11,"isMegawatt":false,"status":"AVAILABLE","source":"ndw"}},{"type":"Feature","geometry":{"type":"Point","coordinates":[6.176275,51.364591]},"properties":{"type":"charge","layer":"passenger","locationId":"172a52af-5f23-4e10-882c-20e820bcfd83","name":"Vijverhofstraat","address":"Vijverhofstraat 64","city":"Venlo","operatorName":"Vattenfall InCharge","maxPowerKw":11,"isMegawatt":false,"status":"AVAILABLE","source":"ndw"}},{"type":"Feature","geometry":{"type":"Point","coordinates":[6.132832,51.368492]},"properties":{"type":"charge","layer":"passenger","locationId":"d003a85d-e773-4d86-bbbe-85c9b5e7c289","name":"Dickenslaan","address":"Dickenslaan 50A","city":"Venlo","operatorName":"Vattenfall InCharge","maxPowerKw":11,"isMegawatt":false,"status":"AVAILABLE","source":"ndw"}},{"type":"Feature","geometry":{"type":"Point","coordinates":[6.15476,51.332112]},"properties":{"type":"charge","layer":"passenger","locationId":"26c87624-0a83-4099-9931-9b2289151a8b","name":"Hazenpad","address":"Hazenpad 8","city":"Tegelen","operatorName":"Vattenfall InCharge","maxPowerKw":11,"isMegawatt":false,"status":"AVAILABLE","source":"ndw"}},{"type":"Feature","geometry":{"type":"Point","coordinates":[6.124056,51.312855]},"properties":{"type":"charge","layer":"passenger","locationId":"f30df725-807a-43cb-97c2-28845ca319c0","name":"Leijgraaf 34","address":"Leijgraaf 34","city":"Belfeld","operatorName":"Vattenfall InCharge","maxPowerKw":11,"isMegawatt":false,"status":"AVAILABLE","source":"ndw"}},{"type":"Feature","geometry":{"type":"Point","coordinates":[6.12881,51.34146]},"properties":{"type":"charge","layer":"passenger","locationId":"f33305d6-e018-410f-9bd5-c845ffdd78d4","name":"Koningstraat 44","address":"Koningstraat 44","city":"Tegelen","operatorName":"Vattenfall InCharge","maxPowerKw":11,"isMegawatt":false,"status":"AVAILABLE","source":"ndw"}},{"type":"Feature","geometry":{"type":"Point","coordinates":[6.161434,51.36358]},"properties":{"type":"charge","layer":"passenger","locationId":"e4be238c-c173-43f9-b07f-5fdabda2cbab","name":"Oude Tegelseweg","address":"Oude Tegelseweg 76","city":"Venlo","operatorName":"Vattenfall InCharge","maxPowerKw":11,"isMegawatt":false,"status":"AVAILABLE","source":"ndw"}},{"type":"Feature","geometry":{"type":"Point","coordinates":[6.181482,51.474903]},"properties":{"type":"charge","layer":"passenger","locationId":"5082278ccb77ab0df9a34b0d89d2e8db","name":"Wal 18","address":"Wal 18","city":"Arcen","operatorName":"Vattenfall InCharge","maxPowerKw":11,"isMegawatt":false,"status":"AVAILABLE","source":"ndw"}},{"type":"Feature","geometry":{"type":"Point","coordinates":[6.128638,51.363618]},"properties":{"type":"charge","layer":"passenger","locationId":"e2f42233-aecb-4bb0-a532-8deacee9e1ae","name":"Dumasstraat","address":"Dumasstraat 1","city":"Venlo","operatorName":"Vattenfall InCharge","maxPowerKw":11,"isMegawatt":false,"status":"AVAILABLE","source":"ndw"}},{"type":"Feature","geometry":{"type":"Point","coordinates":[6.132457,51.346197]},"properties":{"type":"charge","layer":"passenger","locationId":"d1dc500d-ddb4-4f86-9e7f-96123ac8b09b","name":"Watermunt 180","address":"Watermunt 180","city":"Tegelen","operatorName":"Vattenfall InCharge","maxPowerKw":11,"isMegawatt":false,"status":"AVAILABLE","source":"ndw"}},{"type":"Feature","geometry":{"type":"Point","coordinates":[6.149506,51.364621]},"properties":{"type":"charge","layer":"passenger","locationId":"facd5ba4-5311-446b-9f30-d0ac363fa5d6","name":"Maasbreesestraat","address":"Maasbreesestraat 52","city":"Venlo","operatorName":"Vattenfall InCharge","maxPowerKw":11,"isMegawatt":false,"status":"AVAILABLE","source":"ndw"}},{"type":"Feature","geometry":{"type":"Point","coordinates":[6.113694,51.305328]},"properties":{"type":"charge","layer":"passenger","locationId":"9617e68e-3f61-4bb8-b691-2c02568600f0","name":"Montfortstraat 21","address":"Montfortstraat 21","city":"Belfeld","operatorName":"Vattenfall InCharge","maxPowerKw":11,"isMegawatt":false,"status":"AVAILABLE","source":"ndw"}},{"type":"Feature","geometry":{"type":"Point","coordinates":[6.167743,51.411358]},"properties":{"type":"charge","layer":"passenger","locationId":"52c3ff47-0458-424a-965a-b77ccaf75880","name":"Monseigneur Willemsenplein","address":"Monseigneur Willemsenplein 24","city":"Velden","operatorName":"Vattenfall InCharge","maxPowerKw":11,"isMegawatt":false,"status":"AVAILABLE","source":"ndw"}},{"type":"Feature","geometry":{"type":"Point","coordinates":[6.172647,51.361195]},"properties":{"type":"charge","layer":"passenger","locationId":"a970645f-2b9e-4afe-8a9b-6d05448ce597","name":"Sloterbeekstraat","address":"Sloterbeekstraat 112","city":"Venlo","operatorName":"Vattenfall InCharge","maxPowerKw":11,"isMegawatt":false,"status":"AVAILABLE","source":"ndw"}},{"type":"Feature","geometry":{"type":"Point","coordinates":[6.151102,51.335006]},"properties":{"type":"charge","layer":"passenger","locationId":"ef2a93cb3289e23155950ed529d7bad8","name":"Lijsterlaan 43","address":"Lijsterlaan 43","city":"Tegelen","operatorName":"Vattenfall InCharge","maxPowerKw":11,"isMegawatt":false,"status":"AVAILABLE","source":"ndw"}},{"type":"Feature","geometry":{"type":"Point","coordinates":[6.174453,51.355677]},"properties":{"type":"charge","layer":"passenger","locationId":"375a639f-b9b3-4e5c-8fe5-85611c554ad4","name":"Morion","address":"Morion 14","city":"Venlo","operatorName":"Vattenfall InCharge","maxPowerKw":11,"isMegawatt":false,"status":"AVAILABLE","source":"ndw"}},{"type":"Feature","geometry":{"type":"Point","coordinates":[6.185793,51.363987]},"properties":{"type":"charge","layer":"passenger","locationId":"a7887874-7580-41cd-bc78-852d2f54ba15","name":"Bertha Soreestraat","address":"Bertha Soreestraat 35","city":"Venlo","operatorName":"Vattenfall InCharge","maxPowerKw":11,"isMegawatt":false,"status":"AVAILABLE","source":"ndw"}},{"type":"Feature","geometry":{"type":"Point","coordinates":[6.14009,51.37817]},"properties":{"type":"charge","layer":"passenger","locationId":"6fbdb732-5bd4-430d-b69b-f1ad420522c6","name":"Cypressenstraat","address":"Cypressenstraat 47","city":"Venlo","operatorName":"Vattenfall InCharge","maxPowerKw":11,"isMegawatt":false,"status":"AVAILABLE","source":"ndw"}},{"type":"Feature","geometry":{"type":"Point","coordinates":[6.178074,51.495955]},"properties":{"type":"charge","layer":"passenger","locationId":"88924630","name":"EQUANS Fletcher Fletcher Hotel-Restaurant Rooland","address":"Roobeekweg 1","city":"Arcen","operatorName":"EQUANS","maxPowerKw":0,"isMegawatt":false,"status":"AVAILABLE","source":"ndw"}},{"type":"Feature","geometry":{"type":"Point","coordinates":[6.186853,51.380621]},"properties":{"type":"charge","layer":"passenger","locationId":"66c499d829c599001c1c0c33","name":"Leurs Tuincentrum Venlo","address":"Straelseweg 370","city":"Venlo","operatorName":"SMA eMobility Portal","maxPowerKw":22,"isMegawatt":false,"status":"AVAILABLE","source":"ndw"}},{"type":"Feature","geometry":{"type":"Point","coordinates":[6.13883,51.362163]},"properties":{"type":"charge","layer":"passenger","locationId":"2174ace7-dd78-4315-bd92-b5cc95dd8077","name":"Frederik Hendrikstraat","address":"Frederik Hendrikstraat 70","city":"Venlo","operatorName":"Vattenfall InCharge","maxPowerKw":11,"isMegawatt":false,"status":"AVAILABLE","source":"ndw"}},{"type":"Feature","geometry":{"type":"Point","coordinates":[6.150178,51.331212]},"properties":{"type":"charge","layer":"passenger","locationId":"aa5dfcda-635c-4c61-8eda-1299c4c53646","name":"Donkesven","address":"Donkesven 37","city":"Tegelen","operatorName":"Vattenfall InCharge","maxPowerKw":11,"isMegawatt":false,"status":"AVAILABLE","source":"ndw"}},{"type":"Feature","geometry":{"type":"Point","coordinates":[6.172731,51.378801]},"properties":{"type":"charge","layer":"passenger","locationId":"158d27735ee81dfa414c5293ff6a5dbf","name":"Jupiterstraat 61","address":"Jupiterstraat 61","city":"Venlo","operatorName":"Vattenfall InCharge","maxPowerKw":11,"isMegawatt":false,"status":"AVAILABLE","source":"ndw"}},{"type":"Feature","geometry":{"type":"Point","coordinates":[6.146813,51.364334]},"properties":{"type":"charge","layer":"passenger","locationId":"e56472e6a4a45422e48a93f90cb6deb1","name":"Ruijsstraat 134","address":"Ruijsstraat 134","city":"Venlo","operatorName":"Vattenfall InCharge","maxPowerKw":11,"isMegawatt":false,"status":"AVAILABLE","source":"ndw"}},{"type":"Feature","geometry":{"type":"Point","coordinates":[6.165495,51.357408]},"properties":{"type":"charge","layer":"passenger","locationId":"7efe4fd57e0a70d975e1efd1b2a6a097","name":"Flamingostraat 78","address":"Flamingostraat 78","city":"Venlo","operatorName":"Vattenfall InCharge","maxPowerKw":11,"isMegawatt":false,"status":"AVAILABLE","source":"ndw"}},{"type":"Feature","geometry":{"type":"Point","coordinates":[6.17255,51.38329]},"properties":{"type":"charge","layer":"passenger","locationId":"837665748209db87867a7a83c93ac496","name":"Agnes Huijnstraat 16","address":"Agnes Huijnstraat 16","city":"Venlo","operatorName":"Vattenfall InCharge","maxPowerKw":11,"isMegawatt":false,"status":"AVAILABLE","source":"ndw"}},{"type":"Feature","geometry":{"type":"Point","coordinates":[6.163366,51.366495]},"properties":{"type":"charge","layer":"passenger","locationId":"60cd38a7-94a9-49a2-9cae-bd68c42d0a8f","name":"Nedinscoplein 9","address":"Nedinscoplein 9","city":"Venlo","operatorName":"Vattenfall InCharge","maxPowerKw":11,"isMegawatt":false,"status":"CHARGING","source":"ndw"}},{"type":"Feature","geometry":{"type":"Point","coordinates":[6.128704,51.333293]},"properties":{"type":"charge","layer":"passenger","locationId":"3e9ce790de49319f577e53f929e3e9f4","name":"Keramiekstraat 4","address":"Keramiekstraat 4","city":"Steyl","operatorName":"Vattenfall InCharge","maxPowerKw":11,"isMegawatt":false,"status":"AVAILABLE","source":"ndw"}},{"type":"Feature","geometry":{"type":"Point","coordinates":[6.180107,51.366025]},"properties":{"type":"charge","layer":"passenger","locationId":"025b1598-16cd-4a6e-9cd0-8722d46c6fbd","name":"Leemkampstraat","address":"Leemkampstraat 1","city":"Venlo","operatorName":"Vattenfall InCharge","maxPowerKw":11,"isMegawatt":false,"status":"AVAILABLE","source":"ndw"}},{"type":"Feature","geometry":{"type":"Point","coordinates":[6.139686,51.370972]},"properties":{"type":"charge","layer":"passenger","locationId":"c7ba9633-d419-49fa-9410-d72039c5f33c","name":"Constantijn Huygensstraat 3","address":"Constantijn Huygensstraat 3","city":"Venlo","operatorName":"Vattenfall InCharge","maxPowerKw":11,"isMegawatt":false,"status":"AVAILABLE","source":"ndw"}},{"type":"Feature","geometry":{"type":"Point","coordinates":[6.150682,51.365833]},"properties":{"type":"charge","layer":"passenger","locationId":"3eafec2c41cb8786aaf5a9faa701d983","name":"Laurentiusstraat 34","address":"Laurentiusstraat 34","city":"Venlo","operatorName":"Vattenfall InCharge","maxPowerKw":11,"isMegawatt":false,"status":"AVAILABLE","source":"ndw"}},{"type":"Feature","geometry":{"type":"Point","coordinates":[6.18004,51.359164]},"properties":{"type":"charge","layer":"passenger","locationId":"54f2b114-6d1f-4b1e-9d7a-610fd91a6dc6","name":"Maagdenbergplein 15","address":"Maagdenbergplein 15","city":"Venlo","operatorName":"Vattenfall InCharge","maxPowerKw":11,"isMegawatt":false,"status":"AVAILABLE","source":"ndw"}},{"type":"Feature","geometry":{"type":"Point","coordinates":[6.130731,51.338368]},"properties":{"type":"charge","layer":"passenger","locationId":"d36d94d0-c951-4e05-a097-8effc893b5c5","name":"P. Guillaumestraat 57","address":"P. Guillaumestraat 57","city":"Tegelen","operatorName":"Vattenfall InCharge","maxPowerKw":11,"isMegawatt":false,"status":"AVAILABLE","source":"ndw"}},{"type":"Feature","geometry":{"type":"Point","coordinates":[6.145074,51.340376]},"properties":{"type":"charge","layer":"passenger","locationId":"77e04ca373da20554b3579776bbe8842","name":"Zilverplak 3","address":"Zilverplak 3","city":"Tegelen","operatorName":"Vattenfall InCharge","maxPowerKw":11,"isMegawatt":false,"status":"AVAILABLE","source":"ndw"}},