{"type":"FeatureCollection","metadata":{"gemeente":"Voorne aan Zee","slug":"voorne-aan-zee","code":"GM1992","generated_at":"2026-06-07T19:22:09.578Z","total_passenger":742,"total_freight":2,"bounds":[3.993526819341125,51.80430499261635,4.239383602268581,51.936141504017655],"operators":["E-Flux by Road","EQUANS","Eneco","Fastned","Laadnet","Lidl","Opcharge","Pluq","Shell Recharge","Smart Grid Monitor","Van Mossel Energie Lease","bp pulse"]},"features":[{"type":"Feature","geometry":{"type":"Point","coordinates":[4.166094,51.843554]},"properties":{"type":"charge","layer":"passenger","locationId":"89307163","name":"EQUANS SGZH 2.0 89307163","address":"Etudestraat 90","city":"Hellevoetsluis","operatorName":"EQUANS","maxPowerKw":0,"isMegawatt":false,"status":"AVAILABLE","source":"ndw"}},{"type":"Feature","geometry":{"type":"Point","coordinates":[4.132792,51.881279]},"properties":{"type":"charge","layer":"passenger","locationId":"6778088ab08f541e82af9637","name":"Stichting Ons Tintestein 's station nr 060","address":"Strypsedijk 48","city":"Tinte","operatorName":"E-Flux by Road","maxPowerKw":11,"isMegawatt":false,"status":"AVAILABLE","source":"ndw","priceKwh":0.48}},{"type":"Feature","geometry":{"type":"Point","coordinates":[4.099814,51.908741]},"properties":{"type":"charge","layer":"passenger","locationId":"89439472","name":"EQUANS SGZH 2.0 89439472","address":"Beukenblad 17","city":"Oostvoorne","operatorName":"EQUANS","maxPowerKw":0,"isMegawatt":false,"status":"AVAILABLE","source":"ndw"}},{"type":"Feature","geometry":{"type":"Point","coordinates":[4.161773,51.889222]},"properties":{"type":"charge","layer":"passenger","locationId":"6716260e17c332001c991358","name":"JWB-Energy","address":"Het Woud 30","city":"Brielle","operatorName":"E-Flux by Road","maxPowerKw":22,"isMegawatt":false,"status":"AVAILABLE","source":"ndw","priceKwh":0.43}},{"type":"Feature","geometry":{"type":"Point","coordinates":[4.13407,51.821694]},"properties":{"type":"charge","layer":"passenger","locationId":"91167878","name":"EQUANS SGZH 2.0 Stationsplein 3","address":"Stationsplein 3","city":"Hellevoetsluis","operatorName":"EQUANS","maxPowerKw":0,"isMegawatt":false,"status":"AVAILABLE","source":"ndw"}},{"type":"Feature","geometry":{"type":"Point","coordinates":[4.159608,51.835914]},"properties":{"type":"charge","layer":"passenger","locationId":"89263641","name":"EQUANS SGZH 1.0 89263641","address":"Cronus 14","city":"Hellevoetsluis","operatorName":"EQUANS","maxPowerKw":0,"isMegawatt":false,"status":"AVAILABLE","source":"ndw"}},{"type":"Feature","geometry":{"type":"Point","coordinates":[4.144433,51.826108]},"properties":{"type":"charge","layer":"passenger","locationId":"91011823","name":"EQUANS SGZH 2.0 Schudegge 21","address":"Schudegge 21","city":"Hellevoetsluis","operatorName":"EQUANS","maxPowerKw":0,"isMegawatt":false,"status":"AVAILABLE","source":"ndw"}},{"type":"Feature","geometry":{"type":"Point","coordinates":[4.165957,51.904612]},"properties":{"type":"charge","layer":"passenger","locationId":"89263647","name":"EQUANS SGZH 1.0 89263647","address":"Voorstraat 96","city":"Brielle","operatorName":"EQUANS","maxPowerKw":0,"isMegawatt":false,"status":"AVAILABLE","source":"ndw"}},{"type":"Feature","geometry":{"type":"Point","coordinates":[4.16132,51.90373]},"properties":{"type":"charge","layer":"passenger","locationId":"91025044","name":"EQUANS SGZH 2.0 Commandeursstraat 4","address":"Commandeursstraat 4","city":"Brielle","operatorName":"EQUANS","maxPowerKw":0,"isMegawatt":false,"status":"AVAILABLE","source":"ndw"}},{"type":"Feature","geometry":{"type":"Point","coordinates":[4.13408,51.83383]},"properties":{"type":"charge","layer":"passenger","locationId":"91350429","name":"EQUANS SGZH 2.0 Isaäc da Costastraat 99 g","address":"Isaäc da Costastraat 99 g","city":"Hellevoetsluis","operatorName":"EQUANS","maxPowerKw":0,"isMegawatt":false,"status":"AVAILABLE","source":"ndw"}},{"type":"Feature","geometry":{"type":"Point","coordinates":[4.162196,51.84799]},"properties":{"type":"charge","layer":"passenger","locationId":"90846228","name":"EQUANS SGZH 2.0 Uithofweide (hoek Rooseveltlaan 34)","address":"Uithofweide","city":"Hellevoetsluis","operatorName":"EQUANS","maxPowerKw":0,"isMegawatt":false,"status":"AVAILABLE","source":"ndw"}},{"type":"Feature","geometry":{"type":"Point","coordinates":[4.141647,51.832574]},"properties":{"type":"charge","layer":"passenger","locationId":"90171372","name":"EQUANS SGZH 2.0 P A de Genestetlaan 57","address":"P A de Genestetlaan 57","city":"Hellevoetsluis","operatorName":"EQUANS","maxPowerKw":0,"isMegawatt":false,"status":"AVAILABLE","source":"ndw"}},{"type":"Feature","geometry":{"type":"Point","coordinates":[4.12868,51.8321]},"properties":{"type":"charge","layer":"passenger","locationId":"91321573","name":"EQUANS SGZH 2.0 Sterkenburglaan 23","address":"Sterkenburglaan 23","city":"Hellevoetsluis","operatorName":"EQUANS","maxPowerKw":0,"isMegawatt":false,"status":"AVAILABLE","source":"ndw"}},{"type":"Feature","geometry":{"type":"Point","coordinates":[4.166327,51.845189]},"properties":{"type":"charge","layer":"passenger","locationId":"89358806","name":"EQUANS SGZH 2.0 89358806","address":"Etudestraat 38","city":"Hellevoetsluis","operatorName":"EQUANS","maxPowerKw":0,"isMegawatt":false,"status":"AVAILABLE","source":"ndw"}},{"type":"Feature","geometry":{"type":"Point","coordinates":[4.167448,51.830609]},"properties":{"type":"charge","layer":"passenger","locationId":"90278984","name":"EQUANS SGZH 2.0 Das 2","address":"Das 2","city":"Hellevoetsluis","operatorName":"EQUANS","maxPowerKw":0,"isMegawatt":false,"status":"AVAILABLE","source":"ndw"}},{"type":"Feature","geometry":{"type":"Point","coordinates":[4.17744,51.892295]},"properties":{"type":"charge","layer":"passenger","locationId":"89249578","name":"EQUANS SGZH 2.0 89249578","address":"Stadhouder 17","city":"Brielle","operatorName":"EQUANS","maxPowerKw":0,"isMegawatt":false,"status":"AVAILABLE","source":"ndw"}},{"type":"Feature","geometry":{"type":"Point","coordinates":[4.149624,51.828518]},"properties":{"type":"charge","layer":"passenger","locationId":"89263633","name":"EQUANS SGZH 1.0 89263633","address":"De Berk 1","city":"Hellevoetsluis","operatorName":"EQUANS","maxPowerKw":0,"isMegawatt":false,"status":"AVAILABLE","source":"ndw"}},{"type":"Feature","geometry":{"type":"Point","coordinates":[4.181741,51.871116]},"properties":{"type":"charge","layer":"passenger","locationId":"bd71ea7d-e25b-46ec-9f57-a4971721bcd3","name":"bp pulse Coosenhoek","address":"Coosenhoek","city":"Brielle","operatorName":"bp pulse","maxPowerKw":150,"isMegawatt":false,"status":"AVAILABLE","source":"ndw","priceKwh":0.7}},{"type":"Feature","geometry":{"type":"Point","coordinates":[4.21613,51.8847]},"properties":{"type":"charge","layer":"passenger","locationId":"89036088","name":"EQUANS SGZH 2.0 89036088","address":"Sluisweg 4","city":"Zwartewaal","operatorName":"EQUANS","maxPowerKw":0,"isMegawatt":false,"status":"AVAILABLE","source":"ndw"}},{"type":"Feature","geometry":{"type":"Point","coordinates":[4.12813,51.840716]},"properties":{"type":"charge","layer":"passenger","locationId":"89968083","name":"EQUANS SGZH 2.0 Helmstraat 53","address":"Helmstraat 53","city":"Hellevoetsluis","operatorName":"EQUANS","maxPowerKw":0,"isMegawatt":false,"status":"AVAILABLE","source":"ndw"}},{"type":"Feature","geometry":{"type":"Point","coordinates":[4.1661,51.89147]},"properties":{"type":"charge","layer":"passenger","locationId":"89036076","name":"EQUANS SGZH 2.0 89036076","address":"Egge 1","city":"Brielle","operatorName":"EQUANS","maxPowerKw":0,"isMegawatt":false,"status":"CHARGING","source":"ndw"}},{"type":"Feature","geometry":{"type":"Point","coordinates":[4.141746,51.837117]},"properties":{"type":"charge","layer":"passenger","locationId":"89880787","name":"EQUANS SGZH 2.0 89880787","address":"Judopad 2","city":"Hellevoetsluis","operatorName":"EQUANS","maxPowerKw":0,"isMegawatt":false,"status":"AVAILABLE","source":"ndw"}},{"type":"Feature","geometry":{"type":"Point","coordinates":[4.137471,51.838585]},"properties":{"type":"charge","layer":"passenger","locationId":"89317586","name":"EQUANS SGZH 2.0 89317586","address":"Molenweg 22","city":"Hellevoetsluis","operatorName":"EQUANS","maxPowerKw":0,"isMegawatt":false,"status":"CHARGING","source":"ndw"}},{"type":"Feature","geometry":{"type":"Point","coordinates":[4.130507,51.827736]},"properties":{"type":"charge","layer":"passenger","locationId":"89263600","name":"EQUANS SGZH 2.0 Timmer Werf 17","address":"Timmer Werf 17","city":"Hellevoetsluis","operatorName":"EQUANS","maxPowerKw":0,"isMegawatt":false,"status":"AVAILABLE","source":"ndw"}},{"type":"Feature","geometry":{"type":"Point","coordinates":[4.140364,51.826998]},"properties":{"type":"charge","layer":"passenger","locationId":"89179070","name":"EQUANS SGZH 2.0 89179070","address":"Dreef 78","city":"Hellevoetsluis","operatorName":"EQUANS","maxPowerKw":0,"isMegawatt":false,"status":"AVAILABLE","source":"ndw"}},{"type":"Feature","geometry":{"type":"Point","coordinates":[4.148338,51.823718]},"properties":{"type":"charge","layer":"passenger","locationId":"90318215","name":"EQUANS SGZH 2.0 Ebstroom 14","address":"Ebstroom 14","city":"Hellevoetsluis","operatorName":"EQUANS","maxPowerKw":0,"isMegawatt":false,"status":"AVAILABLE","source":"ndw"}},{"type":"Feature","geometry":{"type":"Point","coordinates":[4.094574,51.910884]},"properties":{"type":"charge","layer":"passenger","locationId":"4122762","name":"Laadnet Connect Oostvoorne","address":"Patrijzenlaan 65","city":"Oostvoorne","operatorName":"Laadnet","maxPowerKw":11,"isMegawatt":false,"status":"CHARGING","source":"ndw"}},{"type":"Feature","geometry":{"type":"Point","coordinates":[4.12729,51.823095]},"properties":{"type":"charge","layer":"passenger","locationId":"89263593","name":"EQUANS SGZH 2.0 89927702","address":"Molenstraat 24a","city":"Hellevoetsluis","operatorName":"EQUANS","maxPowerKw":0,"isMegawatt":false,"status":"AVAILABLE","source":"ndw"}},{"type":"Feature","geometry":{"type":"Point","coordinates":[4.15272,51.83983]},"properties":{"type":"charge","layer":"passenger","locationId":"89263620","name":"EQUANS SGZH 2.0 Menkemaborgstraat 92","address":"Menkemaborgstraat 92","city":"Hellevoetsluis","operatorName":"EQUANS","maxPowerKw":0,"isMegawatt":false,"status":"AVAILABLE","source":"ndw"}},{"type":"Feature","geometry":{"type":"Point","coordinates":[4.16528,51.82822]},"properties":{"type":"charge","layer":"passenger","locationId":"90967496","name":"EQUANS SGZH 2.0 Mantelschelp 29","address":"Mantelschelp 29","city":"Hellevoetsluis","operatorName":"EQUANS","maxPowerKw":0,"isMegawatt":false,"status":"AVAILABLE","source":"ndw"}},{"type":"Feature","geometry":{"type":"Point","coordinates":[4.09925,51.90773]},"properties":{"type":"charge","layer":"passenger","locationId":"89036079","name":"EQUANS SGZH 2.0 89036079","address":"Berkenblad 20","city":"Oostvoorne","operatorName":"EQUANS","maxPowerKw":0,"isMegawatt":false,"status":"CHARGING","source":"ndw"}},{"type":"Feature","geometry":{"type":"Point","coordinates":[4.141399,51.840087]},"properties":{"type":"charge","layer":"passenger","locationId":"89036057","name":"EQUANS SGZH 1.0 89086946","address":"Willem-Alexanderplaats 2 - Koninginnelaan","city":"Hellevoetsluis","operatorName":"EQUANS","maxPowerKw":0,"isMegawatt":false,"status":"AVAILABLE","source":"ndw"}},{"type":"Feature","geometry":{"type":"Point","coordinates":[4.151362,51.845107]},"properties":{"type":"charge","layer":"passenger","locationId":"90256795","name":"EQUANS SGZH 2.0 Dag Hammarskjöldlaan 189","address":"Dag Hammarskjöldlaan 189","city":"Hellevoetsluis","operatorName":"EQUANS","maxPowerKw":0,"isMegawatt":false,"status":"AVAILABLE","source":"ndw"}},{"type":"Feature","geometry":{"type":"Point","coordinates":[4.136504,51.825098]},"properties":{"type":"charge","layer":"passenger","locationId":"89263626","name":"EQUANS SGZH 1.0 89263626","address":"Kanaalweg Oostzijde 72","city":"Hellevoetsluis","operatorName":"EQUANS","maxPowerKw":0,"isMegawatt":false,"status":"AVAILABLE","source":"ndw"}},{"type":"Feature","geometry":{"type":"Point","coordinates":[4.103577,51.912468]},"properties":{"type":"charge","layer":"passenger","locationId":"89179061","name":"EQUANS SGZH 2.0 89179061","address":"Middellandweg 2","city":"Oostvoorne","operatorName":"EQUANS","maxPowerKw":0,"isMegawatt":false,"status":"AVAILABLE","source":"ndw"}},{"type":"Feature","geometry":{"type":"Point","coordinates":[4.12835,51.82475]},"properties":{"type":"charge","layer":"passenger","locationId":"90205645","name":"EQUANS SGZH 2.0 Burgemeester van der Jagtkade 1","address":"Burgemeester van der Jagtkade 1","city":"Hellevoetsluis","operatorName":"EQUANS","maxPowerKw":0,"isMegawatt":false,"status":"AVAILABLE","source":"ndw"}},{"type":"Feature","geometry":{"type":"Point","coordinates":[4.130136,51.838568]},"properties":{"type":"charge","layer":"passenger","locationId":"89490585","name":"EQUANS SGZH 2.0 89490585","address":"Bremstraat 2 a","city":"Hellevoetsluis","operatorName":"EQUANS","maxPowerKw":0,"isMegawatt":false,"status":"AVAILABLE","source":"ndw"}},{"type":"Feature","geometry":{"type":"Point","coordinates":[4.152735,51.827247]},"properties":{"type":"charge","layer":"passenger","locationId":"89606412","name":"EQUANS SGZH 2.0 89606412","address":"Esdoornlaan 80","city":"Hellevoetsluis","operatorName":"EQUANS","maxPowerKw":0,"isMegawatt":false,"status":"CHARGING","source":"ndw"}},{"type":"Feature","geometry":{"type":"Point","coordinates":[4.15596,51.824537]},"properties":{"type":"charge","layer":"passenger","locationId":"89263632","name":"EQUANS SGZH 1.0 89263632","address":"Anker 10","city":"Hellevoetsluis","operatorName":"EQUANS","maxPowerKw":0,"isMegawatt":false,"status":"CHARGING","source":"ndw"}},{"type":"Feature","geometry":{"type":"Point","coordinates":[4.13126,51.824]},"properties":{"type":"charge","layer":"passenger","locationId":"90909793","name":"EQUANS SGZH 2.0 Opzoomerlaan 2 a (Schoolplein)","address":"Opzoomerlaan 2 a","city":"Hellevoetsluis","operatorName":"EQUANS","maxPowerKw":0,"isMegawatt":false,"status":"AVAILABLE","source":"ndw"}},{"type":"Feature","geometry":{"type":"Point","coordinates":[4.07761,51.906743]},"properties":{"type":"charge","layer":"passenger","locationId":"66193059e04d0a001ceefba0","name":"Camping Ketjil #02","address":"Berkenrijsweg  15","city":"Oostvoorne","operatorName":"E-Flux by Road","maxPowerKw":22,"isMegawatt":false,"status":"AVAILABLE","source":"ndw","priceKwh":0.48}},{"type":"Feature","geometry":{"type":"Point","coordinates":[4.164342,51.905757]},"properties":{"type":"charge","layer":"passenger","locationId":"89263649","name":"EQUANS SGZH 1.0 89263649","address":"Maarland Zuidzijde 48","city":"Brielle","operatorName":"EQUANS","maxPowerKw":0,"isMegawatt":false,"status":"CHARGING","source":"ndw"}},{"type":"Feature","geometry":{"type":"Point","coordinates":[4.17966,51.894629]},"properties":{"type":"charge","layer":"passenger","locationId":"90300288","name":"EQUANS SGZH 2.0 Landvoogdes 33","address":"Landvoogdes 33","city":"Brielle","operatorName":"EQUANS","maxPowerKw":0,"isMegawatt":false,"status":"AVAILABLE","source":"ndw"}},{"type":"Feature","geometry":{"type":"Point","coordinates":[4.145689,51.831272]},"properties":{"type":"charge","layer":"passenger","locationId":"90279110","name":"EQUANS SGZH 2.0 Struytse Hoeck 180","address":"Struytse Hoeck 180","city":"Hellevoetsluis","operatorName":"EQUANS","maxPowerKw":0,"isMegawatt":false,"status":"CHARGING","source":"ndw"}},{"type":"Feature","geometry":{"type":"Point","coordinates":[4.115081,51.912163]},"properties":{"type":"charge","layer":"passenger","locationId":"4293026","name":"Laadnet Autobedrijf Voorne","address":"Langeweg 2","city":"Oostvoorne","operatorName":"Laadnet","maxPowerKw":22,"isMegawatt":false,"status":"AVAILABLE","source":"ndw"}},{"type":"Feature","geometry":{"type":"Point","coordinates":[4.145046,51.840511]},"properties":{"type":"charge","layer":"passenger","locationId":"90318213","name":"EQUANS SGZH 2.0 Jan van Gelderstraat 17","address":"Jan van Gelderstraat 17","city":"Hellevoetsluis","operatorName":"EQUANS","maxPowerKw":0,"isMegawatt":false,"status":"AVAILABLE","source":"ndw"}},{"type":"Feature","geometry":{"type":"Point","coordinates":[4.181741,51.871116]},"properties":{"type":"charge","layer":"passenger","locationId":"12df72dc-b4bf-11ee-a708-42010aa40fc0","name":"bp pulse Coosenhoek","address":"Coosenhoek","city":"Brielle","operatorName":"bp pulse","maxPowerKw":150,"isMegawatt":false,"status":"UNAVAILABLE","source":"ndw","priceKwh":0.7}},{"type":"Feature","geometry":{"type":"Point","coordinates":[4.154476,51.898688]},"properties":{"type":"charge","layer":"passenger","locationId":"7c09fe24-fc35-11ec-8457-42010aa40fd8","name":"Eneco eMobility Lunterse Beleggingscombinatie B.V. - Nicolaas Pieckstraat 14 - Brielle","address":"Nicolaas Pieckstraat 14","city":"Brielle","operatorName":"Eneco","maxPowerKw":11,"isMegawatt":false,"status":"UNAVAILABLE","source":"ndw","priceKwh":0.65}},{"type":"Feature","geometry":{"type":"Point","coordinates":[4.086295,51.913352]},"properties":{"type":"charge","layer":"passenger","locationId":"68dd2a8d3468a356407c0e91","name":"Sebastiaan van Dorsser's station","address":"Lijsterbeslaan 40","city":"Oostvoorne","operatorName":"Van Mossel Energie Lease","maxPowerKw":11,"isMegawatt":false,"status":"AVAILABLE","source":"ndw","priceKwh":0.43}},{"type":"Feature","geometry":{"type":"Point","coordinates":[4.15594,51.830194]},"properties":{"type":"charge","layer":"passenger","locationId":"89885262","name":"EQUANS SGZH 2.0 89885262","address":"Pijlstaart 25","city":"Hellevoetsluis","operatorName":"EQUANS","maxPowerKw":0,"isMegawatt":false,"status":"CHARGING","source":"ndw"}},{"type":"Feature","geometry":{"type":"Point","coordinates":[4.114913,51.914371]},"properties":{"type":"charge","layer":"passenger","locationId":"5090","name":"Shell Recharge NL2670 - Shell Oostvoorne","address":"BRIELSEWEG 115","city":"Oostvoorne","operatorName":"Shell Recharge","maxPowerKw":150,"isMegawatt":false,"status":"AVAILABLE","source":"ndw","priceKwh":0.7025}},{"type":"Feature","geometry":{"type":"Point","coordinates":[4.114913,51.914371]},"properties":{"type":"charge","layer":"passenger","locationId":"7c4d90e0-3507-11f0-ba87-42010aa400b8","name":"Shell Recharge BRIELSEWEG 115","address":"BRIELSEWEG 115","city":"Oostvoorne","operatorName":"Shell Recharge","maxPowerKw":150,"isMegawatt":false,"status":"UNAVAILABLE","source":"ndw"}},{"type":"Feature","geometry":{"type":"Point","coordinates":[4.158215,51.842416]},"properties":{"type":"charge","layer":"passenger","locationId":"90175531","name":"EQUANS SGZH 2.0 Marshalllaan 47","address":"Marshalllaan 47","city":"Hellevoetsluis","operatorName":"EQUANS","maxPowerKw":0,"isMegawatt":false,"status":"AVAILABLE","source":"ndw"}},{"type":"Feature","geometry":{"type":"Point","coordinates":[4.11182,51.91435]},"properties":{"type":"charge","layer":"passenger","locationId":"90888966","name":"EQUANS SGZH 2.0 Brielseweg 67","address":"Brielseweg 67","city":"Oostvoorne","operatorName":"EQUANS","maxPowerKw":0,"isMegawatt":false,"status":"AVAILABLE","source":"ndw"}},{"type":"Feature","geometry":{"type":"Point","coordinates":[4.064318,51.869334]},"properties":{"type":"charge","layer":"passenger","locationId":"90318189","name":"EQUANS SGZH 2.0 Heemraadlaan 5","address":"Heemraadlaan 5","city":"Rockanje","operatorName":"EQUANS","maxPowerKw":0,"isMegawatt":false,"status":"AVAILABLE","source":"ndw"}},{"type":"Feature","geometry":{"type":"Point","coordinates":[4.17884,51.87964]},"properties":{"type":"charge","layer":"passenger","locationId":"91049076","name":"EQUANS SGZH 2.0 D C Meeslaan 7 a","address":"D C Meeslaan 7 a","city":"Vierpolders","operatorName":"EQUANS","maxPowerKw":0,"isMegawatt":false,"status":"AVAILABLE","source":"ndw"}},{"type":"Feature","geometry":{"type":"Point","coordinates":[4.17207,51.90774]},"properties":{"type":"charge","layer":"passenger","locationId":"89263651","name":"EQUANS SGZH 1.0 89263651","address":"Rochus Meeuwiszoonweg 70","city":"Brielle","operatorName":"EQUANS","maxPowerKw":0,"isMegawatt":false,"status":"AVAILABLE","source":"ndw"}},{"type":"Feature","geometry":{"type":"Point","coordinates":[4.146549,51.834991]},"properties":{"type":"charge","layer":"passenger","locationId":"90891484","name":"EQUANS SGZH 2.0 Bruggehoofd 12","address":"Bruggehoofd 12","city":"Hellevoetsluis","operatorName":"EQUANS","maxPowerKw":0,"isMegawatt":false,"status":"AVAILABLE","source":"ndw"}},{"type":"Feature","geometry":{"type":"Point","coordinates":[4.164807,51.846488]},"properties":{"type":"charge","layer":"passenger","locationId":"89396927","name":"EQUANS SGZH 2.0 89396927","address":"Papenweide 7","city":"Hellevoetsluis","operatorName":"EQUANS","maxPowerKw":0,"isMegawatt":false,"status":"AVAILABLE","source":"ndw"}},{"type":"Feature","geometry":{"type":"Point","coordinates":[4.138355,51.825935]},"properties":{"type":"charge","layer":"passenger","locationId":"89567754","name":"EQUANS SGZH 2.0 89567754","address":"Rangeerlok 2","city":"Hellevoetsluis","operatorName":"EQUANS","maxPowerKw":0,"isMegawatt":false,"status":"CHARGING","source":"ndw"}},{"type":"Feature","geometry":{"type":"Point","coordinates":[4.21958,51.881731]},"properties":{"type":"charge","layer":"passenger","locationId":"89263682","name":"EQUANS SGZH 1.0 89263682","address":"Hollemarestraat 58","city":"Zwartewaal","operatorName":"EQUANS","maxPowerKw":0,"isMegawatt":false,"status":"AVAILABLE","source":"ndw"}},{"type":"Feature","geometry":{"type":"Point","coordinates":[4.127979,51.827452]},"properties":{"type":"charge","layer":"passenger","locationId":"89221173","name":"EQUANS SGZH 2.0 89221173","address":"Burgemeester van der Jagtkade 57","city":"Hellevoetsluis","operatorName":"EQUANS","maxPowerKw":0,"isMegawatt":false,"status":"AVAILABLE","source":"ndw"}},{"type":"Feature","geometry":{"type":"Point","coordinates":[4.100741,51.913534]},"properties":{"type":"charge","layer":"passenger","locationId":"89263673","name":"EQUANS SGZH 1.0 89263673","address":"Schepenenweg 55","city":"Oostvoorne","operatorName":"EQUANS","maxPowerKw":0,"isMegawatt":false,"status":"AVAILABLE","source":"ndw"}},{"type":"Feature","geometry":{"type":"Point","coordinates":[4.127004,51.834207]},"properties":{"type":"charge","layer":"passenger","locationId":"89880788","name":"EQUANS SGZH 2.0 89880788","address":"Pluvierhof 1","city":"Hellevoetsluis","operatorName":"EQUANS","maxPowerKw":0,"isMegawatt":false,"status":"AVAILABLE","source":"ndw"}},{"type":"Feature","geometry":{"type":"Point","coordinates":[4.150138,51.825098]},"properties":{"type":"charge","layer":"passenger","locationId":"89263631","name":"EQUANS SGZH 1.0 89263631","address":"De Nautilus 2","city":"Hellevoetsluis","operatorName":"EQUANS","maxPowerKw":0,"isMegawatt":false,"status":"AVAILABLE","source":"ndw"}},{"type":"Feature","geometry":{"type":"Point","coordinates":[4.166847,51.902941]},"properties":{"type":"charge","layer":"passenger","locationId":"89263646","name":"EQUANS SGZH 1.0 89263646","address":"Lijnbaan 14","city":"Brielle","operatorName":"EQUANS","maxPowerKw":0,"isMegawatt":false,"status":"AVAILABLE","source":"ndw"}},{"type":"Feature","geometry":{"type":"Point","coordinates":[4.195484,51.892109]},"properties":{"type":"charge","layer":"passenger","locationId":"3F43C966-9851-4B65-8441-758C2C1D5FF5","name":"Eneco eMobility BWM Dussedorp - Brielle","address":"Seggelant-Oost 4","city":"Brielle","operatorName":"Eneco","maxPowerKw":11,"isMegawatt":false,"status":"AVAILABLE","source":"ndw","priceKwh":0.6}},{"type":"Feature","geometry":{"type":"Point","coordinates":[4.0572,51.87289]},"properties":{"type":"charge","layer":"passenger","locationId":"90878415","name":"EQUANS SGZH 2.0 Swinsedreef 15","address":"Swinsedreef 15","city":"Rockanje","operatorName":"EQUANS","maxPowerKw":0,"isMegawatt":false,"status":"AVAILABLE","source":"ndw"}},{"type":"Feature","geometry":{"type":"Point","coordinates":[4.164602,51.888754]},"properties":{"type":"charge","layer":"passenger","locationId":"89081756","name":"EQUANS SGZH 1.0 89081756","address":"Lamoen 58","city":"Brielle","operatorName":"EQUANS","maxPowerKw":0,"isMegawatt":false,"status":"AVAILABLE","source":"ndw"}},{"type":"Feature","geometry":{"type":"Point","coordinates":[4.181741,51.871116]},"properties":{"type":"charge","layer":"passenger","locationId":"12df72dc-b4bf-11ee-a708-42010aa40fc0","name":"bp pulse Coosenhoek","address":"Coosenhoek","city":"Brielle","operatorName":"bp pulse","maxPowerKw":150,"isMegawatt":false,"status":"AVAILABLE","source":"ndw","priceKwh":0.7}},{"type":"Feature","geometry":{"type":"Point","coordinates":[4.069657,51.873501]},"properties":{"type":"charge","layer":"passenger","locationId":"89263676","name":"EQUANS SGZH 1.0 89263676","address":"Willem de Waalstraat 3","city":"Rockanje","operatorName":"EQUANS","maxPowerKw":0,"isMegawatt":false,"status":"CHARGING","source":"ndw"}},{"type":"Feature","geometry":{"type":"Point","coordinates":[4.178584,51.8792]},"properties":{"type":"charge","layer":"passenger","locationId":"90295235","name":"EQUANS SGZH 2.0 H W Croeslaan 6","address":"H W Croeslaan 6","city":"Vierpolders","operatorName":"EQUANS","maxPowerKw":0,"isMegawatt":false,"status":"AVAILABLE","source":"ndw"}},{"type":"Feature","geometry":{"type":"Point","coordinates":[4.162099,51.924637]},"properties":{"type":"charge","layer":"passenger","locationId":"28336125f974412d8e67b0a9b9b00f52","name":"Brielle 00128 Golfclub Kleiburg ","address":"Krabbeweg 9","city":"Brielle","operatorName":"Opcharge","maxPowerKw":22,"isMegawatt":false,"status":"AVAILABLE","source":"ndw","priceKwh":0.56}},{"type":"Feature","geometry":{"type":"Point","coordinates":[4.142671,51.824272]},"properties":{"type":"charge","layer":"passenger","locationId":"90171371","name":"EQUANS SGZH 2.0 Repel 67","address":"Repel 67","city":"Hellevoetsluis","operatorName":"EQUANS","maxPowerKw":0,"isMegawatt":false,"status":"AVAILABLE","source":"ndw"}},{"type":"Feature","geometry":{"type":"Point","coordinates":[4.159234,51.850755]},"properties":{"type":"charge","layer":"passenger","locationId":"89263613","name":"EQUANS SGZH 2.0 Moeder Teresalaan 44 t.h.v. Dijkweg 7 c","address":"Moeder Teresalaan 44","city":"Hellevoetsluis","operatorName":"EQUANS","maxPowerKw":0,"isMegawatt":false,"status":"AVAILABLE","source":"ndw"}},{"type":"Feature","geometry":{"type":"Point","coordinates":[4.152207,51.845884]},"properties":{"type":"charge","layer":"passenger","locationId":"89903904","name":"EQUANS SGZH 2.0 89903904","address":"Bellinkstraat 16","city":"Hellevoetsluis","operatorName":"EQUANS","maxPowerKw":0,"isMegawatt":false,"status":"AVAILABLE","source":"ndw"}},{"type":"Feature","geometry":{"type":"Point","coordinates":[4.13194,51.836688]},"properties":{"type":"charge","layer":"passenger","locationId":"d65698ca-2040-4505-b22c-0d1ea09f3a7f","name":"HELLEVOETSLUIS-Hoonaartstraat","address":"Hoonaartstraat","city":"Hellevoetsluis","operatorName":"Lidl","maxPowerKw":22,"isMegawatt":false,"status":"UNAVAILABLE","source":"ndw"}},{"type":"Feature","geometry":{"type":"Point","coordinates":[4.167881,51.832991]},"properties":{"type":"charge","layer":"passenger","locationId":"89880789","name":"EQUANS SGZH 2.0 89880789","address":"Marter 114","city":"Hellevoetsluis","operatorName":"EQUANS","maxPowerKw":0,"isMegawatt":false,"status":"AVAILABLE","source":"ndw"}},{"type":"Feature","geometry":{"type":"Point","coordinates":[4.167963,51.834631]},"properties":{"type":"charge","layer":"passenger","locationId":"89263637","name":"EQUANS SGZH 1.0 89263637","address":"Glasblazer 24","city":"Hellevoetsluis","operatorName":"EQUANS","maxPowerKw":0,"isMegawatt":false,"status":"CHARGING","source":"ndw"}},{"type":"Feature","geometry":{"type":"Point","coordinates":[4.195484,51.892109]},"properties":{"type":"charge","layer":"passenger","locationId":"52373c1e-e03a-11f0-b080-42010aa400b8","name":"Eneco eMobility BWM Dussedorp - Brielle","address":"Seggelant-Oost 4","city":"Brielle","operatorName":"Eneco","maxPowerKw":11,"isMegawatt":false,"status":"CHARGING","source":"ndw","priceKwh":0.32}},{"type":"Feature","geometry":{"type":"Point","coordinates":[4.146397,51.850462]},"properties":{"type":"charge","layer":"passenger","locationId":"6a5f4388561c44afa2fef64a8665a3e9","name":"Hellevoetsluis MH","address":"Korteweg 1","city":"Hellevoetsluis","operatorName":"Smart Grid Monitor","maxPowerKw":11,"isMegawatt":false,"status":"AVAILABLE","source":"ndw","priceKwh":0.9}},{"type":"Feature","geometry":{"type":"Point","coordinates":[4.144227,51.829409]},"properties":{"type":"charge","layer":"passenger","locationId":"89942886","name":"EQUANS SGZH 2.0 89942886","address":"Vliedbergstraat 112","city":"Hellevoetsluis","operatorName":"EQUANS","maxPowerKw":0,"isMegawatt":false,"status":"AVAILABLE","source":"ndw"}},{"type":"Feature","geometry":{"type":"Point","coordinates":[4.188214,51.828623]},"properties":{"type":"charge","layer":"passenger","locationId":"89604289","name":"EQUANS SGZH 2.0 89604289","address":"Korenbloem 10","city":"Oudenhoorn","operatorName":"EQUANS","maxPowerKw":0,"isMegawatt":false,"status":"CHARGING","source":"ndw"}},{"type":"Feature","geometry":{"type":"Point","coordinates":[4.152259,51.898942]},"properties":{"type":"charge","layer":"passenger","locationId":"2c59e83a-5edc-11ed-af74-42010aa40fc0","name":"EQUANS SGZH 2.0 89317635","address":"Jacoba van Beierenstraat 15","city":"Brielle","operatorName":"EQUANS","maxPowerKw":0,"isMegawatt":false,"status":"AVAILABLE","source":"ndw","priceKwh":0.37}},{"type":"Feature","geometry":{"type":"Point","coordinates":[4.064618,51.874214]},"properties":{"type":"charge","layer":"passenger","locationId":"556e247c-4f38-11ea-8006-42010a840fe0","name":"EQUANS SGZH 1.0 89263677","address":"Dwarsweg 1","city":"Rockanje","operatorName":"EQUANS","maxPowerKw":0,"isMegawatt":false,"status":"AVAILABLE","source":"ndw","priceKwh":0.34}},{"type":"Feature","geometry":{"type":"Point","coordinates":[4.127391,51.836551]},"properties":{"type":"charge","layer":"passenger","locationId":"a0627478-bd2c-11ed-a6cb-42010aa40fc0","name":"EQUANS SGZH 2.0 89469914","address":"Rietgansstraat 23","city":"Hellevoetsluis","operatorName":"EQUANS","maxPowerKw":0,"isMegawatt":false,"status":"AVAILABLE","source":"ndw","priceKwh":0.37}},{"type":"Feature","geometry":{"type":"Point","coordinates":[4.103969,51.914837]},"properties":{"type":"charge","layer":"passenger","locationId":"ba49fcc6-bf64-11ea-97c9-42010a840fc2","name":"EQUANS SGZH 1.0 89263670","address":"Elisabethhof 53","city":"Oostvoorne","operatorName":"EQUANS","maxPowerKw":0,"isMegawatt":false,"status":"AVAILABLE","source":"ndw","priceKwh":0.34}},{"type":"Feature","geometry":{"type":"Point","coordinates":[4.156618,51.835527]},"properties":{"type":"charge","layer":"passenger","locationId":"c7a63f3e-cba4-11e8-8f59-42010a840002","name":"EQUANS SGZH 1.0 89263640","address":"Aphrodite 1","city":"Hellevoetsluis","operatorName":"EQUANS","maxPowerKw":0,"isMegawatt":false,"status":"AVAILABLE","source":"ndw","priceKwh":0.34}},{"type":"Feature","geometry":{"type":"Point","coordinates":[4.17744,51.892295]},"properties":{"type":"charge","layer":"passenger","locationId":"cdc24e7c-fcd2-11ec-bc71-42010aa40fc0","name":"EQUANS SGZH 2.0 89249578","address":"Stadhouder 17","city":"Brielle","operatorName":"EQUANS","maxPowerKw":0,"isMegawatt":false,"status":"AVAILABLE","source":"ndw","priceKwh":0.37}},{"type":"Feature","geometry":{"type":"Point","coordinates":[4.158215,51.842416]},"properties":{"type":"charge","layer":"passenger","locationId":"d0d65aae-c6c5-11ee-a061-42010aa40fc0","name":"EQUANS SGZH 2.0 Marshalllaan 47","address":"Marshalllaan 47","city":"Hellevoetsluis","operatorName":"EQUANS","maxPowerKw":0,"isMegawatt":false,"status":"AVAILABLE","source":"ndw","priceKwh":0.37}},{"type":"Feature","geometry":{"type":"Point","coordinates":[4.11182,51.91435]},"properties":{"type":"charge","layer":"passenger","locationId":"d89f04ae-2608-11f0-92ab-42010aa400b8","name":"EQUANS SGZH 2.0 Brielseweg 67","address":"Brielseweg 67","city":"Oostvoorne","operatorName":"EQUANS","maxPowerKw":0,"isMegawatt":false,"status":"AVAILABLE","source":"ndw","priceKwh":0.37}},{"type":"Feature","geometry":{"type":"Point","coordinates":[4.073564,51.872829]},"properties":{"type":"charge","layer":"passenger","locationId":"daaa5768-7081-11ef-9cd4-42010aa400b8","name":"EQUANS SGZH 2.0 Hoogvlietlaan 57","address":"Hoogvlietlaan 57","city":"Rockanje","operatorName":"EQUANS","maxPowerKw":0,"isMegawatt":false,"status":"AVAILABLE","source":"ndw","priceKwh":0.37}},{"type":"Feature","geometry":{"type":"Point","coordinates":[4.12813,51.840716]},"properties":{"type":"charge","layer":"passenger","locationId":"dff92a12-6c65-11ee-8d29-42010aa40fc0","name":"EQUANS SGZH 2.0 Helmstraat 53","address":"Helmstraat 53","city":"Hellevoetsluis","operatorName":"EQUANS","maxPowerKw":0,"isMegawatt":false,"status":"AVAILABLE","source":"ndw","priceKwh":0.37}},{"type":"Feature","geometry":{"type":"Point","coordinates":[4.157935,51.824063]},"properties":{"type":"charge","layer":"passenger","locationId":"e461148c-58c1-11ee-b4fb-42010aa40fc0","name":"EQUANS SGZH 2.0 89942889","address":"Kraaienest 19","city":"Hellevoetsluis","operatorName":"EQUANS","maxPowerKw":0,"isMegawatt":false,"status":"AVAILABLE","source":"ndw","priceKwh":0.37}},{"type":"Feature","geometry":{"type":"Point","coordinates":[4.068033,51.868541]},"properties":{"type":"charge","layer":"passenger","locationId":"24c4d356-1464-11eb-b030-42010a840fda","name":"EQUANS SGZH 1.0 89263679","address":"Moerbeistraat 59","city":"Rockanje","operatorName":"EQUANS","maxPowerKw":0,"isMegawatt":false,"status":"AVAILABLE","source":"ndw","priceKwh":0.34}},{"type":"Feature","geometry":{"type":"Point","coordinates":[4.160264,51.849365]},"properties":{"type":"charge","layer":"passenger","locationId":"635440e4-4e8a-11ee-865c-42010aa40fc0","name":"EQUANS SGZH 2.0 89918748","address":"Moeder Teresalaan 2","city":"Hellevoetsluis","operatorName":"EQUANS","maxPowerKw":0,"isMegawatt":false,"status":"AVAILABLE","source":"ndw","priceKwh":0.37}},{"type":"Feature","geometry":{"type":"Point","coordinates":[4.159425,51.836738]},"properties":{"type":"charge","layer":"passenger","locationId":"68beb95c-d8aa-11ed-b0c2-42010aa40fc0","name":"EQUANS SGZH 2.0 89604292","address":"Ares 2","city":"Hellevoetsluis","operatorName":"EQUANS","maxPowerKw":0,"isMegawatt":false,"status":"AVAILABLE","source":"ndw","priceKwh":0.37}},{"type":"Feature","geometry":{"type":"Point","coordinates":[4.153073,51.833256]},"properties":{"type":"charge","layer":"passenger","locationId":"8e968d6e-a99c-11ec-add7-42010a840003","name":"EQUANS SGZH 2.0 SGZH2-04153","address":"Boogschutter 25","city":"Hellevoetsluis","operatorName":"EQUANS","maxPowerKw":0,"isMegawatt":false,"status":"AVAILABLE","source":"ndw","priceKwh":0.37}},{"type":"Feature","geometry":{"type":"Point","coordinates":[4.16625,51.89224]},"properties":{"type":"charge","layer":"passenger","locationId":"acf774d6-927c-11f0-ae2c-42010aa400b8","name":"EQUANS SGZH 2.0 Vloedlijn 17","address":"Vloedlijn 17","city":"Brielle","operatorName":"EQUANS","maxPowerKw":0,"isMegawatt":false,"status":"AVAILABLE","source":"ndw","priceKwh":0.37}},{"type":"Feature","geometry":{"type":"Point","coordinates":[4.144227,51.829409]},"properties":{"type":"charge","layer":"passenger","locationId":"e4433f20-58c1-11ee-81ab-42010aa40fc0","name":"EQUANS SGZH 2.0 89942886","address":"Vliedbergstraat 112","city":"Hellevoetsluis","operatorName":"EQUANS","maxPowerKw":0,"isMegawatt":false,"status":"AVAILABLE","source":"ndw","priceKwh":0.37}},{"type":"Feature","geometry":{"type":"Point","coordinates":[4.127984,51.821265]},"properties":{"type":"charge","layer":"passenger","locationId":"e624d0b0-bbc7-11ee-ad90-42010aa40fc0","name":"EQUANS SGZH 2.0 Westkade 1b","address":"Westkade 1b","city":"Hellevoetsluis","operatorName":"EQUANS","maxPowerKw":0,"isMegawatt":false,"status":"AVAILABLE","source":"ndw","priceKwh":0.37}},{"type":"Feature","geometry":{"type":"Point","coordinates":[4.194184,51.827779]},"properties":{"type":"charge","layer":"passenger","locationId":"edf8d566-f42b-11ed-9b85-42010aa40fc0","name":"EQUANS SGZH 2.0 89473854","address":"Dorpsweg 23 a","city":"Oudenhoorn","operatorName":"EQUANS","maxPowerKw":0,"isMegawatt":false,"status":"AVAILABLE","source":"ndw","priceKwh":0.37}},{"type":"Feature","geometry":{"type":"Point","coordinates":[4.188998,51.828309]},"properties":{"type":"charge","layer":"passenger","locationId":"f2f18ffa-c468-11ee-a668-42010aa40fc0","name":"EQUANS SGZH 2.0 Bolderik 21","address":"Bolderik 21","city":"Oudenhoorn","operatorName":"EQUANS","maxPowerKw":0,"isMegawatt":false,"status":"AVAILABLE","source":"ndw","priceKwh":0.37}},{"type":"Feature","geometry":{"type":"Point","coordinates":[4.160214,51.904201]},"properties":{"type":"charge","layer":"passenger","locationId":"89263654","name":"EQUANS SGZH 1.0 89263654","address":"Burgemeester H. van Sleenstraat 2B","city":"Brielle","operatorName":"EQUANS","maxPowerKw":0,"isMegawatt":false,"status":"CHARGING","source":"ndw"}},{"type":"Feature","geometry":{"type":"Point","coordinates":[4.146802,51.83481]},"properties":{"type":"charge","layer":"passenger","locationId":"90100492","name":"EQUANS SGZH 2.0 Bruggehoofd 32","address":"Bruggehoofd 32","city":"Hellevoetsluis","operatorName":"EQUANS","maxPowerKw":0,"isMegawatt":false,"status":"AVAILABLE","source":"ndw"}},{"type":"Feature","geometry":{"type":"Point","coordinates":[4.192099,51.826965]},"properties":{"type":"charge","layer":"passenger","locationId":"89105108","name":"EQUANS SGZH 2.0 Julianastraat 32","address":"Julianastraat 32","city":"Oudenhoorn","operatorName":"EQUANS","maxPowerKw":0,"isMegawatt":false,"status":"AVAILABLE","source":"ndw"}},{"type":"Feature","geometry":{"type":"Point","coordinates":[4.142547,51.83591]},"properties":{"type":"charge","layer":"passenger","locationId":"90116544","name":"EQUANS SGZH 2.0 Hockeypad 1","address":"Hockeypad 1","city":"Hellevoetsluis","operatorName":"EQUANS","maxPowerKw":0,"isMegawatt":false,"status":"AVAILABLE","source":"ndw"}},{"type":"Feature","geometry":{"type":"Point","coordinates":[4.160223,51.903693]},"properties":{"type":"charge","layer":"passenger","locationId":"89126214","name":"EQUANS SGZH 1.0 89126214","address":"Zusterhof 6","city":"Brielle","operatorName":"EQUANS","maxPowerKw":0,"isMegawatt":false,"status":"AVAILABLE","source":"ndw"}},{"type":"Feature","geometry":{"type":"Point","coordinates":[4.155673,51.899677]},"properties":{"type":"charge","layer":"passenger","locationId":"05f5f0d2-1c14-11ec-8f65-42010a840003","name":"EQUANS SGZH 1.0 89099775","address":"Welleweg 21","city":"Brielle","operatorName":"EQUANS","maxPowerKw":0,"isMegawatt":false,"status":"AVAILABLE","source":"ndw","priceKwh":0.34}},{"type":"Feature","geometry":{"type":"Point","coordinates":[4.142547,51.83591]},"properties":{"type":"charge","layer":"passenger","locationId":"19fb03c8-164e-11f0-85e5-42010aa400b8","name":"EQUANS SGZH 2.0 Hockeypad 1","address":"Hockeypad 1","city":"Hellevoetsluis","operatorName":"EQUANS","maxPowerKw":0,"isMegawatt":false,"status":"AVAILABLE","source":"ndw","priceKwh":0.37}},{"type":"Feature","geometry":{"type":"Point","coordinates":[4.138733,51.826587]},"properties":{"type":"charge","layer":"passenger","locationId":"31294618-f912-11ee-ac23-42010aa400b8","name":"EQUANS SGZH 2.0 Spoorbaan 129","address":"Spoorbaan 129","city":"Hellevoetsluis","operatorName":"EQUANS","maxPowerKw":0,"isMegawatt":false,"status":"AVAILABLE","source":"ndw","priceKwh":0.37}},{"type":"Feature","geometry":{"type":"Point","coordinates":[4.130065,51.824181]},"properties":{"type":"charge","layer":"passenger","locationId":"51dce97c-4d93-11e8-b311-42010a840002","name":"EQUANS SGZH 1.0 89264175","address":"Schoolplein/Gallasplein 26","city":"Hellevoetsluis","operatorName":"EQUANS","maxPowerKw":0,"isMegawatt":false,"status":"AVAILABLE","source":"ndw","priceKwh":0.34}},{"type":"Feature","geometry":{"type":"Point","coordinates":[4.151309,51.832977]},"properties":{"type":"charge","layer":"passenger","locationId":"6ab4b630-9eb1-11ee-9869-42010aa40fc0","name":"EQUANS SGZH 2.0 Weegschaal 12","address":"Weegschaal 12","city":"Hellevoetsluis","operatorName":"EQUANS","maxPowerKw":0,"isMegawatt":false,"status":"AVAILABLE","source":"ndw","priceKwh":0.37}},{"type":"Feature","geometry":{"type":"Point","coordinates":[4.14169,51.82791]},"properties":{"type":"charge","layer":"passenger","locationId":"91c0443c-4e72-11e8-8bd3-42010a840002","name":"EQUANS SGZH 2.0 89036058","address":"Dreef 112","city":"Hellevoetsluis","operatorName":"EQUANS","maxPowerKw":0,"isMegawatt":false,"status":"AVAILABLE","source":"ndw","priceKwh":0.37}},{"type":"Feature","geometry":{"type":"Point","coordinates":[4.149624,51.828518]},"properties":{"type":"charge","layer":"passenger","locationId":"9d470f74-1b4a-11ea-b85c-42010a840fec","name":"EQUANS SGZH 1.0 89263633","address":"De Berk 1","city":"Hellevoetsluis","operatorName":"EQUANS","maxPowerKw":0,"isMegawatt":false,"status":"AVAILABLE","source":"ndw","priceKwh":0.34}},{"type":"Feature","geometry":{"type":"Point","coordinates":[4.146894,51.840413]},"properties":{"type":"charge","layer":"passenger","locationId":"e42a9aa0-4f3b-11e8-81d2-42010a840002","name":"EQUANS SGZH 1.0 89263617","address":"Maarten Trompstraat 41","city":"Hellevoetsluis","operatorName":"EQUANS","maxPowerKw":0,"isMegawatt":false,"status":"AVAILABLE","source":"ndw","priceKwh":0.34}},{"type":"Feature","geometry":{"type":"Point","coordinates":[4.16555,51.83656]},"properties":{"type":"charge","layer":"passenger","locationId":"e631b1ae-db60-11ef-94be-42010aa400b8","name":"EQUANS SGZH 2.0 Appelgaarde 52","address":"Appelgaarde 52","city":"Hellevoetsluis","operatorName":"EQUANS","maxPowerKw":0,"isMegawatt":false,"status":"AVAILABLE","source":"ndw","priceKwh":0.37}},{"type":"Feature","geometry":{"type":"Point","coordinates":[4.133745,51.841294]},"properties":{"type":"charge","layer":"passenger","locationId":"f09dcabc-34c9-11ef-9ae5-42010aa400b8","name":"EQUANS SGZH 2.0 Egelantier 73 A","address":"Egelantier 73 A","city":"Hellevoetsluis","operatorName":"EQUANS","maxPowerKw":0,"isMegawatt":false,"status":"AVAILABLE","source":"ndw","priceKwh":0.37}},{"type":"Feature","geometry":{"type":"Point","coordinates":[4.165342,51.834507]},"properties":{"type":"charge","layer":"passenger","locationId":"89982150","name":"EQUANS SGZH 2.0 Cumulus 11","address":"Cumulus 11","city":"Hellevoetsluis","operatorName":"EQUANS","maxPowerKw":0,"isMegawatt":false,"status":"AVAILABLE","source":"ndw"}},{"type":"Feature","geometry":{"type":"Point","coordinates":[4.12817,51.83304]},"properties":{"type":"charge","layer":"passenger","locationId":"91454248","name":"EQUANS SGZH 2.0 Asmusstraat 19","address":"Asmusstraat 19","city":"Hellevoetsluis","operatorName":"EQUANS","maxPowerKw":0,"isMegawatt":false,"status":"AVAILABLE","source":"ndw"}},{"type":"Feature","geometry":{"type":"Point","coordinates":[4.164239,51.829938]},"properties":{"type":"charge","layer":"passenger","locationId":"89445010","name":"EQUANS SGZH 2.0 89445010","address":"Kreeft 3","city":"Hellevoetsluis","operatorName":"EQUANS","maxPowerKw":0,"isMegawatt":false,"status":"AVAILABLE","source":"ndw"}},{"type":"Feature","geometry":{"type":"Point","coordinates":[4.158727,51.846162]},"properties":{"type":"charge","layer":"passenger","locationId":"89921146","name":"EQUANS SGZH 2.0 89921146","address":"Henri Dunantlaan 1","city":"Hellevoetsluis","operatorName":"EQUANS","maxPowerKw":0,"isMegawatt":false,"status":"AVAILABLE","source":"ndw"}},{"type":"Feature","geometry":{"type":"Point","coordinates":[4.153626,51.824371]},"properties":{"type":"charge","layer":"passenger","locationId":"90266709","name":"EQUANS SGZH 2.0 Ebstroom 110","address":"Ebstroom 110","city":"Hellevoetsluis","operatorName":"EQUANS","maxPowerKw":0,"isMegawatt":false,"status":"AVAILABLE","source":"ndw"}},{"type":"Feature","geometry":{"type":"Point","coordinates":[4.16509,51.83477]},"properties":{"type":"charge","layer":"passenger","locationId":"91379075","name":"EQUANS SGZH 2.0 Cumulus 20","address":"Cumulus 20","city":"Hellevoetsluis","operatorName":"EQUANS","maxPowerKw":0,"isMegawatt":false,"status":"AVAILABLE","source":"ndw"}},{"type":"Feature","geometry":{"type":"Point","coordinates":[4.170145,51.909143]},"properties":{"type":"charge","layer":"passenger","locationId":"89439476","name":"EQUANS SGZH 2.0 89439476","address":"Lumeyweg 31","city":"Brielle","operatorName":"EQUANS","maxPowerKw":0,"isMegawatt":false,"status":"AVAILABLE","source":"ndw"}},{"type":"Feature","geometry":{"type":"Point","coordinates":[4.18809,51.82993]},"properties":{"type":"charge","layer":"passenger","locationId":"90928475","name":"EQUANS SGZH 2.0 Korenbloem 104","address":"Korenbloem 104","city":"Oudenhoorn","operatorName":"EQUANS","maxPowerKw":0,"isMegawatt":false,"status":"AVAILABLE","source":"ndw"}},{"type":"Feature","geometry":{"type":"Point","coordinates":[4.072624,51.857076]},"properties":{"type":"charge","layer":"passenger","locationId":"60acd89d99d564e042fe1a27","name":"Restaurant de Houten Paardjes","address":"Rondeweiweg 20","city":"Rockanje","operatorName":"E-Flux by Road","maxPowerKw":22,"isMegawatt":false,"status":"AVAILABLE","source":"ndw","priceKwh":0.53}},{"type":"Feature","geometry":{"type":"Point","coordinates":[4.066633,51.867413]},"properties":{"type":"charge","layer":"passenger","locationId":"90369526","name":"EQUANS SGZH 2.0 Morelstraat 74","address":"Morelstraat 74","city":"Rockanje","operatorName":"EQUANS","maxPowerKw":0,"isMegawatt":false,"status":"CHARGING","source":"ndw"}},{"type":"Feature","geometry":{"type":"Point","coordinates":[4.16456,51.90631]},"properties":{"type":"charge","layer":"passenger","locationId":"90891405","name":"EQUANS SGZH 2.0 Maarland Noordzijde 50","address":"Maarland Noordzijde 50","city":"Brielle","operatorName":"EQUANS","maxPowerKw":0,"isMegawatt":false,"status":"AVAILABLE","source":"ndw"}},{"type":"Feature","geometry":{"type":"Point","coordinates":[4.150329,51.836444]},"properties":{"type":"charge","layer":"passenger","locationId":"89263619","name":"EQUANS SGZH 1.0 89263619","address":"Bouvignestraat 18","city":"Hellevoetsluis","operatorName":"EQUANS","maxPowerKw":0,"isMegawatt":false,"status":"AVAILABLE","source":"ndw"}},{"type":"Feature","geometry":{"type":"Point","coordinates":[4.133153,51.831781]},"properties":{"type":"charge","layer":"passenger","locationId":"89183099","name":"EQUANS SGZH 2.0 89183099","address":"Jan Greshoffstraat 1","city":"Hellevoetsluis","operatorName":"EQUANS","maxPowerKw":0,"isMegawatt":false,"status":"AVAILABLE","source":"ndw"}},{"type":"Feature","geometry":{"type":"Point","coordinates":[4.075532,51.875489]},"properties":{"type":"charge","layer":"passenger","locationId":"1826908","name":"Laadnet ETB Monty's","address":"Molendijk 11","city":"Rockanje","operatorName":"Laadnet","maxPowerKw":11,"isMegawatt":false,"status":"UNAVAILABLE","source":"ndw"}},{"type":"Feature","geometry":{"type":"Point","coordinates":[4.15916,51.82675]},"properties":{"type":"charge","layer":"passenger","locationId":"89036060","name":"EQUANS SGZH 2.0 89036060","address":"Schelpenpad 2B","city":"Hellevoetsluis","operatorName":"EQUANS","maxPowerKw":0,"isMegawatt":false,"status":"AVAILABLE","source":"ndw"}},{"type":"Feature","geometry":{"type":"Point","coordinates":[4.153653,51.838244]},"properties":{"type":"charge","layer":"passenger","locationId":"2ced858e-45e7-11ee-a8b3-42010aa40fc0","name":"EQUANS SGZH 2.0 89900302","address":"Martin Luther Kinglaan 5","city":"Hellevoetsluis","operatorName":"EQUANS","maxPowerKw":0,"isMegawatt":false,"status":"AVAILABLE","source":"ndw","priceKwh":0.37}},{"type":"Feature","geometry":{"type":"Point","coordinates":[4.192131,51.826954]},"properties":{"type":"charge","layer":"passenger","locationId":"2dde2b60-80a8-11ed-9799-42010aa40fc0","name":"EQUANS SGZH 1.0 89105108","address":"Julianastraat 32","city":"Oudenhoorn","operatorName":"EQUANS","maxPowerKw":0,"isMegawatt":false,"status":"AVAILABLE","source":"ndw","priceKwh":0.34}},{"type":"Feature","geometry":{"type":"Point","coordinates":[4.141933,51.833731]},"properties":{"type":"charge","layer":"passenger","locationId":"362cbb56-6941-11ee-a732-42010aa40fc0","name":"EQUANS SGZH 2.0 Bilderdijkhof 16","address":"Bilderdijkhof 16","city":"Hellevoetsluis","operatorName":"EQUANS","maxPowerKw":0,"isMegawatt":false,"status":"AVAILABLE","source":"ndw","priceKwh":0.37}},{"type":"Feature","geometry":{"type":"Point","coordinates":[4.222561,51.882731]},"properties":{"type":"charge","layer":"passenger","locationId":"37dc4eaa-df99-11eb-be64-42010a840003","name":"EQUANS SGZH 1.0 89052535","address":"Julianalaan 1","city":"Zwartewaal","operatorName":"EQUANS","maxPowerKw":0,"isMegawatt":false,"status":"AVAILABLE","source":"ndw","priceKwh":0.34}},{"type":"Feature","geometry":{"type":"Point","coordinates":[4.105524,51.915523]},"properties":{"type":"charge","layer":"passenger","locationId":"40b2a626-4dc1-11ee-84c1-42010aa40fc0","name":"EQUANS SGZH 2.0 89927111","address":"Burgemeester Bolwidtweg 42","city":"Oostvoorne","operatorName":"EQUANS","maxPowerKw":0,"isMegawatt":false,"status":"AVAILABLE","source":"ndw","priceKwh":0.37}},{"type":"Feature","geometry":{"type":"Point","coordinates":[4.16262,51.83675]},"properties":{"type":"charge","layer":"passenger","locationId":"480a0904-4e72-11e8-987e-42010a840002","name":"EQUANS SGZH 2.0 89036062","address":"Orion 108","city":"Hellevoetsluis","operatorName":"EQUANS","maxPowerKw":0,"isMegawatt":false,"status":"AVAILABLE","source":"ndw","priceKwh":0.37}},{"type":"Feature","geometry":{"type":"Point","coordinates":[4.130991,51.84068]},"properties":{"type":"charge","layer":"passenger","locationId":"5e212af0-cc28-11ec-8df8-42010a840003","name":"EQUANS SGZH 2.0 89195387","address":"Parnassialaan 87","city":"Hellevoetsluis","operatorName":"EQUANS","maxPowerKw":0,"isMegawatt":false,"status":"AVAILABLE","source":"ndw","priceKwh":0.37}},{"type":"Feature","geometry":{"type":"Point","coordinates":[4.1622,51.89768]},"properties":{"type":"charge","layer":"passenger","locationId":"70ec180a-5854-11f0-ac78-42010aa400b8","name":"EQUANS SGZH 2.0 Prinses Amalialaan 3","address":"Prinses Amalialaan 3","city":"Brielle","operatorName":"EQUANS","maxPowerKw":0,"isMegawatt":false,"status":"AVAILABLE","source":"ndw","priceKwh":0.37}},{"type":"Feature","geometry":{"type":"Point","coordinates":[4.17025,51.9037]},"properties":{"type":"charge","layer":"passenger","locationId":"7da6f914-4e72-11e8-aa64-42010a840002","name":"EQUANS SGZH 2.0 89036065","address":"Houtkoperstraat 25","city":"Brielle","operatorName":"EQUANS","maxPowerKw":0,"isMegawatt":false,"status":"AVAILABLE","source":"ndw","priceKwh":0.37}},{"type":"Feature","geometry":{"type":"Point","coordinates":[4.14921,51.83836]},"properties":{"type":"charge","layer":"passenger","locationId":"f64959b2-4e71-11e8-b908-42010a840002","name":"EQUANS SGZH 2.0 89036054","address":"Loevesteinstraat 16","city":"Hellevoetsluis","operatorName":"EQUANS","maxPowerKw":0,"isMegawatt":false,"status":"AVAILABLE","source":"ndw","priceKwh":0.37}},{"type":"Feature","geometry":{"type":"Point","coordinates":[4.154549,51.826196]},"properties":{"type":"charge","layer":"passenger","locationId":"73afbe12-4f3c-11e8-9b93-42010a840002","name":"EQUANS SGZH 1.0 89263630","address":"Branding 57","city":"Hellevoetsluis","operatorName":"EQUANS","maxPowerKw":0,"isMegawatt":false,"status":"AVAILABLE","source":"ndw","priceKwh":0.34}},{"type":"Feature","geometry":{"type":"Point","coordinates":[4.132343,51.835894]},"properties":{"type":"charge","layer":"passenger","locationId":"148b9320-b7bb-11ec-82e8-42010a840003","name":"EQUANS SGZH 2.0 89218671","address":"Rijksstraatweg 39","city":"Hellevoetsluis","operatorName":"EQUANS","maxPowerKw":0,"isMegawatt":false,"status":"AVAILABLE","source":"ndw","priceKwh":0.37}},{"type":"Feature","geometry":{"type":"Point","coordinates":[4.130678,51.831606]},"properties":{"type":"charge","layer":"passenger","locationId":"2966abf4-1cd6-11ea-af7c-42010a840025","name":"EQUANS SGZH 1.0 89263595","address":"Dibbetzplantsoen 6","city":"Hellevoetsluis","operatorName":"EQUANS","maxPowerKw":0,"isMegawatt":false,"status":"UNAVAILABLE","source":"ndw","priceKwh":0.34}},{"type":"Feature","geometry":{"type":"Point","coordinates":[4.136504,51.825098]},"properties":{"type":"charge","layer":"passenger","locationId":"3334d61a-4f3c-11e8-9b67-42010a840002","name":"EQUANS SGZH 1.0 89263626","address":"Kanaalweg Oostzijde 72","city":"Hellevoetsluis","operatorName":"EQUANS","maxPowerKw":0,"isMegawatt":false,"status":"AVAILABLE","source":"ndw","priceKwh":0.34}},{"type":"Feature","geometry":{"type":"Point","coordinates":[4.217439,51.882251]},"properties":{"type":"charge","layer":"passenger","locationId":"3c2a4f0a-ccef-11eb-b521-42010a840072","name":"EQUANS SGZH 1.0 89263681","address":"Hollemarestraat 55","city":"Zwartewaal","operatorName":"EQUANS","maxPowerKw":0,"isMegawatt":false,"status":"AVAILABLE","source":"ndw","priceKwh":0.34}},{"type":"Feature","geometry":{"type":"Point","coordinates":[4.15596,51.824537]},"properties":{"type":"charge","layer":"passenger","locationId":"3f2b7804-bcae-11e8-8a28-42010a840002","name":"EQUANS SGZH 1.0 89263632","address":"Anker 10","city":"Hellevoetsluis","operatorName":"EQUANS","maxPowerKw":0,"isMegawatt":false,"status":"AVAILABLE","source":"ndw","priceKwh":0.34}},{"type":"Feature","geometry":{"type":"Point","coordinates":[4.164864,51.900245]},"properties":{"type":"charge","layer":"passenger","locationId":"5ab0bc9a-fdc8-11ee-93a2-42010aa400b8","name":"EQUANS SGZH 2.0 Scharloo 29 d","address":"Scharloo 29 d","city":"Brielle","operatorName":"EQUANS","maxPowerKw":0,"isMegawatt":false,"status":"AVAILABLE","source":"ndw","priceKwh":0.37}},{"type":"Feature","geometry":{"type":"Point","coordinates":[4.123998,51.834035]},"properties":{"type":"charge","layer":"passenger","locationId":"789a4120-8058-11e8-aa85-42010a840002","name":"EQUANS SGZH 1.0 89263601","address":"Wulpstraat 12","city":"Hellevoetsluis","operatorName":"EQUANS","maxPowerKw":0,"isMegawatt":false,"status":"AVAILABLE","source":"ndw","priceKwh":0.34}},{"type":"Feature","geometry":{"type":"Point","coordinates":[4.114995,51.91414]},"properties":{"type":"charge","layer":"passenger","locationId":"7e8a3ed6-fcd3-11ec-aab0-42010aa40fc0","name":"EQUANS SGZH 1.0 89264169","address":"Brielseweg 115","city":"Oostvoorne","operatorName":"EQUANS","maxPowerKw":0,"isMegawatt":false,"status":"AVAILABLE","source":"ndw","priceKwh":0.34}},{"type":"Feature","geometry":{"type":"Point","coordinates":[4.179725,51.879076]},"properties":{"type":"charge","layer":"passenger","locationId":"d23fb162-e248-11ee-9e5b-42010aa400b8","name":"EQUANS SGZH 2.0 Dijckpotingen 3","address":"Dijckpotingen 3","city":"Vierpolders","operatorName":"EQUANS","maxPowerKw":0,"isMegawatt":false,"status":"AVAILABLE","source":"ndw","priceKwh":0.37}},{"type":"Feature","geometry":{"type":"Point","coordinates":[4.148289,51.827602]},"properties":{"type":"charge","layer":"passenger","locationId":"1568c826-b7bb-11ec-ab16-42010a840003","name":"EQUANS SGZH 2.0 89218675","address":"de Linde 1","city":"Hellevoetsluis","operatorName":"EQUANS","maxPowerKw":0,"isMegawatt":false,"status":"AVAILABLE","source":"ndw","priceKwh":0.37}},{"type":"Feature","geometry":{"type":"Point","coordinates":[4.16456,51.90631]},"properties":{"type":"charge","layer":"passenger","locationId":"410ae754-1b07-11f0-ada3-42010aa400b8","name":"EQUANS SGZH 2.0 Maarland Noordzijde 50","address":"Maarland Noordzijde 50","city":"Brielle","operatorName":"EQUANS","maxPowerKw":0,"isMegawatt":false,"status":"AVAILABLE","source":"ndw","priceKwh":0.37}},{"type":"Feature","geometry":{"type":"Point","coordinates":[4.09925,51.90773]},"properties":{"type":"charge","layer":"passenger","locationId":"77ceda5c-4e72-11e8-87b4-42010a840002","name":"EQUANS SGZH 2.0 89036079","address":"Berkenblad 20","city":"Oostvoorne","operatorName":"EQUANS","maxPowerKw":0,"isMegawatt":false,"status":"AVAILABLE","source":"ndw","priceKwh":0.37}},{"type":"Feature","geometry":{"type":"Point","coordinates":[4.16132,51.90373]},"properties":{"type":"charge","layer":"passenger","locationId":"7edfb0ce-52d3-11f0-b39b-42010aa400b8","name":"EQUANS SGZH 2.0 Commandeursstraat 4","address":"Commandeursstraat 4","city":"Brielle","operatorName":"EQUANS","maxPowerKw":0,"isMegawatt":false,"status":"AVAILABLE","source":"ndw","priceKwh":0.37}},{"type":"Feature","geometry":{"type":"Point","coordinates":[4.167658,51.893069]},"properties":{"type":"charge","layer":"passenger","locationId":"8eb2d332-9c28-11ed-97a2-42010aa40fc0","name":"EQUANS SGZH 2.0 89240060","address":"Waterschip 32","city":"Brielle","operatorName":"EQUANS","maxPowerKw":0,"isMegawatt":false,"status":"AVAILABLE","source":"ndw","priceKwh":0.37}},{"type":"Feature","geometry":{"type":"Point","coordinates":[4.14698,51.823758]},"properties":{"type":"charge","layer":"passenger","locationId":"a15e8c2e-ba15-11ec-af36-42010a840003","name":"EQUANS SGZH 2.0 89208555","address":"Draaikolk 22","city":"Hellevoetsluis","operatorName":"EQUANS","maxPowerKw":0,"isMegawatt":false,"status":"AVAILABLE","source":"ndw","priceKwh":0.37}},{"type":"Feature","geometry":{"type":"Point","coordinates":[4.157203,51.898681]},"properties":{"type":"charge","layer":"passenger","locationId":"c12191d4-145b-11eb-a4bf-42010a84002c","name":"EQUANS SGZH 1.0 89263656","address":"Dominee Th. Rijckewaerdstraat 65","city":"Brielle","operatorName":"EQUANS","maxPowerKw":0,"isMegawatt":false,"status":"AVAILABLE","source":"ndw","priceKwh":0.34}},{"type":"Feature","geometry":{"type":"Point","coordinates":[4.161904,51.835393]},"properties":{"type":"charge","layer":"passenger","locationId":"f3c19b16-a660-11ea-9bc8-42010a840fc3","name":"EQUANS SGZH 1.0 89263642","address":"Melkweg 7","city":"Hellevoetsluis","operatorName":"EQUANS","maxPowerKw":0,"isMegawatt":false,"status":"AVAILABLE","source":"ndw","priceKwh":0.34}},{"type":"Feature","geometry":{"type":"Point","coordinates":[4.146166,51.841467]},"properties":{"type":"charge","layer":"passenger","locationId":"f66107e8-5497-11ed-b0f2-42010aa40024","name":"EQUANS SGZH 2.0 89606411","address":"Martin Luther Kinglaan 160","city":"Hellevoetsluis","operatorName":"EQUANS","maxPowerKw":0,"isMegawatt":false,"status":"AVAILABLE","source":"ndw","priceKwh":0.37}},{"type":"Feature","geometry":{"type":"Point","coordinates":[4.177072,51.89519]},"properties":{"type":"charge","layer":"passenger","locationId":"00455462-75ae-11e8-8749-42010a840002","name":"EQUANS SGZH 1.0 89263664","address":"Zoom 5","city":"Brielle","operatorName":"EQUANS","maxPowerKw":0,"isMegawatt":false,"status":"AVAILABLE","source":"ndw","priceKwh":0.34}},{"type":"Feature","geometry":{"type":"Point","coordinates":[4.13298,51.83859]},"properties":{"type":"charge","layer":"passenger","locationId":"1b62e4c6-ddbc-11ef-bf46-42010aa400b8","name":"EQUANS SGZH 2.0 Moriaanseweg West 155","address":"Moriaanseweg West 155","city":"Hellevoetsluis","operatorName":"EQUANS","maxPowerKw":0,"isMegawatt":false,"status":"AVAILABLE","source":"ndw","priceKwh":0.37}},{"type":"Feature","geometry":{"type":"Point","coordinates":[4.166847,51.902941]},"properties":{"type":"charge","layer":"passenger","locationId":"2b430d3c-6672-11f0-bf18-42010aa400b8","name":"EQUANS SGZH 1.0 89263646","address":"Lijnbaan 14","city":"Brielle","operatorName":"EQUANS","maxPowerKw":0,"isMegawatt":false,"status":"AVAILABLE","source":"ndw","priceKwh":0.34}},{"type":"Feature","geometry":{"type":"Point","coordinates":[4.11801,51.83465]},"properties":{"type":"charge","layer":"passenger","locationId":"4056afac-8057-11e8-ba59-42010a840002","name":"EQUANS SGZH 2.0 89036049","address":"Fazantenlaan 2","city":"Hellevoetsluis","operatorName":"EQUANS","maxPowerKw":0,"isMegawatt":false,"status":"AVAILABLE","source":"ndw","priceKwh":0.37}},{"type":"Feature","geometry":{"type":"Point","coordinates":[4.16203,51.82947]},"properties":{"type":"charge","layer":"passenger","locationId":"406f4418-8057-11e8-873a-42010a840002","name":"EQUANS SGZH 2.0 89036063","address":"Rog 45","city":"Hellevoetsluis","operatorName":"EQUANS","maxPowerKw":0,"isMegawatt":false,"status":"AVAILABLE","source":"ndw","priceKwh":0.37}},{"type":"Feature","geometry":{"type":"Point","coordinates":[4.13905,51.83212]},"properties":{"type":"charge","layer":"passenger","locationId":"5903c652-2799-11f0-8238-42010aa400b8","name":"EQUANS SGZH 2.0 A M de Jonglaan 2","address":"A M de Jonglaan 2","city":"Hellevoetsluis","operatorName":"EQUANS","maxPowerKw":0,"isMegawatt":false,"status":"AVAILABLE","source":"ndw","priceKwh":0.37}},{"type":"Feature","geometry":{"type":"Point","coordinates":[4.05388,51.87022]},"properties":{"type":"charge","layer":"passenger","locationId":"74cdf7d4-4e72-11e8-81a2-42010a840002","name":"EQUANS SGZH 2.0 89036081","address":"Swinsedreef 26","city":"Rockanje","operatorName":"EQUANS","maxPowerKw":0,"isMegawatt":false,"status":"AVAILABLE","source":"ndw","priceKwh":0.37}},{"type":"Feature","geometry":{"type":"Point","coordinates":[4.150338,51.902605]},"properties":{"type":"charge","layer":"passenger","locationId":"7960f6d4-1110-11ec-899b-42010a840003","name":"EQUANS SGZH 1.0 89090323","address":"Morgen 19","city":"Brielle","operatorName":"EQUANS","maxPowerKw":0,"isMegawatt":false,"status":"AVAILABLE","source":"ndw","priceKwh":0.34}},{"type":"Feature","geometry":{"type":"Point","coordinates":[4.166327,51.845189]},"properties":{"type":"charge","layer":"passenger","locationId":"892b6804-bdf5-11ed-ab5c-42010aa40fc0","name":"EQUANS SGZH 2.0 89358806","address":"Etudestraat 38","city":"Hellevoetsluis","operatorName":"EQUANS","maxPowerKw":0,"isMegawatt":false,"status":"AVAILABLE","source":"ndw","priceKwh":0.37}},{"type":"Feature","geometry":{"type":"Point","coordinates":[4.166827,51.898814]},"properties":{"type":"charge","layer":"passenger","locationId":"a7c97166-ce08-11e8-9ec9-42010a840002","name":"EQUANS SGZH 1.0 89263680","address":"Kaaisingel 3","city":"Vierpolders","operatorName":"EQUANS","maxPowerKw":0,"isMegawatt":false,"status":"AVAILABLE","source":"ndw","priceKwh":0.34}},{"type":"Feature","geometry":{"type":"Point","coordinates":[4.170145,51.909143]},"properties":{"type":"charge","layer":"passenger","locationId":"b5919844-cdb0-11ed-9355-42010aa40fc0","name":"EQUANS SGZH 2.0 89439476","address":"Lumeyweg 31","city":"Brielle","operatorName":"EQUANS","maxPowerKw":0,"isMegawatt":false,"status":"AVAILABLE","source":"ndw","priceKwh":0.37}},{"type":"Feature","geometry":{"type":"Point","coordinates":[4.099814,51.908741]},"properties":{"type":"charge","layer":"passenger","locationId":"b7b38cc8-9cf4-11ed-a83c-42010aa40fc0","name":"EQUANS SGZH 2.0 89439472","address":"Beukenblad 17","city":"Oostvoorne","operatorName":"EQUANS","maxPowerKw":0,"isMegawatt":false,"status":"AVAILABLE","source":"ndw","priceKwh":0.37}},{"type":"Feature","geometry":{"type":"Point","coordinates":[4.161237,51.901972]},"properties":{"type":"charge","layer":"passenger","locationId":"bad7b6fc-a721-11ea-bb33-42010a840024","name":"EQUANS SGZH 1.0 M.H. Trompstraat 24","address":"M.H. Trompstraat 24","city":"Brielle","operatorName":"EQUANS","maxPowerKw":0,"isMegawatt":false,"status":"AVAILABLE","source":"ndw","priceKwh":0.34}},{"type":"Feature","geometry":{"type":"Point","coordinates":[4.07404,51.87008]},"properties":{"type":"charge","layer":"passenger","locationId":"d35ac014-998f-11f0-956f-42010aa400b8","name":"EQUANS SGZH 2.0 Uranusstraat 7","address":"Uranusstraat 7","city":"Rockanje","operatorName":"EQUANS","maxPowerKw":0,"isMegawatt":false,"status":"AVAILABLE","source":"ndw","priceKwh":0.37}},{"type":"Feature","geometry":{"type":"Point","coordinates":[4.144501,51.843117]},"properties":{"type":"charge","layer":"passenger","locationId":"dc93b0e4-a36e-11eb-9aa5-42010a840021","name":"EQUANS SGZH 1.0 89263625","address":"Martin Luther kinglaan 179","city":"Hellevoetsluis","operatorName":"EQUANS","maxPowerKw":0,"isMegawatt":false,"status":"AVAILABLE","source":"ndw","priceKwh":0.34}},{"type":"Feature","geometry":{"type":"Point","coordinates":[4.14711,51.84448]},"properties":{"type":"charge","layer":"passenger","locationId":"e25b79c0-f618-11ef-ab6c-42010aa400b8","name":"EQUANS SGZH 2.0 Dag Hammarskjöldlaan 222","address":"Dag Hammarskjöldlaan 222","city":"Hellevoetsluis","operatorName":"EQUANS","maxPowerKw":0,"isMegawatt":false,"status":"AVAILABLE","source":"ndw","priceKwh":0.37}},{"type":"Feature","geometry":{"type":"Point","coordinates":[4.165739,51.845766]},"properties":{"type":"charge","layer":"passenger","locationId":"e3bfb598-5c61-11ea-a783-42010a840fd1","name":"EQUANS SGZH 1.0 89263615","address":"Etudestraat 1","city":"Hellevoetsluis","operatorName":"EQUANS","maxPowerKw":0,"isMegawatt":false,"status":"AVAILABLE","source":"ndw","priceKwh":0.34}},{"type":"Feature","geometry":{"type":"Point","coordinates":[4.04364,51.87532]},"properties":{"type":"charge","layer":"passenger","locationId":"f8216adc-8057-11e8-bb3e-42010a840002","name":"EQUANS SGZH 2.0 89036082","address":"Tweede Slag 10","city":"Rockanje","operatorName":"EQUANS","maxPowerKw":0,"isMegawatt":false,"status":"AVAILABLE","source":"ndw","priceKwh":0.37}},{"type":"Feature","geometry":{"type":"Point","coordinates":[4.069657,51.873501]},"properties":{"type":"charge","layer":"passenger","locationId":"fb945f2e-9434-11ea-a5a1-42010a84001e","name":"EQUANS SGZH 1.0 89263676","address":"Willem de Waalstraat 3","city":"Rockanje","operatorName":"EQUANS","maxPowerKw":0,"isMegawatt":false,"status":"AVAILABLE","source":"ndw","priceKwh":0.34}},{"type":"Feature","geometry":{"type":"Point","coordinates":[4.148419,51.830132]},"properties":{"type":"charge","layer":"passenger","locationId":"ffe52ed2-4840-11ee-92fe-42010aa40fc0","name":"EQUANS SGZH 2.0 89921143","address":"de Eik 2","city":"Hellevoetsluis","operatorName":"EQUANS","maxPowerKw":0,"isMegawatt":false,"status":"AVAILABLE","source":"ndw","priceKwh":0.37}},{"type":"Feature","geometry":{"type":"Point","coordinates":[4.13116,51.826965]},"properties":{"type":"charge","layer":"passenger","locationId":"1775c836-cdeb-11eb-8eee-42010a840019","name":"EQUANS SGZH 1.0 89263594","address":"Opzoomerlaan 97","city":"Hellevoetsluis","operatorName":"EQUANS","maxPowerKw":0,"isMegawatt":false,"status":"AVAILABLE","source":"ndw","priceKwh":0.34}},{"type":"Feature","geometry":{"type":"Point","coordinates":[4.151359,51.82503]},"properties":{"type":"charge","layer":"passenger","locationId":"432f96b2-c534-11ee-9358-42010aa40fc0","name":"EQUANS SGZH 2.0 de Balder 2","address":"de Balder 2","city":"Hellevoetsluis","operatorName":"EQUANS","maxPowerKw":0,"isMegawatt":false,"status":"AVAILABLE","source":"ndw","priceKwh":0.37}},{"type":"Feature","geometry":{"type":"Point","coordinates":[4.168712,51.904542]},"properties":{"type":"charge","layer":"passenger","locationId":"45d30314-4d93-11e8-af82-42010a840002","name":"EQUANS SGZH 1.0 89264131","address":"Slagveld 36","city":"Brielle","operatorName":"EQUANS","maxPowerKw":0,"isMegawatt":false,"status":"AVAILABLE","source":"ndw","priceKwh":0.34}},{"type":"Feature","geometry":{"type":"Point","coordinates":[4.168661,51.891041]},"properties":{"type":"charge","layer":"passenger","locationId":"61131fa0-66b7-11ed-9003-42010aa40fc0","name":"EQUANS SGZH 2.0 89307268","address":"Vaart 43","city":"Brielle","operatorName":"EQUANS","maxPowerKw":0,"isMegawatt":false,"status":"AVAILABLE","source":"ndw","priceKwh":0.37}},{"type":"Feature","geometry":{"type":"Point","coordinates":[4.17207,51.90774]},"properties":{"type":"charge","layer":"passenger","locationId":"6ffd96cc-40e9-11ea-8de3-42010a840feb","name":"EQUANS SGZH 1.0 89263651","address":"Rochus Meeuwiszoonweg 70","city":"Brielle","operatorName":"EQUANS","maxPowerKw":0,"isMegawatt":false,"status":"AVAILABLE","source":"ndw","priceKwh":0.34}},{"type":"Feature","geometry":{"type":"Point","coordinates":[4.130136,51.838568]},"properties":{"type":"charge","layer":"passenger","locationId":"8a45d53a-dd0d-11ed-b45e-42010aa40fc0","name":"EQUANS SGZH 2.0 89490585","address":"Bremstraat 2 a","city":"Hellevoetsluis","operatorName":"EQUANS","maxPowerKw":0,"isMegawatt":false,"status":"AVAILABLE","source":"ndw","priceKwh":0.37}},{"type":"Feature","geometry":{"type":"Point","coordinates":[4.137782,51.82666]},"properties":{"type":"charge","layer":"passenger","locationId":"97821e40-1a9a-11ea-9e81-42010a840fcd","name":"EQUANS SGZH 1.0 89263627","address":"Spoorbaan 25","city":"Hellevoetsluis","operatorName":"EQUANS","maxPowerKw":0,"isMegawatt":false,"status":"AVAILABLE","source":"ndw","priceKwh":0.34}},{"type":"Feature","geometry":{"type":"Point","coordinates":[4.102312,51.916059]},"properties":{"type":"charge","layer":"passenger","locationId":"e433363c-20a0-11ea-b536-42010a840fe7","name":"EQUANS SGZH 1.0 89263671","address":"Hoflaan 11","city":"Oostvoorne","operatorName":"EQUANS","maxPowerKw":0,"isMegawatt":false,"status":"AVAILABLE","source":"ndw","priceKwh":0.34}},{"type":"Feature","geometry":{"type":"Point","coordinates":[4.16157,51.902167]},"properties":{"type":"charge","layer":"passenger","locationId":"90186861","name":"EQUANS SGZH 2.0 M.H. Trompstraat 24","address":"M.H. Trompstraat 24","city":"Brielle","operatorName":"EQUANS","maxPowerKw":0,"isMegawatt":false,"status":"AVAILABLE","source":"ndw"}},{"type":"Feature","geometry":{"type":"Point","coordinates":[4.178354,51.894095]},"properties":{"type":"charge","layer":"passenger","locationId":"89263663","name":"EQUANS SGZH 1.0 89263663","address":"Baljuw 13","city":"Brielle","operatorName":"EQUANS","maxPowerKw":0,"isMegawatt":false,"status":"CHARGING","source":"ndw"}},{"type":"Feature","geometry":{"type":"Point","coordinates":[4.13116,51.826965]},"properties":{"type":"charge","layer":"passenger","locationId":"89263594","name":"EQUANS SGZH 1.0 89263594","address":"Opzoomerlaan 97","city":"Hellevoetsluis","operatorName":"EQUANS","maxPowerKw":0,"isMegawatt":false,"status":"AVAILABLE","source":"ndw"}},{"type":"Feature","geometry":{"type":"Point","coordinates":[4.15361,51.827718]},"properties":{"type":"charge","layer":"passenger","locationId":"90301863","name":"EQUANS SGZH 2.0 Esdoornlaan 48 a","address":"Esdoornlaan 48 a","city":"Hellevoetsluis","operatorName":"EQUANS","maxPowerKw":0,"isMegawatt":false,"status":"AVAILABLE","source":"ndw"}},{"type":"Feature","geometry":{"type":"Point","coordinates":[4.156311,51.844637]},"properties":{"type":"charge","layer":"passenger","locationId":"10cc34a0-c173-11ef-834b-42010aa400b8","name":"EQUANS SGZH 2.0 Baron van Leydenstraat 91 hoek Marshalllaan 91","address":"Baron van Leydenstraat 91","city":"Hellevoetsluis","operatorName":"EQUANS","maxPowerKw":0,"isMegawatt":false,"status":"AVAILABLE","source":"ndw","priceKwh":0.37}},{"type":"Feature","geometry":{"type":"Point","coordinates":[4.150584,51.900719]},"properties":{"type":"charge","layer":"passenger","locationId":"1b60f09e-5c81-11ed-9299-42010aa40fc0","name":"EQUANS SGZH 2.0 89317640","address":"Jacoba van Beierenstraat 90","city":"Brielle","operatorName":"EQUANS","maxPowerKw":0,"isMegawatt":false,"status":"AVAILABLE","source":"ndw","priceKwh":0.37}},{"type":"Feature","geometry":{"type":"Point","coordinates":[4.16649,51.90206]},"properties":{"type":"charge","layer":"passenger","locationId":"23900fec-4e72-11e8-8501-42010a840002","name":"EQUANS SGZH 2.0 89036064","address":"Lijnbaan 2-4","city":"Brielle","operatorName":"EQUANS","maxPowerKw":0,"isMegawatt":false,"status":"AVAILABLE","source":"ndw","priceKwh":0.37}},{"type":"Feature","geometry":{"type":"Point","coordinates":[4.176745,51.892802]},"properties":{"type":"charge","layer":"passenger","locationId":"7701ddf4-6d2f-11ee-af8d-42010aa40fc0","name":"EQUANS SGZH 2.0 Stadhouder 15 b","address":"Stadhouder 15 b","city":"Brielle","operatorName":"EQUANS","maxPowerKw":0,"isMegawatt":false,"status":"AVAILABLE","source":"ndw","priceKwh":0.37}},{"type":"Feature","geometry":{"type":"Point","coordinates":[4.157189,51.832829]},"properties":{"type":"charge","layer":"passenger","locationId":"99425d02-9f7b-11ee-9251-42010aa40fc0","name":"EQUANS SGZH 2.0 Dierenriem 22","address":"Dierenriem 22","city":"Hellevoetsluis","operatorName":"EQUANS","maxPowerKw":0,"isMegawatt":false,"status":"AVAILABLE","source":"ndw","priceKwh":0.37}},{"type":"Feature","geometry":{"type":"Point","coordinates":[4.110631,51.91087]},"properties":{"type":"charge","layer":"passenger","locationId":"9beb016c-e9f5-11ed-84e9-42010aa40fc0","name":"EQUANS SGZH 2.0 89618901","address":"Burchtlaan 37","city":"Oostvoorne","operatorName":"EQUANS","maxPowerKw":0,"isMegawatt":false,"status":"AVAILABLE","source":"ndw","priceKwh":0.37}},{"type":"Feature","geometry":{"type":"Point","coordinates":[4.146802,51.83481]},"properties":{"type":"charge","layer":"passenger","locationId":"d2ab169e-e56a-11ee-8efa-42010aa400b8","name":"EQUANS SGZH 2.0 Bruggehoofd 32","address":"Bruggehoofd 32","city":"Hellevoetsluis","operatorName":"EQUANS","maxPowerKw":0,"isMegawatt":false,"status":"AVAILABLE","source":"ndw","priceKwh":0.37}},{"type":"Feature","geometry":{"type":"Point","coordinates":[4.22239,51.88167]},"properties":{"type":"charge","layer":"passenger","locationId":"e9fa9504-4e71-11e8-bc79-42010a840002","name":"EQUANS SGZH 2.0 89036087","address":"Achterweg 31","city":"Zwartewaal","operatorName":"EQUANS","maxPowerKw":0,"isMegawatt":false,"status":"AVAILABLE","source":"ndw","priceKwh":0.37}},{"type":"Feature","geometry":{"type":"Point","coordinates":[4.164807,51.846488]},"properties":{"type":"charge","layer":"passenger","locationId":"f0a861d8-4e71-11e8-8a06-42010a840002","name":"EQUANS SGZH 2.0 89396927","address":"Papenweide 7","city":"Hellevoetsluis","operatorName":"EQUANS","maxPowerKw":0,"isMegawatt":false,"status":"AVAILABLE","source":"ndw","priceKwh":0.37}},{"type":"Feature","geometry":{"type":"Point","coordinates":[4.16033,51.903338]},"properties":{"type":"charge","layer":"passenger","locationId":"21dd0a62-c534-11ee-ba71-42010aa40fc0","name":"EQUANS SGZH 2.0 Zusterhof 10","address":"Zusterhof 10","city":"Brielle","operatorName":"EQUANS","maxPowerKw":0,"isMegawatt":false,"status":"AVAILABLE","source":"ndw","priceKwh":0.37}},{"type":"Feature","geometry":{"type":"Point","coordinates":[4.159541,51.832032]},"properties":{"type":"charge","layer":"passenger","locationId":"2c624e2c-9895-11ef-937a-42010aa400b8","name":"EQUANS SGZH 2.0 Zalm 21","address":"Zalm 21","city":"Hellevoetsluis","operatorName":"EQUANS","maxPowerKw":0,"isMegawatt":false,"status":"AVAILABLE","source":"ndw","priceKwh":0.37}},{"type":"Feature","geometry":{"type":"Point","coordinates":[4.220143,51.88445]},"properties":{"type":"charge","layer":"passenger","locationId":"495fc7b6-8e21-11eb-bd91-42010a840066","name":"EQUANS SGZH 1.0 89263683","address":"Willem alexanderstraat 11","city":"Zwartewaal","operatorName":"EQUANS","maxPowerKw":0,"isMegawatt":false,"status":"AVAILABLE","source":"ndw","priceKwh":0.34}},{"type":"Feature","geometry":{"type":"Point","coordinates":[4.224567,51.883029]},"properties":{"type":"charge","layer":"passenger","locationId":"83dc5792-55fd-11ed-bf1f-42010aa40fc0","name":"EQUANS SGZH 2.0 89329922","address":"Dorpsstraat 44","city":"Zwartewaal","operatorName":"EQUANS","maxPowerKw":0,"isMegawatt":false,"status":"AVAILABLE","source":"ndw","priceKwh":0.37}},{"type":"Feature","geometry":{"type":"Point","coordinates":[4.158254,51.833187]},"properties":{"type":"charge","layer":"passenger","locationId":"86500f92-6d2f-11ee-a67b-42010aa40fc0","name":"EQUANS SGZH 2.0 Brasem 19","address":"Brasem 19","city":"Hellevoetsluis","operatorName":"EQUANS","maxPowerKw":0,"isMegawatt":false,"status":"AVAILABLE","source":"ndw","priceKwh":0.37}},{"type":"Feature","geometry":{"type":"Point","coordinates":[4.153186,51.824958]},"properties":{"type":"charge","layer":"passenger","locationId":"8dcd26fe-fd67-11f0-99db-42010aa400b8","name":"EQUANS SGZH 2.0 de Brinio 32","address":"de Brinio 32","city":"Hellevoetsluis","operatorName":"EQUANS","maxPowerKw":0,"isMegawatt":false,"status":"AVAILABLE","source":"ndw","priceKwh":0.37}},{"type":"Feature","geometry":{"type":"Point","coordinates":[4.17316,51.8944]},"properties":{"type":"charge","layer":"passenger","locationId":"a578e46a-2c51-11f0-b74f-42010aa400b8","name":"EQUANS SGZH 2.0 Brielse Rak 92","address":"Brielse Rak 92","city":"Brielle","operatorName":"EQUANS","maxPowerKw":0,"isMegawatt":false,"status":"AVAILABLE","source":"ndw","priceKwh":0.37}},{"type":"Feature","geometry":{"type":"Point","coordinates":[4.165404,51.836096]},"properties":{"type":"charge","layer":"passenger","locationId":"a9fab464-41f7-11ee-b73f-42010aa40fc0","name":"EQUANS SGZH 2.0 89889520","address":"Appelgaarde 2","city":"Hellevoetsluis","operatorName":"EQUANS","maxPowerKw":0,"isMegawatt":false,"status":"AVAILABLE","source":"ndw","priceKwh":0.37}},{"type":"Feature","geometry":{"type":"Point","coordinates":[4.142702,51.843197]},"properties":{"type":"charge","layer":"passenger","locationId":"b7d02962-9dbe-11ed-81c4-42010aa40fc0","name":"EQUANS SGZH 2.0 89443660","address":"Boterkarn 20","city":"Hellevoetsluis","operatorName":"EQUANS","maxPowerKw":0,"isMegawatt":false,"status":"AVAILABLE","source":"ndw","priceKwh":0.37}},{"type":"Feature","geometry":{"type":"Point","coordinates":[4.138131,51.833349]},"properties":{"type":"charge","layer":"passenger","locationId":"0f1baafc-ff2d-11eb-a7f3-42010a840077","name":"EQUANS SGZH 1.0 89263598","address":"Isaac Da Costastraat 106","city":"Hellevoetsluis","operatorName":"EQUANS","maxPowerKw":0,"isMegawatt":false,"status":"AVAILABLE","source":"ndw","priceKwh":0.34}},{"type":"Feature","geometry":{"type":"Point","coordinates":[4.156717,51.892704]},"properties":{"type":"charge","layer":"passenger","locationId":"2788ac00-83fd-11ee-a4bb-42010aa40fc0","name":"EQUANS SGZH 2.0 Hoogaars 41","address":"Hoogaars 41","city":"Brielle","operatorName":"EQUANS","maxPowerKw":0,"isMegawatt":false,"status":"AVAILABLE","source":"ndw","priceKwh":0.37}},{"type":"Feature","geometry":{"type":"Point","coordinates":[4.140489,51.824691]},"properties":{"type":"charge","layer":"passenger","locationId":"3355223a-cc29-11ec-8745-42010a840003","name":"EQUANS SGZH 2.0 89218674","address":"Korenschoof 14","city":"Hellevoetsluis","operatorName":"EQUANS","maxPowerKw":0,"isMegawatt":false,"status":"AVAILABLE","source":"ndw","priceKwh":0.37}},{"type":"Feature","geometry":{"type":"Point","coordinates":[4.147043,51.855185]},"properties":{"type":"charge","layer":"passenger","locationId":"4347c8e0-8304-11ed-83c7-42010aa40fc0","name":"EQUANS SGZH 2.0 89601974","address":"Smithilseweg 6","city":"Hellevoetsluis","operatorName":"EQUANS","maxPowerKw":0,"isMegawatt":false,"status":"AVAILABLE","source":"ndw","priceKwh":0.37}},{"type":"Feature","geometry":{"type":"Point","coordinates":[4.063121,51.874637]},"properties":{"type":"charge","layer":"passenger","locationId":"50f87b7e-29ca-11ef-b252-42010aa400b8","name":"EQUANS SGZH 2.0 Zeeweg 33 Raadhuislaan 12 TO","address":"Zeeweg 33","city":"Rockanje","operatorName":"EQUANS","maxPowerKw":0,"isMegawatt":false,"status":"AVAILABLE","source":"ndw","priceKwh":0.37}},{"type":"Feature","geometry":{"type":"Point","coordinates":[4.144644,51.830784]},"properties":{"type":"charge","layer":"passenger","locationId":"51cb9974-4d93-11e8-bbb8-42010a840002","name":"EQUANS SGZH 1.0 89264174","address":"Struytse Hoeck 190","city":"Hellevoetsluis","operatorName":"EQUANS","maxPowerKw":0,"isMegawatt":false,"status":"CHARGING","source":"ndw","priceKwh":0.34}},{"type":"Feature","geometry":{"type":"Point","coordinates":[4.067004,51.869138]},"properties":{"type":"charge","layer":"passenger","locationId":"78eb6308-3f00-11ef-8f19-42010aa400b8","name":"EQUANS SGZH 2.0 Moerbeistraat 56","address":"Moerbeistraat 56","city":"Rockanje","operatorName":"EQUANS","maxPowerKw":0,"isMegawatt":false,"status":"AVAILABLE","source":"ndw","priceKwh":0.37}},{"type":"Feature","geometry":{"type":"Point","coordinates":[4.148473,51.838223]},"properties":{"type":"charge","layer":"passenger","locationId":"862828ee-7026-11ed-9517-42010aa40fc0","name":"EQUANS SGZH 2.0 89358797","address":"Martin Luther Kinglaan 69","city":"Hellevoetsluis","operatorName":"EQUANS","maxPowerKw":0,"isMegawatt":false,"status":"AVAILABLE","source":"ndw","priceKwh":0.37}},{"type":"Feature","geometry":{"type":"Point","coordinates":[4.163625,51.827442]},"properties":{"type":"charge","layer":"passenger","locationId":"8b78120a-000b-11ec-bdb2-42010a84001f","name":"EQUANS SGZH 1.0 89263644","address":"schaalhoren 29","city":"Hellevoetsluis","operatorName":"EQUANS","maxPowerKw":0,"isMegawatt":false,"status":"AVAILABLE","source":"ndw","priceKwh":0.34}},{"type":"Feature","geometry":{"type":"Point","coordinates":[4.150998,51.830219]},"properties":{"type":"charge","layer":"passenger","locationId":"a179a618-50e5-11ee-a6d0-42010aa40fc0","name":"EQUANS SGZH 2.0 89918752","address":"Hazelaar 22","city":"Hellevoetsluis","operatorName":"EQUANS","maxPowerKw":0,"isMegawatt":false,"status":"AVAILABLE","source":"ndw","priceKwh":0.37}},{"type":"Feature","geometry":{"type":"Point","coordinates":[4.145046,51.840511]},"properties":{"type":"charge","layer":"passenger","locationId":"b9387c60-4613-11ef-bba9-42010aa400b8","name":"EQUANS SGZH 2.0 Jan van Gelderstraat 17","address":"Jan van Gelderstraat 17","city":"Hellevoetsluis","operatorName":"EQUANS","maxPowerKw":0,"isMegawatt":false,"status":"AVAILABLE","source":"ndw","priceKwh":0.37}},{"type":"Feature","geometry":{"type":"Point","coordinates":[4.10523,51.90902]},"properties":{"type":"charge","layer":"passenger","locationId":"c3953896-4e72-11e8-814a-42010a840002","name":"EQUANS SGZH 2.0 89036078","address":"Vlinderslag 3","city":"Oostvoorne","operatorName":"EQUANS","maxPowerKw":0,"isMegawatt":false,"status":"AVAILABLE","source":"ndw","priceKwh":0.37}},{"type":"Feature","geometry":{"type":"Point","coordinates":[4.148324,51.837286]},"properties":{"type":"charge","layer":"passenger","locationId":"d4a999a0-6c37-11ed-b3cb-42010aa40fc0","name":"EQUANS SGZH 2.0 89355376","address":"Cannenburchstraat 1","city":"Hellevoetsluis","operatorName":"EQUANS","maxPowerKw":0,"isMegawatt":false,"status":"AVAILABLE","source":"ndw","priceKwh":0.37}},{"type":"Feature","geometry":{"type":"Point","coordinates":[4.16665,51.893925]},"properties":{"type":"charge","layer":"passenger","locationId":"fc103128-f1fd-11ee-ab72-42010aa400b8","name":"EQUANS SGZH 2.0 Kreek 1","address":"Kreek 1","city":"Brielle","operatorName":"EQUANS","maxPowerKw":0,"isMegawatt":false,"status":"AVAILABLE","source":"ndw","priceKwh":0.37}},{"type":"Feature","geometry":{"type":"Point","coordinates":[4.159107,51.892045]},"properties":{"type":"charge","layer":"passenger","locationId":"2629b92e-c9f8-11eb-b8ef-42010a84001c","name":"EQUANS SGZH 1.0 89263659","address":"Kotter 44","city":"Brielle","operatorName":"EQUANS","maxPowerKw":0,"isMegawatt":false,"status":"AVAILABLE","source":"ndw","priceKwh":0.34}},{"type":"Feature","geometry":{"type":"Point","coordinates":[4.154084,51.831724]},"properties":{"type":"charge","layer":"passenger","locationId":"49aab534-3535-11ed-94ed-42010aa40fc0","name":"EQUANS SGZH 2.0 89307164","address":"Dennenspanner 78","city":"Hellevoetsluis","operatorName":"EQUANS","maxPowerKw":0,"isMegawatt":false,"status":"AVAILABLE","source":"ndw","priceKwh":0.37}},{"type":"Feature","geometry":{"type":"Point","coordinates":[4.169296,51.905824]},"properties":{"type":"charge","layer":"passenger","locationId":"50518be6-a1c0-11ec-a5c3-42010a840003","name":"EQUANS SGZH 2.0 89179073","address":"Zoutziederstraat 32","city":"Brielle","operatorName":"EQUANS","maxPowerKw":0,"isMegawatt":false,"status":"AVAILABLE","source":"ndw","priceKwh":0.37}},{"type":"Feature","geometry":{"type":"Point","coordinates":[4.163661,51.835207]},"properties":{"type":"charge","layer":"passenger","locationId":"514a60d8-c9f6-11eb-8131-42010a84001c","name":"EQUANS SGZH 1.0 89263643","address":"Stratosfeer 6","city":"Hellevoetsluis","operatorName":"EQUANS","maxPowerKw":0,"isMegawatt":false,"status":"AVAILABLE","source":"ndw","priceKwh":0.34}},{"type":"Feature","geometry":{"type":"Point","coordinates":[4.130507,51.827736]},"properties":{"type":"charge","layer":"passenger","locationId":"6991aebe-0fe0-11ec-89cc-42010a840007","name":"EQUANS SGZH 2.0 Timmer Werf 17","address":"Timmer Werf 17","city":"Hellevoetsluis","operatorName":"EQUANS","maxPowerKw":0,"isMegawatt":false,"status":"AVAILABLE","source":"ndw","priceKwh":0.34}},{"type":"Feature","geometry":{"type":"Point","coordinates":[4.160228,51.844567]},"properties":{"type":"charge","layer":"passenger","locationId":"6d00dff8-8d5d-11eb-ac41-42010a840022","name":"EQUANS SGZH 1.0 89263624","address":"marcandostraat 34","city":"Hellevoetsluis","operatorName":"EQUANS","maxPowerKw":0,"isMegawatt":false,"status":"AVAILABLE","source":"ndw","priceKwh":0.34}},{"type":"Feature","geometry":{"type":"Point","coordinates":[4.129791,51.825018]},"properties":{"type":"charge","layer":"passenger","locationId":"75176050-d5fd-11e8-aed1-42010a840002","name":"EQUANS SGZH 1.0 89263592","address":"Industriehaven 8","city":"Hellevoetsluis","operatorName":"EQUANS","maxPowerKw":0,"isMegawatt":false,"status":"AVAILABLE","source":"ndw","priceKwh":0.34}},{"type":"Feature","geometry":{"type":"Point","coordinates":[4.17866,51.89216]},"properties":{"type":"charge","layer":"passenger","locationId":"78a6a41e-4e72-11e8-aeb1-42010a840002","name":"EQUANS SGZH 2.0 89036075","address":"Stadhouder 33","city":"Brielle","operatorName":"EQUANS","maxPowerKw":0,"isMegawatt":false,"status":"AVAILABLE","source":"ndw","priceKwh":0.37}},{"type":"Feature","geometry":{"type":"Point","coordinates":[4.150745,51.82314]},"properties":{"type":"charge","layer":"passenger","locationId":"de77c0a6-0ac7-11ec-8ea0-42010a840003","name":"EQUANS SGZH 1.0 89061019","address":"Vaargeul 43","city":"Hellevoetsluis","operatorName":"EQUANS","maxPowerKw":0,"isMegawatt":false,"status":"AVAILABLE","source":"ndw","priceKwh":0.34}},{"type":"Feature","geometry":{"type":"Point","coordinates":[4.153626,51.824371]},"properties":{"type":"charge","layer":"passenger","locationId":"1a27161c-13c9-11ef-82c9-42010aa400b8","name":"EQUANS SGZH 2.0 Ebstroom 110","address":"Ebstroom 110","city":"Hellevoetsluis","operatorName":"EQUANS","maxPowerKw":0,"isMegawatt":false,"status":"AVAILABLE","source":"ndw","priceKwh":0.37}},{"type":"Feature","geometry":{"type":"Point","coordinates":[4.096888,51.912872]},"properties":{"type":"charge","layer":"passenger","locationId":"1e9d77ba-a432-11e9-a73e-42010a840003","name":"EQUANS SGZH 1.0 89263672","address":"Rialaan 53","city":"Oostvoorne","operatorName":"EQUANS","maxPowerKw":0,"isMegawatt":false,"status":"AVAILABLE","source":"ndw","priceKwh":0.34}},{"type":"Feature","geometry":{"type":"Point","coordinates":[4.18025,51.89268]},"properties":{"type":"charge","layer":"passenger","locationId":"321112e6-4e72-11e8-b9e1-42010a840002","name":"EQUANS SGZH 2.0 89036074","address":"Landvoogdes 69TH","city":"Brielle","operatorName":"EQUANS","maxPowerKw":0,"isMegawatt":false,"status":"AVAILABLE","source":"ndw","priceKwh":0.37}},{"type":"Feature","geometry":{"type":"Point","coordinates":[4.14256,51.85308]},"properties":{"type":"charge","layer":"passenger","locationId":"4702a196-539d-11f0-837a-42010aa400b8","name":"EQUANS SGZH 2.0 Theo Kwantenstraat 48","address":"Theo Kwantenstraat 48","city":"Hellevoetsluis","operatorName":"EQUANS","maxPowerKw":0,"isMegawatt":false,"status":"AVAILABLE","source":"ndw","priceKwh":0.37}},{"type":"Feature","geometry":{"type":"Point","coordinates":[4.129161,51.83346]},"properties":{"type":"charge","layer":"passenger","locationId":"62f60430-9e5b-11ea-a51b-42010a840fda","name":"EQUANS SGZH 1.0 89263596","address":"Evertsenplein 66","city":"Hellevoetsluis","operatorName":"EQUANS","maxPowerKw":0,"isMegawatt":false,"status":"AVAILABLE","source":"ndw","priceKwh":0.34}},{"type":"Feature","geometry":{"type":"Point","coordinates":[4.188963,51.827844]},"properties":{"type":"charge","layer":"passenger","locationId":"82fa4f94-858d-11ee-acc8-42010aa40fc0","name":"EQUANS SGZH 2.0 Heullaan 54","address":"Heullaan 54","city":"Oudenhoorn","operatorName":"EQUANS","maxPowerKw":0,"isMegawatt":false,"status":"AVAILABLE","source":"ndw","priceKwh":0.37}},{"type":"Feature","geometry":{"type":"Point","coordinates":[4.14201,51.82462]},"properties":{"type":"charge","layer":"passenger","locationId":"b152821a-5dd3-11f0-a3c0-42010aa400b8","name":"EQUANS SGZH 2.0 Korenschoof 117","address":"Korenschoof 117","city":"Hellevoetsluis","operatorName":"EQUANS","maxPowerKw":0,"isMegawatt":false,"status":"AVAILABLE","source":"ndw","priceKwh":0.37}},{"type":"Feature","geometry":{"type":"Point","coordinates":[4.156086,51.896806]},"properties":{"type":"charge","layer":"passenger","locationId":"d8e82508-4f3c-11e8-95d8-42010a840002","name":"EQUANS SGZH 1.0 89263657","address":"Monseigneur Smitstraat 4","city":"Brielle","operatorName":"EQUANS","maxPowerKw":0,"isMegawatt":false,"status":"AVAILABLE","source":"ndw","priceKwh":0.34}},{"type":"Feature","geometry":{"type":"Point","coordinates":[4.151739,51.839131]},"properties":{"type":"charge","layer":"passenger","locationId":"da30c8e0-4840-11ee-bf69-42010aa40fc0","name":"EQUANS SGZH 2.0 89900303","address":"Heeswijkstraat 11","city":"Hellevoetsluis","operatorName":"EQUANS","maxPowerKw":0,"isMegawatt":false,"status":"AVAILABLE","source":"ndw","priceKwh":0.37}},{"type":"Feature","geometry":{"type":"Point","coordinates":[4.161586,51.901158]},"properties":{"type":"charge","layer":"passenger","locationId":"efbf7dfc-70ee-11ed-8474-42010aa40fc0","name":"EQUANS SGZH 2.0 89358764","address":"M H Trompstraat 17","city":"Brielle","operatorName":"EQUANS","maxPowerKw":0,"isMegawatt":false,"status":"AVAILABLE","source":"ndw","priceKwh":0.37}},{"type":"Feature","geometry":{"type":"Point","coordinates":[4.1328,51.83888]},"properties":{"type":"charge","layer":"passenger","locationId":"f0970ffa-4e71-11e8-aec5-42010a840002","name":"EQUANS SGZH 2.0 89036051","address":"Meidoornstraat 1","city":"Hellevoetsluis","operatorName":"EQUANS","maxPowerKw":0,"isMegawatt":false,"status":"CHARGING","source":"ndw","priceKwh":0.37}},{"type":"Feature","geometry":{"type":"Point","coordinates":[4.14351,51.85379]},"properties":{"type":"charge","layer":"passenger","locationId":"f818d354-862e-11e8-b21e-42010a840002","name":"EQUANS SGZH 2.0 89036052","address":"Dorpsstraat 18","city":"Hellevoetsluis","operatorName":"EQUANS","maxPowerKw":0,"isMegawatt":false,"status":"AVAILABLE","source":"ndw","priceKwh":0.37}},{"type":"Feature","geometry":{"type":"Point","coordinates":[4.112514,51.913039]},"properties":{"type":"charge","layer":"passenger","locationId":"36773290-03b5-11ee-b82c-42010aa40fc0","name":"EQUANS SGZH 2.0 89641427","address":"Koningslaan 22","city":"Oostvoorne","operatorName":"EQUANS","maxPowerKw":0,"isMegawatt":false,"status":"AVAILABLE","source":"ndw","priceKwh":0.37}},{"type":"Feature","geometry":{"type":"Point","coordinates":[4.0572,51.87289]},"properties":{"type":"charge","layer":"passenger","locationId":"4c0d1390-dcf3-11ef-b000-42010aa400b8","name":"EQUANS SGZH 2.0 Swinsedreef 15","address":"Swinsedreef 15","city":"Rockanje","operatorName":"EQUANS","maxPowerKw":0,"isMegawatt":false,"status":"AVAILABLE","source":"ndw","priceKwh":0.37}},{"type":"Feature","geometry":{"type":"Point","coordinates":[4.150329,51.836444]},"properties":{"type":"charge","layer":"passenger","locationId":"594c1d3a-cbb1-11e8-8673-42010a840002","name":"EQUANS SGZH 1.0 89263619","address":"Bouvignestraat 18","city":"Hellevoetsluis","operatorName":"EQUANS","maxPowerKw":0,"isMegawatt":false,"status":"AVAILABLE","source":"ndw","priceKwh":0.34}},{"type":"Feature","geometry":{"type":"Point","coordinates":[4.16002,51.89529]},"properties":{"type":"charge","layer":"passenger","locationId":"6f8110a4-4e72-11e8-b291-42010a840002","name":"EQUANS SGZH 2.0 89036071","address":"Reede 2TO","city":"Brielle","operatorName":"EQUANS","maxPowerKw":0,"isMegawatt":false,"status":"AVAILABLE","source":"ndw","priceKwh":0.37}},{"type":"Feature","geometry":{"type":"Point","coordinates":[4.143896,51.838408]},"properties":{"type":"charge","layer":"passenger","locationId":"812eee3c-8be3-11eb-9e2e-42010a84001c","name":"EQUANS SGZH 1.0 89263622","address":"softbalpad 2","city":"Hellevoetsluis","operatorName":"EQUANS","maxPowerKw":0,"isMegawatt":false,"status":"AVAILABLE","source":"ndw","priceKwh":0.34}},{"type":"Feature","geometry":{"type":"Point","coordinates":[4.167573,51.910318]},"properties":{"type":"charge","layer":"passenger","locationId":"9dfa677e-6b29-11f0-b1c9-42010aa400b8","name":"EQUANS SGZH 1.0 89263652","address":"Van Egmondplein 12","city":"Brielle","operatorName":"EQUANS","maxPowerKw":0,"isMegawatt":false,"status":"AVAILABLE","source":"ndw","priceKwh":0.34}},{"type":"Feature","geometry":{"type":"Point","coordinates":[4.15623,51.900007]},"properties":{"type":"charge","layer":"passenger","locationId":"b2f01f5a-838b-11f0-bc48-42010aa400b8","name":"EQUANS SGZH 2.0 Welleweg 3","address":"Welleweg 3","city":"Brielle","operatorName":"EQUANS","maxPowerKw":0,"isMegawatt":false,"status":"AVAILABLE","source":"ndw","priceKwh":0.37}},{"type":"Feature","geometry":{"type":"Point","coordinates":[4.135205,51.829142]},"properties":{"type":"charge","layer":"passenger","locationId":"b30cc1d8-8a44-11ee-9d65-42010aa40fc0","name":"EQUANS SGZH 2.0 West-Barrièrestraat 2","address":"West-Barrièrestraat 2","city":"Hellevoetsluis","operatorName":"EQUANS","maxPowerKw":0,"isMegawatt":false,"status":"AVAILABLE","source":"ndw","priceKwh":0.37}},{"type":"Feature","geometry":{"type":"Point","coordinates":[4.137718,51.840288]},"properties":{"type":"charge","layer":"passenger","locationId":"cd05e792-46ae-11ee-af63-42010aa40fc0","name":"EQUANS SGZH 2.0 89900294","address":"Christinaplaats 120","city":"Hellevoetsluis","operatorName":"EQUANS","maxPowerKw":0,"isMegawatt":false,"status":"AVAILABLE","source":"ndw","priceKwh":0.37}},{"type":"Feature","geometry":{"type":"Point","coordinates":[4.16124,51.89515]},"properties":{"type":"charge","layer":"passenger","locationId":"ceecc60e-e4d0-11ef-8ff8-42010aa400b8","name":"EQUANS SGZH 2.0 Reede 1","address":"Reede 1","city":"Brielle","operatorName":"EQUANS","maxPowerKw":0,"isMegawatt":false,"status":"AVAILABLE","source":"ndw","priceKwh":0.37}},{"type":"Feature","geometry":{"type":"Point","coordinates":[4.166055,51.905499]},"properties":{"type":"charge","layer":"passenger","locationId":"d5fa0fb8-cdc5-11eb-929b-42010a840021","name":"EQUANS SGZH 1.0 89263648","address":"Voorstraat 142","city":"Brielle","operatorName":"EQUANS","maxPowerKw":0,"isMegawatt":false,"status":"AVAILABLE","source":"ndw","priceKwh":0.34}},{"type":"Feature","geometry":{"type":"Point","coordinates":[4.154607,51.823459]},"properties":{"type":"charge","layer":"passenger","locationId":"1cdac30e-cbc2-11e8-977a-42010a840002","name":"EQUANS SGZH 1.0 89263629","address":"Getijstroom 21","city":"Hellevoetsluis","operatorName":"EQUANS","maxPowerKw":0,"isMegawatt":false,"status":"AVAILABLE","source":"ndw","priceKwh":0.34}},{"type":"Feature","geometry":{"type":"Point","coordinates":[4.070435,51.867734]},"properties":{"type":"charge","layer":"passenger","locationId":"41fec8a8-1f93-11ef-b646-42010aa400b8","name":"EQUANS SGZH 2.0 Perzikstraat 7","address":"Perzikstraat 7","city":"Rockanje","operatorName":"EQUANS","maxPowerKw":0,"isMegawatt":false,"status":"AVAILABLE","source":"ndw","priceKwh":0.37}},{"type":"Feature","geometry":{"type":"Point","coordinates":[4.064042,51.873924]},"properties":{"type":"charge","layer":"passenger","locationId":"4b710a94-dc6f-11e8-8d74-42010a840002","name":"EQUANS SGZH 1.0 89263675","address":"Berberislaan 2","city":"Rockanje","operatorName":"EQUANS","maxPowerKw":0,"isMegawatt":false,"status":"AVAILABLE","source":"ndw","priceKwh":0.34}},{"type":"Feature","geometry":{"type":"Point","coordinates":[4.141647,51.832574]},"properties":{"type":"charge","layer":"passenger","locationId":"50b5cd42-c084-11ee-ba20-42010aa40fc0","name":"EQUANS SGZH 2.0 P A de Genestetlaan 57","address":"P A de Genestetlaan 57","city":"Hellevoetsluis","operatorName":"EQUANS","maxPowerKw":0,"isMegawatt":false,"status":"AVAILABLE","source":"ndw","priceKwh":0.37}},{"type":"Feature","geometry":{"type":"Point","coordinates":[4.103965,51.910068]},"properties":{"type":"charge","layer":"passenger","locationId":"5f66fda2-93b6-11ee-81e5-42010aa40fc0","name":"EQUANS SGZH 2.0 Vrouwe Machteldweg 9","address":"Vrouwe Machteldweg 9","city":"Oostvoorne","operatorName":"EQUANS","maxPowerKw":0,"isMegawatt":false,"status":"AVAILABLE","source":"ndw","priceKwh":0.37}},{"type":"Feature","geometry":{"type":"Point","coordinates":[4.15301,51.843691]},"properties":{"type":"charge","layer":"passenger","locationId":"61ae925c-c289-11ea-81b1-42010a840fd3","name":"EQUANS SGZH 2.0 89470338","address":"Terwogtstraat 320","city":"Hellevoetsluis","operatorName":"EQUANS","maxPowerKw":0,"isMegawatt":false,"status":"AVAILABLE","source":"ndw","priceKwh":0.34}},{"type":"Feature","geometry":{"type":"Point","coordinates":[4.137643,51.841808]},"properties":{"type":"charge","layer":"passenger","locationId":"8f3ce60a-2a34-11ed-a984-42010aa40fc0","name":"EQUANS SGZH 2.0 89303714","address":"Koninginnelaan 63","city":"Hellevoetsluis","operatorName":"EQUANS","maxPowerKw":0,"isMegawatt":false,"status":"AVAILABLE","source":"ndw","priceKwh":0.37}},{"type":"Feature","geometry":{"type":"Point","coordinates":[4.164634,51.844298]},"properties":{"type":"charge","layer":"passenger","locationId":"9e330202-714a-11ef-a204-42010aa400b8","name":"EQUANS SGZH 2.0 Rondostraat 50","address":"Rondostraat 50","city":"Hellevoetsluis","operatorName":"EQUANS","maxPowerKw":0,"isMegawatt":false,"status":"AVAILABLE","source":"ndw","priceKwh":0.37}},{"type":"Feature","geometry":{"type":"Point","coordinates":[4.184132,51.890109]},"properties":{"type":"charge","layer":"passenger","locationId":"a96dca18-0d80-11ef-ae20-42010aa400b8","name":"EQUANS SGZH 2.0 Geuzenpark 1","address":"Geuzenpark 1","city":"Vierpolders","operatorName":"EQUANS","maxPowerKw":0,"isMegawatt":false,"status":"AVAILABLE","source":"ndw","priceKwh":0.37}},{"type":"Feature","geometry":{"type":"Point","coordinates":[4.223613,51.881978]},"properties":{"type":"charge","layer":"passenger","locationId":"adcb9704-6879-11ee-9207-42010aa40fc0","name":"EQUANS SGZH 2.0 Dorpsstraat 2","address":"Dorpsstraat 2","city":"Zwartewaal","operatorName":"EQUANS","maxPowerKw":0,"isMegawatt":false,"status":"UNAVAILABLE","source":"ndw","priceKwh":0.37}},{"type":"Feature","geometry":{"type":"Point","coordinates":[4.15668,51.833198]},"properties":{"type":"charge","layer":"passenger","locationId":"c8cf0864-1692-11ec-b5b6-42010a840003","name":"EQUANS SGZH 1.0 89094413","address":"Dierenriem 25","city":"Hellevoetsluis","operatorName":"EQUANS","maxPowerKw":0,"isMegawatt":false,"status":"AVAILABLE","source":"ndw","priceKwh":0.34}},{"type":"Feature","geometry":{"type":"Point","coordinates":[4.108295,51.914713]},"properties":{"type":"charge","layer":"passenger","locationId":"d778a64e-b2f5-11ed-bf9c-42010aa40fc0","name":"EQUANS SGZH 2.0 89358807","address":"Kantelenweg 60","city":"Oostvoorne","operatorName":"EQUANS","maxPowerKw":0,"isMegawatt":false,"status":"AVAILABLE","source":"ndw","priceKwh":0.37}},{"type":"Feature","geometry":{"type":"Point","coordinates":[4.147739,51.839034]},"properties":{"type":"charge","layer":"passenger","locationId":"d816dadc-8bb3-11eb-b374-42010a840041","name":"EQUANS SGZH 1.0 89263623","address":"Martin Luther kinglaan 89","city":"Hellevoetsluis","operatorName":"EQUANS","maxPowerKw":0,"isMegawatt":false,"status":"AVAILABLE","source":"ndw","priceKwh":0.34}},{"type":"Feature","geometry":{"type":"Point","coordinates":[4.168986,51.904922]},