{"type":"FeatureCollection","metadata":{"gemeente":"Waalre","slug":"waalre","code":"GM0866","generated_at":"2026-06-07T19:22:09.578Z","total_passenger":65,"total_freight":0,"bounds":[5.4175719266064855,51.36623912322808,5.516416524277668,51.40534931859108],"operators":["Allego","DAEN Mobility","E-Flux by Road","Eneco","Laadnet","Opcharge","bp pulse"]},"features":[{"type":"Feature","geometry":{"type":"Point","coordinates":[5.476265,51.402878]},"properties":{"type":"charge","layer":"passenger","locationId":"2d13a8af09e94c3e8f1658e15ec6622b","name":"DHVM - Laan van Diepenvoorde 9-14, Waalre ","address":"Laan van Diepenvoorde 9-14","city":"Waalre","operatorName":"Opcharge","maxPowerKw":22,"isMegawatt":false,"status":"AVAILABLE","source":"ndw","priceKwh":0.49}},{"type":"Feature","geometry":{"type":"Point","coordinates":[5.461451,51.391774]},"properties":{"type":"charge","layer":"passenger","locationId":"NLLOC002304","name":"NLD, Lissevenlaan, 5582 JV Waalre","address":"Lissevenlaan","city":"Waalre","operatorName":"Allego","maxPowerKw":0,"isMegawatt":false,"status":"AVAILABLE","source":"ndw","priceKwh":0.511}},{"type":"Feature","geometry":{"type":"Point","coordinates":[5.486095,51.400098]},"properties":{"type":"charge","layer":"passenger","locationId":"57ddde12-4f3c-11e8-8885-42010a840002","name":"NLD, Waalre, Van Egmondlaan 1","address":"Van Egmondlaan 1","city":"Waalre","operatorName":"Allego","maxPowerKw":0,"isMegawatt":false,"status":"AVAILABLE","source":"ndw"}},{"type":"Feature","geometry":{"type":"Point","coordinates":[5.447998,51.396563]},"properties":{"type":"charge","layer":"passenger","locationId":"c5d59786-3f07-11ea-ae4c-42010a840003","name":"NL, Buijtenste Meerken 12, 5581 XB, Waalre","address":"Buijtenste Meerken 12","city":"Waalre","operatorName":"Allego","maxPowerKw":0,"isMegawatt":false,"status":"AVAILABLE","source":"ndw"}},{"type":"Feature","geometry":{"type":"Point","coordinates":[5.461451,51.391774]},"properties":{"type":"charge","layer":"passenger","locationId":"d0cb18a8-4f3c-11e8-856e-42010a840002","name":"NLD, Lissevenlaan, 5582 JV Waalre","address":"Lissevenlaan","city":"Waalre","operatorName":"Allego","maxPowerKw":0,"isMegawatt":false,"status":"AVAILABLE","source":"ndw"}},{"type":"Feature","geometry":{"type":"Point","coordinates":[5.441374,51.388483]},"properties":{"type":"charge","layer":"passenger","locationId":"69735948b4551dadbe11e4be","name":"Waalre / De Mommers 1","address":"De Mommers 1","city":"Waalre","operatorName":"E-Flux by Road","maxPowerKw":14,"isMegawatt":false,"status":"AVAILABLE","source":"ndw","priceKwh":0.5217}},{"type":"Feature","geometry":{"type":"Point","coordinates":[5.476447,51.402039]},"properties":{"type":"charge","layer":"passenger","locationId":"f8ae52cc882545db90f1a603fe76f500","name":"DHVM - Laan van Diepenvoorde 1-7, Waalre ","address":"Laan van Diepenvoorde 1-7","city":"Waalre","operatorName":"Opcharge","maxPowerKw":22,"isMegawatt":false,"status":"AVAILABLE","source":"ndw","priceKwh":0.49}},{"type":"Feature","geometry":{"type":"Point","coordinates":[5.462683,51.404466]},"properties":{"type":"charge","layer":"passenger","locationId":"a26426b0-b21c-11ed-9d5c-42010aa40fc0","name":"bp pulse De Voldijn","address":"Burgemeester Mollaan 1a","city":"Waalre","operatorName":"bp pulse","maxPowerKw":150,"isMegawatt":false,"status":"AVAILABLE","source":"ndw","priceKwh":0.7}},{"type":"Feature","geometry":{"type":"Point","coordinates":[5.462683,51.404466]},"properties":{"type":"charge","layer":"passenger","locationId":"a26426b0-b21c-11ed-9d5c-42010aa40fc0","name":"bp pulse De Voldijn","address":"Burgemeester Mollaan 1a","city":"Waalre","operatorName":"bp pulse","maxPowerKw":150,"isMegawatt":false,"status":"AVAILABLE","source":"ndw","priceKwh":0.7}},{"type":"Feature","geometry":{"type":"Point","coordinates":[5.441602,51.390323]},"properties":{"type":"charge","layer":"passenger","locationId":"66e2b07712939d001c9f971b","name":"Waalre/De Vetbergen 2","address":"De Vetbergen 2","city":"Waalre","operatorName":"E-Flux by Road","maxPowerKw":14,"isMegawatt":false,"status":"AVAILABLE","source":"ndw","priceKwh":0.5217}},{"type":"Feature","geometry":{"type":"Point","coordinates":[5.445326,51.387749]},"properties":{"type":"charge","layer":"passenger","locationId":"653b74e01c9d0f001c12570f","name":"Waalre/Doctorandus Hein Mandosplaats 37","address":"Drs. Hein Mandosplaats 37","city":"Waalre","operatorName":"E-Flux by Road","maxPowerKw":14,"isMegawatt":false,"status":"AVAILABLE","source":"ndw","priceKwh":0.5217}},{"type":"Feature","geometry":{"type":"Point","coordinates":[5.440069,51.387869]},"properties":{"type":"charge","layer":"passenger","locationId":"NLLOC001998","name":"NLD, Waalre, Meester Slootsweg 3","address":"Meester Slootsweg 3","city":"Waalre","operatorName":"Allego","maxPowerKw":0,"isMegawatt":false,"status":"AVAILABLE","source":"ndw","priceKwh":0.511}},{"type":"Feature","geometry":{"type":"Point","coordinates":[5.46686,51.402345]},"properties":{"type":"charge","layer":"passenger","locationId":"e896551a-00f2-11ea-bc54-42010a840003","name":"NLD, Hyacintlaan 14, Waalre","address":"Hyacintlaan 14","city":"Waalre","operatorName":"Allego","maxPowerKw":0,"isMegawatt":false,"status":"AVAILABLE","source":"ndw"}},{"type":"Feature","geometry":{"type":"Point","coordinates":[5.462683,51.404466]},"properties":{"type":"charge","layer":"passenger","locationId":"51d39886-43d3-4390-b87d-5166cbd670f8","name":"bp pulse De Voldijn","address":"Burgemeester Mollaan 1a","city":"Waalre","operatorName":"bp pulse","maxPowerKw":150,"isMegawatt":false,"status":"AVAILABLE","source":"ndw","priceKwh":0.7}},{"type":"Feature","geometry":{"type":"Point","coordinates":[5.473741,51.399073]},"properties":{"type":"charge","layer":"passenger","locationId":"8707d42c-4f3c-11e8-bb0e-42010a840002","name":"NLD, Waalre, Prunellalaan 5","address":"Prunellalaan 5","city":"Waalre","operatorName":"Allego","maxPowerKw":0,"isMegawatt":false,"status":"AVAILABLE","source":"ndw"}},{"type":"Feature","geometry":{"type":"Point","coordinates":[5.445407,51.39239]},"properties":{"type":"charge","layer":"passenger","locationId":"6a1961de01a6c29525797fb1","name":"Waalre/ Egellaan 8","address":"Egellaan 8","city":"Waalre","operatorName":"E-Flux by Road","maxPowerKw":14,"isMegawatt":false,"status":"AVAILABLE","source":"ndw","priceKwh":0.5217}},{"type":"Feature","geometry":{"type":"Point","coordinates":[5.48112,51.391792]},"properties":{"type":"charge","layer":"passenger","locationId":"3650785","name":"Laadnet KWL 73","address":"Koningin Wilhelminalaan 73","city":"Waalre","operatorName":"Laadnet","maxPowerKw":11,"isMegawatt":false,"status":"CHARGING","source":"ndw"}},{"type":"Feature","geometry":{"type":"Point","coordinates":[5.473741,51.399073]},"properties":{"type":"charge","layer":"passenger","locationId":"NLLOC001999","name":"NLD, Waalre, Prunellalaan 5","address":"Prunellalaan 5","city":"Waalre","operatorName":"Allego","maxPowerKw":0,"isMegawatt":false,"status":"AVAILABLE","source":"ndw","priceKwh":0.511}},{"type":"Feature","geometry":{"type":"Point","coordinates":[5.48428,51.397271]},"properties":{"type":"charge","layer":"passenger","locationId":"a83d88ee-3703-11e9-a4c6-42010a840003","name":"NLD, Arembergstraat 1F, 5583 CD Waalre","address":"Arembergstraat 1F","city":"Waalre","operatorName":"Allego","maxPowerKw":0,"isMegawatt":false,"status":"AVAILABLE","source":"ndw"}},{"type":"Feature","geometry":{"type":"Point","coordinates":[5.474525,51.394924]},"properties":{"type":"charge","layer":"passenger","locationId":"a77a6850-4f3c-11e8-9d42-42010a840002","name":"NLD, Waalre, Den Hof 34","address":"Den Hof 34","city":"Waalre","operatorName":"Allego","maxPowerKw":0,"isMegawatt":false,"status":"AVAILABLE","source":"ndw"}},{"type":"Feature","geometry":{"type":"Point","coordinates":[5.487434,51.396641]},"properties":{"type":"charge","layer":"passenger","locationId":"aa32b2be-8565-11e8-a96c-42010a840002","name":"NLD, De Pracht 5, 5583CW Waalre","address":"De Pracht 5","city":"Waalre","operatorName":"Allego","maxPowerKw":0,"isMegawatt":false,"status":"AVAILABLE","source":"ndw"}},{"type":"Feature","geometry":{"type":"Point","coordinates":[5.446644,51.386783]},"properties":{"type":"charge","layer":"passenger","locationId":"93954bbe-b555-11e8-85dc-42010a840002","name":"NLD, Willibrorduslaan 19, 5581 GA Waalre","address":"Willibrorduslaan 19","city":"Waalre","operatorName":"Allego","maxPowerKw":0,"isMegawatt":false,"status":"AVAILABLE","source":"ndw"}},{"type":"Feature","geometry":{"type":"Point","coordinates":[5.461759,51.392143]},"properties":{"type":"charge","layer":"passenger","locationId":"99ab60f4-1eba-11ef-a16e-42010aa400b8","name":"NLD, Julianalaan 19, 5582 JV Waalre","address":"Koningin Julianalaan 19","city":"Waalre","operatorName":"Allego","maxPowerKw":0,"isMegawatt":false,"status":"UNAVAILABLE","source":"ndw"}},{"type":"Feature","geometry":{"type":"Point","coordinates":[5.442846,51.384757]},"properties":{"type":"charge","layer":"passenger","locationId":"653b6cd88abb3b001c0b9665","name":"Waalre/Scheerderij-De Weefstoel 12","address":"Scheerderij 18","city":"Waalre","operatorName":"E-Flux by Road","maxPowerKw":14,"isMegawatt":false,"status":"AVAILABLE","source":"ndw","priceKwh":0.5217}},{"type":"Feature","geometry":{"type":"Point","coordinates":[5.440069,51.387869]},"properties":{"type":"charge","layer":"passenger","locationId":"872498dc-4f3c-11e8-82a7-42010a840002","name":"NLD, Waalre, Meester Slootsweg 3","address":"Meester Slootsweg 3","city":"Waalre","operatorName":"Allego","maxPowerKw":0,"isMegawatt":false,"status":"AVAILABLE","source":"ndw"}},{"type":"Feature","geometry":{"type":"Point","coordinates":[5.473722,51.395649]},"properties":{"type":"charge","layer":"passenger","locationId":"66e2b9897e14c9001cde61ec","name":"Waalre/Michiel de Ruyterstraat 4","address":"Michiel de Ruyterstraat 4","city":"Waalre","operatorName":"E-Flux by Road","maxPowerKw":14,"isMegawatt":false,"status":"AVAILABLE","source":"ndw","priceKwh":0.5217}},{"type":"Feature","geometry":{"type":"Point","coordinates":[5.477087,51.402336]},"properties":{"type":"charge","layer":"passenger","locationId":"8715c172-4f3c-11e8-94bd-42010a840002","name":"NLD, Waalre, Laan van Diepenvoorde 1","address":"Laan van Diepenvoorde 1","city":"Waalre","operatorName":"Allego","maxPowerKw":0,"isMegawatt":false,"status":"AVAILABLE","source":"ndw"}},{"type":"Feature","geometry":{"type":"Point","coordinates":[5.445953,51.390678]},"properties":{"type":"charge","layer":"passenger","locationId":"6835a129636d420ce33ff4e6","name":"Waalre/Hertenlaan 8","address":"Hertenlaan 8","city":"Waalre","operatorName":"E-Flux by Road","maxPowerKw":14,"isMegawatt":false,"status":"AVAILABLE","source":"ndw","priceKwh":0.5217}},{"type":"Feature","geometry":{"type":"Point","coordinates":[5.445023,51.395326]},"properties":{"type":"charge","layer":"passenger","locationId":"a7736f14-4f3c-11e8-a3ea-42010a840002","name":"NLD, Waalre, Deurhof 4","address":"Deurhof 4","city":"Waalre","operatorName":"Allego","maxPowerKw":0,"isMegawatt":false,"status":"CHARGING","source":"ndw"}},{"type":"Feature","geometry":{"type":"Point","coordinates":[5.469324,51.399679]},"properties":{"type":"charge","layer":"passenger","locationId":"b512e860-5ffa-11e8-8ce9-42010a840002","name":"NLD, Waalre, Hortensialaan 2, 5582 CL","address":"Hortensialaan 2","city":"Waalre","operatorName":"Allego","maxPowerKw":0,"isMegawatt":false,"status":"AVAILABLE","source":"ndw"}},{"type":"Feature","geometry":{"type":"Point","coordinates":[5.437418,51.395364]},"properties":{"type":"charge","layer":"passenger","locationId":"55FD31C5-2482-47F7-85AE-9B21E17D0A52","name":"Eneco eMobility Hedin Automotive B.V. Waalre","address":"Onze Lieve Vrouwedijk 43 a","city":"Waalre","operatorName":"Eneco","maxPowerKw":11,"isMegawatt":false,"status":"UNAVAILABLE","source":"ndw","priceKwh":0.6}},{"type":"Feature","geometry":{"type":"Point","coordinates":[5.470864,51.400343]},"properties":{"type":"charge","layer":"passenger","locationId":"b70f6a83c0d341389118d53475a25161","name":"Waalre Primulalaan 46 ","address":"Primulalaan 46","city":"Waalre","operatorName":"Opcharge","maxPowerKw":22,"isMegawatt":false,"status":"AVAILABLE","source":"ndw","priceKwh":0.49}},{"type":"Feature","geometry":{"type":"Point","coordinates":[5.477087,51.402336]},"properties":{"type":"charge","layer":"passenger","locationId":"NLLOC002000","name":"NLD, Waalre, Laan van Diepenvoorde 1","address":"Laan van Diepenvoorde 1","city":"Waalre","operatorName":"Allego","maxPowerKw":0,"isMegawatt":false,"status":"AVAILABLE","source":"ndw","priceKwh":0.511}},{"type":"Feature","geometry":{"type":"Point","coordinates":[5.441196,51.396342]},"properties":{"type":"charge","layer":"passenger","locationId":"6a218ef11eb25b714dd1085a","name":"De Smient","address":"Van Dijklaan  21","city":"Waalre","operatorName":"E-Flux by Road","maxPowerKw":22,"isMegawatt":false,"status":"AVAILABLE","source":"ndw","priceKwh":0.33}},{"type":"Feature","geometry":{"type":"Point","coordinates":[5.473831,51.394912]},"properties":{"type":"charge","layer":"passenger","locationId":"4227340","name":"Laadnet Van Doormalen Retail Groep BV","address":"Michiel de Ruyterstraat 71A","city":"Waalre","operatorName":"Laadnet","maxPowerKw":22,"isMegawatt":false,"status":"AVAILABLE","source":"ndw"}},{"type":"Feature","geometry":{"type":"Point","coordinates":[5.438005,51.396055]},"properties":{"type":"charge","layer":"passenger","locationId":"67b73bc0aa0c619501ed8531","name":"Dataplus Building 2","address":"van Dijklaan 7","city":"Waalre","operatorName":"E-Flux by Road","maxPowerKw":11,"isMegawatt":false,"status":"AVAILABLE","source":"ndw","priceKwh":0.58}},{"type":"Feature","geometry":{"type":"Point","coordinates":[5.482546,51.396703]},"properties":{"type":"charge","layer":"passenger","locationId":"6a195d3c7045f964666d4fc9","name":"Waalre/ Sophiastraat 13","address":"Sophiastraat 13","city":"Waalre","operatorName":"E-Flux by Road","maxPowerKw":14,"isMegawatt":false,"status":"AVAILABLE","source":"ndw","priceKwh":0.5217}},{"type":"Feature","geometry":{"type":"Point","coordinates":[5.439817,51.397142]},"properties":{"type":"charge","layer":"passenger","locationId":"922870","name":"DAE-NL-Circet","address":"van dijklaan 19","city":"Waalre","operatorName":"DAEN Mobility","maxPowerKw":22,"isMegawatt":false,"status":"AVAILABLE","source":"ndw","priceKwh":0.32}},{"type":"Feature","geometry":{"type":"Point","coordinates":[5.46686,51.402345]},"properties":{"type":"charge","layer":"passenger","locationId":"NLLOC005461","name":"NLD, Hyacintlaan 14, Waalre","address":"Hyacintlaan 14","city":"Waalre","operatorName":"Allego","maxPowerKw":0,"isMegawatt":false,"status":"UNAVAILABLE","source":"ndw","priceKwh":0.511}},{"type":"Feature","geometry":{"type":"Point","coordinates":[5.466897,51.400585]},"properties":{"type":"charge","layer":"passenger","locationId":"653b76a657dac2001d947c2d","name":"Waalre/Burgemeester Mollaan-Lupinelaan 19","address":"Lupinelaan 19","city":"Waalre","operatorName":"E-Flux by Road","maxPowerKw":14,"isMegawatt":false,"status":"AVAILABLE","source":"ndw","priceKwh":0.5217}},{"type":"Feature","geometry":{"type":"Point","coordinates":[5.445023,51.395326]},"properties":{"type":"charge","layer":"passenger","locationId":"NLLOC000576","name":"NLD, Waalre, Deurhof 4","address":"Deurhof 4","city":"Waalre","operatorName":"Allego","maxPowerKw":0,"isMegawatt":false,"status":"AVAILABLE","source":"ndw","priceKwh":0.511}},{"type":"Feature","geometry":{"type":"Point","coordinates":[5.474525,51.394924]},"properties":{"type":"charge","layer":"passenger","locationId":"NLLOC000577","name":"NLD, Waalre, Den Hof 34","address":"Den Hof 34","city":"Waalre","operatorName":"Allego","maxPowerKw":0,"isMegawatt":false,"status":"AVAILABLE","source":"ndw","priceKwh":0.511}},{"type":"Feature","geometry":{"type":"Point","coordinates":[5.489954,51.392645]},"properties":{"type":"charge","layer":"passenger","locationId":"661035f7e35453001c7127b5","name":"Brahmslaan7","address":"Brahmslaan 7","city":"Waalre","operatorName":"E-Flux by Road","maxPowerKw":14,"isMegawatt":false,"status":"CHARGING","source":"ndw","priceKwh":0.53}},{"type":"Feature","geometry":{"type":"Point","coordinates":[5.467563,51.399104]},"properties":{"type":"charge","layer":"passenger","locationId":"697724c27a0ae4dd7bb44f8a","name":"Waalre/ Lavendellaan 13","address":"Lavendellaan 13","city":"Waalre","operatorName":"E-Flux by Road","maxPowerKw":14,"isMegawatt":false,"status":"AVAILABLE","source":"ndw","priceKwh":0.5217}},{"type":"Feature","geometry":{"type":"Point","coordinates":[5.438005,51.396055]},"properties":{"type":"charge","layer":"passenger","locationId":"67b73b6d26ed7593bb9db62c","name":"Dataplus Building 1","address":"Van dijklaan 7","city":"Waalre","operatorName":"E-Flux by Road","maxPowerKw":11,"isMegawatt":false,"status":"AVAILABLE","source":"ndw","priceKwh":0.58}},{"type":"Feature","geometry":{"type":"Point","coordinates":[5.495753,51.398921]},"properties":{"type":"charge","layer":"passenger","locationId":"69733ec3c6b1edef4fb333cd","name":"Waalre/ Kleinveld 68","address":"Kleinveld 68","city":"Waalre","operatorName":"E-Flux by Road","maxPowerKw":14,"isMegawatt":false,"status":"AVAILABLE","source":"ndw","priceKwh":0.5217}},{"type":"Feature","geometry":{"type":"Point","coordinates":[5.476664,51.40261]},"properties":{"type":"charge","layer":"passenger","locationId":"60b8e984cf737b4e7433663a","name":"Laan van Diepenvoorde","address":"Laan van Diepenvoorde 9-14","city":"Waalre","operatorName":"E-Flux by Road","maxPowerKw":22,"isMegawatt":false,"status":"UNAVAILABLE","source":"ndw"}},{"type":"Feature","geometry":{"type":"Point","coordinates":[5.48428,51.397271]},"properties":{"type":"charge","layer":"passenger","locationId":"NLLOC003487","name":"NLD, Arembergstraat 1F, 5583 CD Waalre","address":"Arembergstraat 1F","city":"Waalre","operatorName":"Allego","maxPowerKw":0,"isMegawatt":false,"status":"AVAILABLE","source":"ndw","priceKwh":0.511}},{"type":"Feature","geometry":{"type":"Point","coordinates":[5.447299,51.385366]},"properties":{"type":"charge","layer":"passenger","locationId":"69734ae0c6b1edef4fc84d68","name":"Waalre/ Vendelstraat 12","address":"Vendelstraat 12","city":"Waalre","operatorName":"E-Flux by Road","maxPowerKw":14,"isMegawatt":false,"status":"AVAILABLE","source":"ndw","priceKwh":0.5217}},{"type":"Feature","geometry":{"type":"Point","coordinates":[5.484163,51.397967]},"properties":{"type":"charge","layer":"passenger","locationId":"654396e92de0ea001c2b5f77","name":"Waalre/Willem de Zwijgerlaan 23","address":"Willem de Zwijgerstraat 23","city":"Waalre","operatorName":"E-Flux by Road","maxPowerKw":14,"isMegawatt":false,"status":"AVAILABLE","source":"ndw","priceKwh":0.5217}},{"type":"Feature","geometry":{"type":"Point","coordinates":[5.470864,51.400343]},"properties":{"type":"charge","layer":"passenger","locationId":"60a3e13b2ae7b139369482fd","name":"Easycharge office","address":"Primulalaan  46","city":"Waalre","operatorName":"E-Flux by Road","maxPowerKw":22,"isMegawatt":false,"status":"UNAVAILABLE","source":"ndw"}},{"type":"Feature","geometry":{"type":"Point","coordinates":[5.444654,51.38811]},"properties":{"type":"charge","layer":"passenger","locationId":"66bb4a28093031001ce8d722","name":"Waalre/ Doctorandus Hein Mandosplaats 23","address":"Drs. Hein Mandosplaats 23","city":"Waalre","operatorName":"E-Flux by Road","maxPowerKw":14,"isMegawatt":false,"status":"AVAILABLE","source":"ndw","priceKwh":0.5217}},{"type":"Feature","geometry":{"type":"Point","coordinates":[5.461759,51.392143]},"properties":{"type":"charge","layer":"passenger","locationId":"NLLOC002303","name":"NLD, Julianalaan 19, 5582 JV Waalre","address":"Koningin Julianalaan 19","city":"Waalre","operatorName":"Allego","maxPowerKw":0,"isMegawatt":false,"status":"AVAILABLE","source":"ndw","priceKwh":0.511}},{"type":"Feature","geometry":{"type":"Point","coordinates":[5.486095,51.400098]},"properties":{"type":"charge","layer":"passenger","locationId":"NLLOC002156","name":"NLD, Waalre, Van Egmondlaan 1","address":"Van Egmondlaan 1","city":"Waalre","operatorName":"Allego","maxPowerKw":0,"isMegawatt":false,"status":"AVAILABLE","source":"ndw","priceKwh":0.511}},{"type":"Feature","geometry":{"type":"Point","coordinates":[5.447998,51.396563]},"properties":{"type":"charge","layer":"passenger","locationId":"NLLOC006985","name":"NL, Buijtenste Meerken 12, 5581 XB, Waalre","address":"Buijtenste Meerken 12","city":"Waalre","operatorName":"Allego","maxPowerKw":0,"isMegawatt":false,"status":"AVAILABLE","source":"ndw","priceKwh":0.511}},{"type":"Feature","geometry":{"type":"Point","coordinates":[5.446644,51.386783]},"properties":{"type":"charge","layer":"passenger","locationId":"NLLOC002569","name":"NLD, Willibrorduslaan 19, 5581 GA Waalre","address":"Willibrorduslaan 19","city":"Waalre","operatorName":"Allego","maxPowerKw":0,"isMegawatt":false,"status":"AVAILABLE","source":"ndw","priceKwh":0.511}},{"type":"Feature","geometry":{"type":"Point","coordinates":[5.437194,51.389811]},"properties":{"type":"charge","layer":"passenger","locationId":"68a463194d781e0b6e2c7d8d","name":"E-Flux Ganzenwei","address":"Ganzenwei 14","city":"Waalre","operatorName":"E-Flux by Road","maxPowerKw":14,"isMegawatt":false,"status":"AVAILABLE","source":"ndw","priceKwh":0.5}},{"type":"Feature","geometry":{"type":"Point","coordinates":[5.443853,51.389954]},"properties":{"type":"charge","layer":"passenger","locationId":"66bb52e0722031001d43c4b1","name":"Waalre/Monseigneur Bannenberglaan 51","address":"Monseigneur Bannenberglaan  51","city":"Waalre","operatorName":"E-Flux by Road","maxPowerKw":14,"isMegawatt":false,"status":"AVAILABLE","source":"ndw","priceKwh":0.5217}},{"type":"Feature","geometry":{"type":"Point","coordinates":[5.439057,51.390279]},"properties":{"type":"charge","layer":"passenger","locationId":"653b761a12ed88001cf13e9d","name":"Waalre/De Follingen 7","address":"De Follingen 7","city":"Waalre","operatorName":"E-Flux by Road","maxPowerKw":14,"isMegawatt":false,"status":"AVAILABLE","source":"ndw","priceKwh":0.5217}},{"type":"Feature","geometry":{"type":"Point","coordinates":[5.469324,51.399679]},"properties":{"type":"charge","layer":"passenger","locationId":"NLLOC002423","name":"NLD, Waalre, Hortensialaan 2, 5582 CL","address":"Hortensialaan 2","city":"Waalre","operatorName":"Allego","maxPowerKw":0,"isMegawatt":false,"status":"AVAILABLE","source":"ndw","priceKwh":0.511}},{"type":"Feature","geometry":{"type":"Point","coordinates":[5.487434,51.396641]},"properties":{"type":"charge","layer":"passenger","locationId":"NLLOC002595","name":"NLD, De Pracht 5, 5583CW Waalre","address":"De Pracht 5","city":"Waalre","operatorName":"Allego","maxPowerKw":0,"isMegawatt":false,"status":"AVAILABLE","source":"ndw","priceKwh":0.511}},{"type":"Feature","geometry":{"type":"Point","coordinates":[5.483884,51.398589]},"properties":{"type":"charge","layer":"passenger","locationId":"653b7335559381001c95691f","name":"Waalre/Arembergstraat-Willem Frisostraat 23","address":"Willem Frisostraat 23","city":"Waalre","operatorName":"E-Flux by Road","maxPowerKw":14,"isMegawatt":false,"status":"AVAILABLE","source":"ndw","priceKwh":0.5217}},{"type":"Feature","geometry":{"type":"Point","coordinates":[5.471119,51.395098]},"properties":{"type":"charge","layer":"passenger","locationId":"697350b833bcaa2dcc03228c","name":"Waalre/ Raadhuisstraat 61 C","address":"Raadhuisstraat 61C","city":"Waalre","operatorName":"E-Flux by Road","maxPowerKw":14,"isMegawatt":false,"status":"AVAILABLE","source":"ndw","priceKwh":0.5217}},{"type":"Feature","geometry":{"type":"Point","coordinates":[5.44087,51.391706]},"properties":{"type":"charge","layer":"passenger","locationId":"66e2b4d04f1df6001d969f93","name":"Waalre/De Kranssen 36","address":"De Kranssen 36","city":"Waalre","operatorName":"E-Flux by Road","maxPowerKw":14,"isMegawatt":false,"status":"AVAILABLE","source":"ndw","priceKwh":0.5217}},{"type":"Feature","geometry":{"type":"Point","coordinates":[5.447499,51.390598]},"properties":{"type":"charge","layer":"passenger","locationId":"697343d25d6d66b3679d7ad9","name":"Waalre/ Daslaan 14","address":"Daslaan 14","city":"Waalre","operatorName":"E-Flux by Road","maxPowerKw":14,"isMegawatt":false,"status":"AVAILABLE","source":"ndw","priceKwh":0.5217}},{"type":"Feature","geometry":{"type":"MultiPolygon","coordinates":[[[[5.46932047109924,51.40534931859108],[5.4771034510314225,51.40487542129826],[5.480068899383339,51.40473646512595],[5.480371043561986,51.404688814448676],[5.482314960462642,51.40465266933404],[5.490046718628161,51.404451488423575],[5.499849963755356,51.403857407100524],[5.503623502582543,51.40152193180622],[5.504636179754759,51.40011332699954],[5.504872939083721,51.4001544808618],[5.512002825040535,51.38381094396969],[5.516416524277668,51.37833513150059],[5.508478365402241,51.37276535563374],[5.501802933033917,51.37416492974605],[5.496476057978801,51.37313698020198],[5.4918743087304405,51.374054450560756],[5.461056511855061,51.36947070257932],[5.450164534953203,51.36830868902927],[5.445232885474958,51.368150589765506],[5.441884763951219,51.36747792517839],[5.439220314245862,51.36625205305329],[5.436299878872104,51.36623912322808],[5.435405283198957,51.36813297003936],[5.431955247102031,51.36913399339424],[5.431265389319169,51.36997470370516],[5.42905403406297,51.37021410162445],[5.4293809584069965,51.37100478455114],[5.427067211243313,51.371804260551016],[5.426832789837071,51.3726207780446],[5.424896640723485,51.37262404846236],[5.424501125741269,51.374070336682024],[5.423163798012192,51.37438946354562],[5.423206142224525,51.37486606850012],[5.424235619702193,51.376552783742106],[5.42383237253661,51.37760099696082],[5.424850652854452,51.37919299595184],[5.4255514468520705,51.379241871680485],[5.424082281795005,51.380293974804495],[5.421799987673275,51.383409566693906],[5.421654271759085,51.38446912842176],[5.420318061979546,51.385033380230716],[5.4211148677267165,51.38572795080612],[5.420225678552309,51.385624891234734],[5.420743172282875,51.38628993474696],[5.420060106875178,51.3862069757752],[5.419400819432673,51.387216863328355],[5.417771920424859,51.387953390556326],[5.418336848874977,51.3890900067845],[5.4175719266064855,51.389089562715895],[5.418250850629551,51.3897415138655],[5.417804240169088,51.39018401227035],[5.420167833301918,51.39185734532062],[5.419632893739848,51.39221133239911],[5.421598394489,51.39287004299247],[5.423034868199307,51.394972732860296],[5.422188719420987,51.39508095462626],[5.422094443208134,51.39673906758035],[5.423981282019348,51.398383939882855],[5.423406349083408,51.398717997373744],[5.42436220329003,51.39911944547527],[5.423852573003971,51.39964788281012],[5.427275530022223,51.40265328404021],[5.429902104776725,51.40280973972066],[5.430964211433329,51.40263702177666],[5.431190385793947,51.40206240530762],[5.435354760120937,51.40336304559652],[5.435748299785153,51.40418936339579],[5.436187751484067,51.40497602569019],[5.453508384795528,51.405292791148916],[5.461799757616559,51.40495961997797],[5.461977529717905,51.40495376205617],[5.46932047109924,51.40534931859108]]]]},"properties":{"type":"boundary","gemeente":"Waalre","code":"GM0866"}}]}