{"type":"FeatureCollection","metadata":{"gemeente":"Waddinxveen","slug":"waddinxveen","code":"GM0627","generated_at":"2026-06-07T19:22:09.578Z","total_passenger":353,"total_freight":1,"bounds":[4.5910888292957095,52.011680293604726,4.706038988986196,52.07704601591232],"operators":["Allego","Blink Charging","ChargePoint","E-Flux by Road","EQUANS","Eneco","Kia Nederland B.V.","Laadnet"]},"features":[{"type":"Feature","geometry":{"type":"Point","coordinates":[4.615227,52.02739]},"properties":{"type":"charge","layer":"passenger","locationId":"b659868e-f782-11f0-86ef-42010aa400b8","name":"P095.A - Isero - Montea","address":"Dirk Verheulweg 3","city":"Waddinxveen","operatorName":"Blink Charging","maxPowerKw":0,"isMegawatt":false,"status":"AVAILABLE","source":"ndw"}},{"type":"Feature","geometry":{"type":"Point","coordinates":[4.643267,52.051645]},"properties":{"type":"charge","layer":"passenger","locationId":"NLLOC003093","name":"NLD, Peuleyen 68, 2742 EK Waddinxveen","address":"Peuleyen 68","city":"Waddinxveen","operatorName":"Allego","maxPowerKw":0,"isMegawatt":false,"status":"AVAILABLE","source":"ndw","priceKwh":0.511}},{"type":"Feature","geometry":{"type":"Point","coordinates":[4.630806,52.016406]},"properties":{"type":"charge","layer":"passenger","locationId":"663e12accf842c001c5f9400","name":"Waddinxveen K5","address":"Transportweg  32","city":"Waddinxveen","operatorName":"E-Flux by Road","maxPowerKw":11,"isMegawatt":false,"status":"AVAILABLE","source":"ndw","priceKwh":0.54}},{"type":"Feature","geometry":{"type":"Point","coordinates":[4.626915,52.034864]},"properties":{"type":"charge","layer":"passenger","locationId":"89329939","name":"EQUANS SGZH 2.0 89329939","address":"Noorderlicht 5","city":"Waddinxveen","operatorName":"EQUANS","maxPowerKw":0,"isMegawatt":false,"status":"CHARGING","source":"ndw"}},{"type":"Feature","geometry":{"type":"Point","coordinates":[4.648778,52.034232]},"properties":{"type":"charge","layer":"passenger","locationId":"89877075","name":"EQUANS SGZH 2.0 89877075","address":"Graan voor Visch 61","city":"Waddinxveen","operatorName":"EQUANS","maxPowerKw":0,"isMegawatt":false,"status":"AVAILABLE","source":"ndw"}},{"type":"Feature","geometry":{"type":"Point","coordinates":[4.644534,52.030152]},"properties":{"type":"charge","layer":"passenger","locationId":"NLLOC003500","name":"NLD Johan Zocherstraat 45, 2742 MS Waddinxveen","address":"Johan Zocherstraat 45","city":"Waddinxveen","operatorName":"Allego","maxPowerKw":0,"isMegawatt":false,"status":"CHARGING","source":"ndw","priceKwh":0.511}},{"type":"Feature","geometry":{"type":"Point","coordinates":[4.658499,52.03159]},"properties":{"type":"charge","layer":"passenger","locationId":"89606407","name":"EQUANS SGZH 2.0 89606407","address":"Fortunalaan 16","city":"Waddinxveen","operatorName":"EQUANS","maxPowerKw":0,"isMegawatt":false,"status":"AVAILABLE","source":"ndw"}},{"type":"Feature","geometry":{"type":"Point","coordinates":[4.67533,52.03796]},"properties":{"type":"charge","layer":"passenger","locationId":"0bf6ba54-6d80-11f0-bf40-42010aa400b8","name":"Eneco eMobility Coenecoopweg 3b1 Waddinxveen","address":"Coenecoopweg 3b1","city":"Waddinxveen","operatorName":"Eneco","maxPowerKw":22,"isMegawatt":false,"status":"CHARGING","source":"ndw","priceKwh":0.32}},{"type":"Feature","geometry":{"type":"Point","coordinates":[4.64874,52.02979]},"properties":{"type":"charge","layer":"passenger","locationId":"91422006","name":"EQUANS SGZH 2.0 Leonard Springerstraat 2","address":"Leonard Springerstraat 2","city":"Waddinxveen","operatorName":"EQUANS","maxPowerKw":0,"isMegawatt":false,"status":"AVAILABLE","source":"ndw"}},{"type":"Feature","geometry":{"type":"Point","coordinates":[4.6446,52.03237]},"properties":{"type":"charge","layer":"passenger","locationId":"90983530","name":"EQUANS SGZH 2.0 Ganzerik 114","address":"Ganzerik 114","city":"Waddinxveen","operatorName":"EQUANS","maxPowerKw":0,"isMegawatt":false,"status":"AVAILABLE","source":"ndw"}},{"type":"Feature","geometry":{"type":"Point","coordinates":[4.64073,52.03637]},"properties":{"type":"charge","layer":"passenger","locationId":"91141242","name":"EQUANS SGZH 2.0 Bonenakker 30","address":"Bonenakker 30","city":"Waddinxveen","operatorName":"EQUANS","maxPowerKw":0,"isMegawatt":false,"status":"AVAILABLE","source":"ndw"}},{"type":"Feature","geometry":{"type":"Point","coordinates":[4.65361,52.047909]},"properties":{"type":"charge","layer":"passenger","locationId":"90a8750e-4f3c-11e8-b0be-42010a840002","name":"NLD, Waddinxveen, Prinses Marijkestraat 7","address":"Prinses Marijkestraat 7","city":"Waddinxveen","operatorName":"Allego","maxPowerKw":0,"isMegawatt":false,"status":"AVAILABLE","source":"ndw"}},{"type":"Feature","geometry":{"type":"Point","coordinates":[4.645007,52.056212]},"properties":{"type":"charge","layer":"passenger","locationId":"9eff602a-e0d4-11e8-9429-42010a840002","name":"NLD, Wingerd 109, 2742 SE Waddinxveen","address":"Wingerd 109","city":"Waddinxveen","operatorName":"Allego","maxPowerKw":0,"isMegawatt":false,"status":"AVAILABLE","source":"ndw"}},{"type":"Feature","geometry":{"type":"Point","coordinates":[4.646363,52.052557]},"properties":{"type":"charge","layer":"passenger","locationId":"b14a3914-4f3c-11e8-b2ad-42010a840002","name":"NLD, Waddinxveen, Lindengaarde 32","address":"Lindengaarde 32","city":"Waddinxveen","operatorName":"Allego","maxPowerKw":0,"isMegawatt":false,"status":"UNAVAILABLE","source":"ndw"}},{"type":"Feature","geometry":{"type":"Point","coordinates":[4.643881,52.025345]},"properties":{"type":"charge","layer":"passenger","locationId":"89445007","name":"EQUANS SGZH 2.0 89445007","address":"Meerval 28","city":"Waddinxveen","operatorName":"EQUANS","maxPowerKw":0,"isMegawatt":false,"status":"AVAILABLE","source":"ndw"}},{"type":"Feature","geometry":{"type":"Point","coordinates":[4.631158,52.033627]},"properties":{"type":"charge","layer":"passenger","locationId":"75b5e636-faa9-11e9-8cd1-42010a840003","name":"NLD, Zonnehof 54 2743LP Waddinxveen","address":"Zonnehof 54","city":"Waddinxveen","operatorName":"Allego","maxPowerKw":0,"isMegawatt":false,"status":"AVAILABLE","source":"ndw"}},{"type":"Feature","geometry":{"type":"Point","coordinates":[4.637222,52.04024]},"properties":{"type":"charge","layer":"passenger","locationId":"80241d64-4f3c-11e8-a8b5-42010a840002","name":"NLD, Waddinxveen, Zuidplaslaan 50","address":"Zuidplaslaan 50","city":"Waddinxveen","operatorName":"Allego","maxPowerKw":0,"isMegawatt":false,"status":"AVAILABLE","source":"ndw"}},{"type":"Feature","geometry":{"type":"Point","coordinates":[4.657976,52.039377]},"properties":{"type":"charge","layer":"passenger","locationId":"90c370de-4f3c-11e8-9719-42010a840002","name":"NLD Zuidkade 56, 2741 JC Waddinxveen","address":"Zuidkade 56","city":"Waddinxveen","operatorName":"Allego","maxPowerKw":0,"isMegawatt":false,"status":"CHARGING","source":"ndw"}},{"type":"Feature","geometry":{"type":"Point","coordinates":[4.648072,52.050976]},"properties":{"type":"charge","layer":"passenger","locationId":"90365779","name":"EQUANS SGZH 2.0 Elzenhorst 8","address":"Elzenhorst 8","city":"Waddinxveen","operatorName":"EQUANS","maxPowerKw":0,"isMegawatt":false,"status":"AVAILABLE","source":"ndw"}},{"type":"Feature","geometry":{"type":"Point","coordinates":[4.652664,52.025742]},"properties":{"type":"charge","layer":"passenger","locationId":"eb7d35b4-3b2f-11f0-860d-42010aa400b8","name":"LKQ NL WADDINXVEEN 3","address":"320 Coenecoop","city":"Waddinxveen","operatorName":"ChargePoint","maxPowerKw":22,"isMegawatt":false,"status":"UNAVAILABLE","source":"ndw"}},{"type":"Feature","geometry":{"type":"Point","coordinates":[4.655601,52.052143]},"properties":{"type":"charge","layer":"passenger","locationId":"89439556","name":"EQUANS SGZH 2.0 89439556","address":"Charlotte de Bourbonstraat 26","city":"Waddinxveen","operatorName":"EQUANS","maxPowerKw":0,"isMegawatt":false,"status":"AVAILABLE","source":"ndw"}},{"type":"Feature","geometry":{"type":"Point","coordinates":[4.648771,52.027513]},"properties":{"type":"charge","layer":"passenger","locationId":"45b35df8-507d-11eb-b514-42010a840003","name":"NL, Dubbelspoor 78, 2742MX, Waddinxveen","address":"Dubbelspoor 78","city":"Waddinxveen","operatorName":"Allego","maxPowerKw":0,"isMegawatt":false,"status":"AVAILABLE","source":"ndw"}},{"type":"Feature","geometry":{"type":"Point","coordinates":[4.655964,52.037119]},"properties":{"type":"charge","layer":"passenger","locationId":"d458bf72-f457-11e9-a662-42010a840003","name":"NLD, Heemraadweg 10, Waddinxveen","address":"Heemraadweg 10","city":"Waddinxveen","operatorName":"Allego","maxPowerKw":0,"isMegawatt":false,"status":"AVAILABLE","source":"ndw"}},{"type":"Feature","geometry":{"type":"Point","coordinates":[4.652478,52.045165]},"properties":{"type":"charge","layer":"passenger","locationId":"90909767","name":"EQUANS SGZH 2.0 Passage 76","address":"Passage 76","city":"Waddinxveen","operatorName":"EQUANS","maxPowerKw":0,"isMegawatt":false,"status":"AVAILABLE","source":"ndw"}},{"type":"Feature","geometry":{"type":"Point","coordinates":[4.647536,52.026883]},"properties":{"type":"charge","layer":"passenger","locationId":"89637733","name":"EQUANS SGZH 2.0 89637733","address":"Spiering 10","city":"Waddinxveen","operatorName":"EQUANS","maxPowerKw":0,"isMegawatt":false,"status":"CHARGING","source":"ndw"}},{"type":"Feature","geometry":{"type":"Point","coordinates":[4.65794,52.04185]},"properties":{"type":"charge","layer":"passenger","locationId":"90885441","name":"EQUANS SGZH 2.0 Alpherwetering 2","address":"Alpherwetering 2","city":"Waddinxveen","operatorName":"EQUANS","maxPowerKw":0,"isMegawatt":false,"status":"AVAILABLE","source":"ndw"}},{"type":"Feature","geometry":{"type":"Point","coordinates":[4.641436,52.037458]},"properties":{"type":"charge","layer":"passenger","locationId":"89604298","name":"EQUANS SGZH 2.0 89604298","address":"de Akker 29","city":"Waddinxveen","operatorName":"EQUANS","maxPowerKw":0,"isMegawatt":false,"status":"AVAILABLE","source":"ndw"}},{"type":"Feature","geometry":{"type":"Point","coordinates":[4.630806,52.016406]},"properties":{"type":"charge","layer":"passenger","locationId":"663e11b165617b001d74073c","name":"Waddinxveen K4","address":"Transportweg 32","city":"Waddinxveen","operatorName":"E-Flux by Road","maxPowerKw":11,"isMegawatt":false,"status":"AVAILABLE","source":"ndw","priceKwh":0.54}},{"type":"Feature","geometry":{"type":"Point","coordinates":[4.634636,52.017688]},"properties":{"type":"charge","layer":"passenger","locationId":"2686614","name":"Laadnet Delta Wines B.V.","address":"Exportweg 8","city":"Waddinxveen","operatorName":"Laadnet","maxPowerKw":22,"isMegawatt":false,"status":"AVAILABLE","source":"ndw"}},{"type":"Feature","geometry":{"type":"Point","coordinates":[4.67533,52.03796]},"properties":{"type":"charge","layer":"passenger","locationId":"525688E7-2B94-4E80-8434-234D6EC13558","name":"Eneco eMobility Coenecoopweg 3b1 Waddinxveen","address":"Coenecoopweg 3b1","city":"Waddinxveen","operatorName":"Eneco","maxPowerKw":22,"isMegawatt":false,"status":"AVAILABLE","source":"ndw","priceKwh":0.32}},{"type":"Feature","geometry":{"type":"Point","coordinates":[4.646175,52.039573]},"properties":{"type":"charge","layer":"passenger","locationId":"NLLOC027877","name":"NL, Limaweg 49, 2743 CC Waddinxveen","address":"Limaweg 49","city":"Waddinxveen","operatorName":"Allego","maxPowerKw":0,"isMegawatt":false,"status":"AVAILABLE","source":"ndw","priceKwh":0.511}},{"type":"Feature","geometry":{"type":"Point","coordinates":[4.636051,52.036753]},"properties":{"type":"charge","layer":"passenger","locationId":"91b5c91a-4f3c-11e8-b2c1-42010a840002","name":"NLD, Waddinxveen, Zuidplaslaan 412","address":"Zuidplaslaan 412","city":"Waddinxveen","operatorName":"Allego","maxPowerKw":0,"isMegawatt":false,"status":"UNAVAILABLE","source":"ndw"}},{"type":"Feature","geometry":{"type":"Point","coordinates":[4.642869,52.039531]},"properties":{"type":"charge","layer":"passenger","locationId":"ba7a1074-2f27-11e9-8d86-42010a840003","name":"NLD Kievitdreef 43, 2743 EG Waddinxveen","address":"Kievitdreef 43","city":"Waddinxveen","operatorName":"Allego","maxPowerKw":0,"isMegawatt":false,"status":"AVAILABLE","source":"ndw"}},{"type":"Feature","geometry":{"type":"Point","coordinates":[4.647695,52.029147]},"properties":{"type":"charge","layer":"passenger","locationId":"c988eb0e-320c-11ec-9002-42010a840003","name":"NL, Leonard Springerstraat 16, 2742 MN Waddinxveen","address":"Leonard Springerstraat 16","city":"Waddinxveen","operatorName":"Allego","maxPowerKw":0,"isMegawatt":false,"status":"AVAILABLE","source":"ndw"}},{"type":"Feature","geometry":{"type":"Point","coordinates":[4.643267,52.051645]},"properties":{"type":"charge","layer":"passenger","locationId":"6945495c-f9b8-11e8-93df-42010a840002","name":"NLD, Peuleyen 68, 2742 EK Waddinxveen","address":"Peuleyen 68","city":"Waddinxveen","operatorName":"Allego","maxPowerKw":0,"isMegawatt":false,"status":"AVAILABLE","source":"ndw"}},{"type":"Feature","geometry":{"type":"Point","coordinates":[4.633063,52.035379]},"properties":{"type":"charge","layer":"passenger","locationId":"7ef57db6-4f3c-11e8-acaa-42010a840002","name":"NLD, Waddinxveen, Marga Klompehoeve 13","address":"Marga Klompehoeve 13","city":"Waddinxveen","operatorName":"Allego","maxPowerKw":0,"isMegawatt":false,"status":"AVAILABLE","source":"ndw"}},{"type":"Feature","geometry":{"type":"Point","coordinates":[4.650499,52.027904]},"properties":{"type":"charge","layer":"passenger","locationId":"2499607","name":"Laadnet Van Noort Bedrijven B.V.","address":"Coenecoop 450","city":"Waddinxveen","operatorName":"Laadnet","maxPowerKw":22,"isMegawatt":false,"status":"AVAILABLE","source":"ndw"}},{"type":"Feature","geometry":{"type":"Point","coordinates":[4.650077,52.056028]},"properties":{"type":"charge","layer":"passenger","locationId":"b0f08b26-4f3c-11e8-ae81-42010a840002","name":"NLD, Busken Huetlaan 31 2741 AM Waddinxveen","address":"Busken Huetlaan","city":"Waddinxveen","operatorName":"Allego","maxPowerKw":0,"isMegawatt":false,"status":"AVAILABLE","source":"ndw"}},{"type":"Feature","geometry":{"type":"Point","coordinates":[4.657376,52.032889]},"properties":{"type":"charge","layer":"passenger","locationId":"89596223","name":"EQUANS SGZH 2.0 89596223","address":"Jupiterlaan 73","city":"Waddinxveen","operatorName":"EQUANS","maxPowerKw":0,"isMegawatt":false,"status":"CHARGING","source":"ndw"}},{"type":"Feature","geometry":{"type":"Point","coordinates":[4.638036,52.034339]},"properties":{"type":"charge","layer":"passenger","locationId":"91193618","name":"EQUANS SGZH 2.0 Schaepmanhoeve 41","address":"Schaepmanhoeve 41","city":"Waddinxveen","operatorName":"EQUANS","maxPowerKw":0,"isMegawatt":false,"status":"AVAILABLE","source":"ndw"}},{"type":"Feature","geometry":{"type":"Point","coordinates":[4.640909,52.035358]},"properties":{"type":"charge","layer":"passenger","locationId":"NLLOC005127","name":"NLD De Akker 129 2743DT Waddinxveen","address":"NLD De Akker 129","city":"Waddinxveen","operatorName":"Allego","maxPowerKw":0,"isMegawatt":false,"status":"AVAILABLE","source":"ndw","priceKwh":0.511}},{"type":"Feature","geometry":{"type":"Point","coordinates":[4.656914,52.033553]},"properties":{"type":"charge","layer":"passenger","locationId":"NLLOC006638","name":"NL, Jupiterlaan 1, 2741 TH, Waddinxveen","address":"Jupiterlaan 1","city":"Waddinxveen","operatorName":"Allego","maxPowerKw":0,"isMegawatt":false,"status":"AVAILABLE","source":"ndw","priceKwh":0.511}},{"type":"Feature","geometry":{"type":"Point","coordinates":[4.661332,52.028053]},"properties":{"type":"charge","layer":"passenger","locationId":"4208961","name":"Laadnet Van Wijk Railinfra B.V.","address":"Sint Victorstraat 61","city":"Waddinxveen","operatorName":"Laadnet","maxPowerKw":22,"isMegawatt":false,"status":"AVAILABLE","source":"ndw"}},{"type":"Feature","geometry":{"type":"Point","coordinates":[4.647671,52.024419]},"properties":{"type":"charge","layer":"passenger","locationId":"89477480","name":"EQUANS SGZH 2.0 89477480","address":"Zilverkarper 6","city":"Waddinxveen","operatorName":"EQUANS","maxPowerKw":0,"isMegawatt":false,"status":"AVAILABLE","source":"ndw"}},{"type":"Feature","geometry":{"type":"Point","coordinates":[4.630806,52.016406]},"properties":{"type":"charge","layer":"passenger","locationId":"663e0e3ddafc19001c20d8ee","name":"Waddinxveen K3","address":"Transportweg 32","city":"Waddinxveen","operatorName":"E-Flux by Road","maxPowerKw":11,"isMegawatt":false,"status":"AVAILABLE","source":"ndw","priceKwh":0.54}},{"type":"Feature","geometry":{"type":"Point","coordinates":[4.64405,52.05538]},"properties":{"type":"charge","layer":"passenger","locationId":"90364890","name":"EQUANS SGZH 2.0 Wingerd 66","address":"Wingerd 66","city":"Waddinxveen","operatorName":"EQUANS","maxPowerKw":0,"isMegawatt":false,"status":"AVAILABLE","source":"ndw"}},{"type":"Feature","geometry":{"type":"Point","coordinates":[4.648072,52.050976]},"properties":{"type":"charge","layer":"passenger","locationId":"07a850e8-85b9-11ef-8a89-42010aa400b8","name":"EQUANS SGZH 2.0 Elzenhorst 8","address":"Elzenhorst 8","city":"Waddinxveen","operatorName":"EQUANS","maxPowerKw":0,"isMegawatt":false,"status":"AVAILABLE","source":"ndw","priceKwh":0.37}},{"type":"Feature","geometry":{"type":"Point","coordinates":[4.630543,52.03264]},"properties":{"type":"charge","layer":"passenger","locationId":"149998fc-5e41-11ee-a008-42010aa40fc0","name":"EQUANS SGZH 2.0 89954356","address":"Sirius 1","city":"Waddinxveen","operatorName":"EQUANS","maxPowerKw":0,"isMegawatt":false,"status":"AVAILABLE","source":"ndw","priceKwh":0.37}},{"type":"Feature","geometry":{"type":"Point","coordinates":[4.64345,52.044067]},"properties":{"type":"charge","layer":"passenger","locationId":"2aefff52-6ec1-11ee-91d1-42010aa40fc0","name":"EQUANS SGZH 2.0 89927109","address":"Ieplaan 35","city":"Waddinxveen","operatorName":"EQUANS","maxPowerKw":0,"isMegawatt":false,"status":"AVAILABLE","source":"ndw","priceKwh":0.37}},{"type":"Feature","geometry":{"type":"Point","coordinates":[4.638036,52.034339]},"properties":{"type":"charge","layer":"passenger","locationId":"4ebc8c08-b5e0-11f0-b6f6-42010aa400b8","name":"EQUANS SGZH 2.0 Schaepmanhoeve 41","address":"Schaepmanhoeve 41","city":"Waddinxveen","operatorName":"EQUANS","maxPowerKw":0,"isMegawatt":false,"status":"AVAILABLE","source":"ndw","priceKwh":0.37}},{"type":"Feature","geometry":{"type":"Point","coordinates":[4.64506,52.0264]},"properties":{"type":"charge","layer":"passenger","locationId":"66fbaa2c-f8b3-11f0-a0e4-42010aa400b8","name":"EQUANS SGZH 2.0 Rietvoorn (t.h.v. Blauwband 58)","address":"Rietvoorn","city":"Waddinxveen","operatorName":"EQUANS","maxPowerKw":0,"isMegawatt":false,"status":"AVAILABLE","source":"ndw","priceKwh":0.37}},{"type":"Feature","geometry":{"type":"Point","coordinates":[4.63922,52.02737]},"properties":{"type":"charge","layer":"passenger","locationId":"b9d5cb40-ae00-11f0-9767-42010aa400b8","name":"EQUANS SGZH 2.0 Laan van Hout 101","address":"Laan van Hout 101","city":"2742NW","operatorName":"EQUANS","maxPowerKw":0,"isMegawatt":false,"status":"AVAILABLE","source":"ndw","priceKwh":0.37}},{"type":"Feature","geometry":{"type":"Point","coordinates":[4.64405,52.05538]},"properties":{"type":"charge","layer":"passenger","locationId":"e0e12d4c-9894-11ef-bd0b-42010aa400b8","name":"EQUANS SGZH 2.0 Wingerd 66","address":"Wingerd 66","city":"Waddinxveen","operatorName":"EQUANS","maxPowerKw":0,"isMegawatt":false,"status":"AVAILABLE","source":"ndw","priceKwh":0.37}},{"type":"Feature","geometry":{"type":"Point","coordinates":[4.65464,52.03604]},"properties":{"type":"charge","layer":"passenger","locationId":"000363ce-4188-11f0-b20e-42010aa400b8","name":"EQUANS SGZH 2.0 Mercuriusweg 4","address":"Mercuriusweg 4","city":"Waddinxveen","operatorName":"EQUANS","maxPowerKw":0,"isMegawatt":false,"status":"AVAILABLE","source":"ndw","priceKwh":0.37}},{"type":"Feature","geometry":{"type":"Point","coordinates":[4.650492,52.05419]},"properties":{"type":"charge","layer":"passenger","locationId":"3b986318-4093-11ef-873c-42010aa400b8","name":"EQUANS SGZH 2.0 Jan Luykenstraat 6","address":"Jan Luykenstraat 6","city":"Waddinxveen","operatorName":"EQUANS","maxPowerKw":0,"isMegawatt":false,"status":"AVAILABLE","source":"ndw","priceKwh":0.37}},{"type":"Feature","geometry":{"type":"Point","coordinates":[4.62873,52.03541]},"properties":{"type":"charge","layer":"passenger","locationId":"663c1692-b8ce-11ef-b112-42010aa400b8","name":"EQUANS SGZH 2.0 Orion 8","address":"Orion 8","city":"Waddinxveen","operatorName":"EQUANS","maxPowerKw":0,"isMegawatt":false,"status":"AVAILABLE","source":"ndw","priceKwh":0.37}},{"type":"Feature","geometry":{"type":"Point","coordinates":[4.64756,52.05495]},"properties":{"type":"charge","layer":"passenger","locationId":"b63a08c0-5be6-11ee-8206-42010aa40fc0","name":"EQUANS SGZH 2.0 89942901","address":"Sparrengaarde 33","city":"Waddinxveen","operatorName":"EQUANS","maxPowerKw":0,"isMegawatt":false,"status":"AVAILABLE","source":"ndw","priceKwh":0.37}},{"type":"Feature","geometry":{"type":"Point","coordinates":[4.642746,52.038568]},"properties":{"type":"charge","layer":"passenger","locationId":"faee3612-a0de-11ed-8c35-42010aa40fc0","name":"EQUANS SGZH 2.0 89238566","address":"Fazantdreef 22","city":"Waddinxveen","operatorName":"EQUANS","maxPowerKw":0,"isMegawatt":false,"status":"AVAILABLE","source":"ndw","priceKwh":0.37}},{"type":"Feature","geometry":{"type":"Point","coordinates":[4.631158,52.033627]},"properties":{"type":"charge","layer":"passenger","locationId":"NLLOC005345","name":"NLD, Zonnehof 54 2743LP Waddinxveen","address":"Zonnehof 54","city":"Waddinxveen","operatorName":"Allego","maxPowerKw":0,"isMegawatt":false,"status":"AVAILABLE","source":"ndw","priceKwh":0.511}},{"type":"Feature","geometry":{"type":"Point","coordinates":[4.64506,52.0264]},"properties":{"type":"charge","layer":"passenger","locationId":"91305623","name":"EQUANS SGZH 2.0 Rietvoorn (t.h.v. Blauwband 58)","address":"Rietvoorn","city":"Waddinxveen","operatorName":"EQUANS","maxPowerKw":0,"isMegawatt":false,"status":"AVAILABLE","source":"ndw"}},{"type":"Feature","geometry":{"type":"Point","coordinates":[4.65368,52.027705]},"properties":{"type":"charge","layer":"passenger","locationId":"69d8b43e17a88b10938c986b","name":"de Kruijf Trappen 2.2","address":"Coenecoop 79","city":"Waddinxveen","operatorName":"E-Flux by Road","maxPowerKw":22,"isMegawatt":false,"status":"AVAILABLE","source":"ndw","priceKwh":0.53}},{"type":"Feature","geometry":{"type":"Point","coordinates":[4.653831,52.028465]},"properties":{"type":"charge","layer":"passenger","locationId":"2745493","name":"Laadnet CC87A-01","address":"Coenecoop 87a","city":"Waddinxveen","operatorName":"Laadnet","maxPowerKw":22,"isMegawatt":false,"status":"UNAVAILABLE","source":"ndw"}},{"type":"Feature","geometry":{"type":"Point","coordinates":[4.64448,52.036276]},"properties":{"type":"charge","layer":"passenger","locationId":"37801be8-1cd5-11ec-a179-42010a840003","name":"NL, Tuinbouwweg 2A, 2742 KP Waddinxveen","address":"Tuinbouwweg 2A","city":"Waddinxveen","operatorName":"Allego","maxPowerKw":0,"isMegawatt":false,"status":"AVAILABLE","source":"ndw"}},{"type":"Feature","geometry":{"type":"Point","coordinates":[4.646175,52.039573]},"properties":{"type":"charge","layer":"passenger","locationId":"f0540f2c-4f3c-11e8-878d-42010a840002","name":"NL, Limaweg 49, 2743 CC Waddinxveen","address":"Limaweg 49","city":"Waddinxveen","operatorName":"Allego","maxPowerKw":0,"isMegawatt":false,"status":"CHARGING","source":"ndw"}},{"type":"Feature","geometry":{"type":"Point","coordinates":[4.645151,52.047345]},"properties":{"type":"charge","layer":"passenger","locationId":"7fd5d578-4f3c-11e8-a485-42010a840002","name":"NLD, Waddinxveen, Mozartlaan 18","address":"Mozartlaan 18","city":"Waddinxveen","operatorName":"Allego","maxPowerKw":0,"isMegawatt":false,"status":"AVAILABLE","source":"ndw"}},{"type":"Feature","geometry":{"type":"Point","coordinates":[4.655157,52.056408]},"properties":{"type":"charge","layer":"passenger","locationId":"833aa1da-4f3c-11e8-95e7-42010a840002","name":"NLD, Waddinxveen, H. Heijermanslaan 12","address":"H. Heijermanslaan 12","city":"Waddinxveen","operatorName":"Allego","maxPowerKw":0,"isMegawatt":false,"status":"AVAILABLE","source":"ndw"}},{"type":"Feature","geometry":{"type":"Point","coordinates":[4.653604,52.053276]},"properties":{"type":"charge","layer":"passenger","locationId":"90af59be-4f3c-11e8-98df-42010a840002","name":"NLD, Waddinxveen, Willem de Rijkelaan 182","address":"Willem de Rijkelaan 182","city":"Waddinxveen","operatorName":"Allego","maxPowerKw":0,"isMegawatt":false,"status":"UNAVAILABLE","source":"ndw"}},{"type":"Feature","geometry":{"type":"Point","coordinates":[4.64838,52.05198]},"properties":{"type":"charge","layer":"passenger","locationId":"1d3828d2-a496-11f0-b3ed-42010aa400b8","name":"EQUANS SGZH 2.0 Peppelhorst 8","address":"Peppelhorst 8","city":"Waddinxveen","operatorName":"EQUANS","maxPowerKw":0,"isMegawatt":false,"status":"AVAILABLE","source":"ndw","priceKwh":0.37}},{"type":"Feature","geometry":{"type":"Point","coordinates":[4.643746,52.053617]},"properties":{"type":"charge","layer":"passenger","locationId":"1e1649b4-e21b-11ec-9587-42010aa40fc0","name":"EQUANS SGZH 2.0 89242404","address":"Peuleyen 186","city":"Waddinxveen","operatorName":"EQUANS","maxPowerKw":0,"isMegawatt":false,"status":"AVAILABLE","source":"ndw","priceKwh":0.37}},{"type":"Feature","geometry":{"type":"Point","coordinates":[4.663036,52.056755]},"properties":{"type":"charge","layer":"passenger","locationId":"4aedece2-dcc6-11ee-93ba-42010aa400b8","name":"EQUANS SGZH 2.0 Noordkade 239","address":"Noordkade 239","city":"Waddinxveen","operatorName":"EQUANS","maxPowerKw":0,"isMegawatt":false,"status":"AVAILABLE","source":"ndw","priceKwh":0.37}},{"type":"Feature","geometry":{"type":"Point","coordinates":[4.633675,52.038505]},"properties":{"type":"charge","layer":"passenger","locationId":"d5bf8214-67ae-11e9-8af8-42010a840003","name":"NLD Woubrechterf 36, 2743 HM Waddinxveen","address":"Woubrechterf 36","city":"Waddinxveen","operatorName":"Allego","maxPowerKw":0,"isMegawatt":false,"status":"AVAILABLE","source":"ndw"}},{"type":"Feature","geometry":{"type":"Point","coordinates":[4.653538,52.046324]},"properties":{"type":"charge","layer":"passenger","locationId":"90256692","name":"EQUANS SGZH 2.0 Prins Bernhardlaan 2","address":"Prins Bernhardlaan 2","city":"Waddinxveen","operatorName":"EQUANS","maxPowerKw":0,"isMegawatt":false,"status":"AVAILABLE","source":"ndw"}},{"type":"Feature","geometry":{"type":"Point","coordinates":[4.652664,52.025742]},"properties":{"type":"charge","layer":"passenger","locationId":"NLCPIL7234935","name":"LKQ NL WADDINXVEEN 3","address":"320 Coenecoop","city":"Waddinxveen","operatorName":"ChargePoint","maxPowerKw":22,"isMegawatt":false,"status":"CHARGING","source":"ndw","priceKwh":0.5}},{"type":"Feature","geometry":{"type":"Point","coordinates":[4.644534,52.030152]},"properties":{"type":"charge","layer":"passenger","locationId":"52e72aa0-1bab-11ec-8312-42010a840003","name":"NLD Johan Zocherstraat 45, 2742 MS Waddinxveen","address":"Johan Zocherstraat 45","city":"Waddinxveen","operatorName":"Allego","maxPowerKw":0,"isMegawatt":false,"status":"CHARGING","source":"ndw"}},{"type":"Feature","geometry":{"type":"Point","coordinates":[4.658777,52.045662]},"properties":{"type":"charge","layer":"passenger","locationId":"73e375ae-f0ff-11ec-ab06-42010aa40fc0","name":"NL, Nesse 1, 2741 ES Waddinxveen","address":"Nesse 1","city":"Waddinxveen","operatorName":"Allego","maxPowerKw":0,"isMegawatt":false,"status":"AVAILABLE","source":"ndw"}},{"type":"Feature","geometry":{"type":"Point","coordinates":[4.650621,52.045351]},"properties":{"type":"charge","layer":"passenger","locationId":"0f4e746e-2c03-11e9-95b1-42010a840003","name":"NLD Passage 58, 2741GN Waddinxveen","address":"Passage 58","city":"Waddinxveen","operatorName":"Allego","maxPowerKw":0,"isMegawatt":false,"status":"AVAILABLE","source":"ndw"}},{"type":"Feature","geometry":{"type":"Point","coordinates":[4.636209,52.03881]},"properties":{"type":"charge","layer":"passenger","locationId":"89192973","name":"EQUANS SGZH 2.0 89192973","address":"Zuidplaslaan 114","city":"Waddinxveen","operatorName":"EQUANS","maxPowerKw":0,"isMegawatt":false,"status":"CHARGING","source":"ndw"}},{"type":"Feature","geometry":{"type":"Point","coordinates":[4.640377,52.0456]},"properties":{"type":"charge","layer":"passenger","locationId":"5fcb4862-9412-11eb-8518-42010a840003","name":"NL, Veenkade 5, 2742 AM, Waddinxveen","address":"Veenkade 5","city":"Waddinxveen","operatorName":"Allego","maxPowerKw":0,"isMegawatt":false,"status":"AVAILABLE","source":"ndw"}},{"type":"Feature","geometry":{"type":"Point","coordinates":[4.64745,52.054017]},"properties":{"type":"charge","layer":"passenger","locationId":"94fa8444-4f3c-11e8-a873-42010a840002","name":"NLD, Waddinxveen, Sparrengaarde 7","address":"Sparrengaarde 7","city":"Waddinxveen","operatorName":"Allego","maxPowerKw":0,"isMegawatt":false,"status":"AVAILABLE","source":"ndw"}},{"type":"Feature","geometry":{"type":"Point","coordinates":[4.656344,52.038868]},"properties":{"type":"charge","layer":"passenger","locationId":"ec9dc14e-8a67-11ea-8f69-42010a840003","name":"NL, Watermolen 14, 2741 MP, Waddinxveen","address":"Watermolen 14","city":"Waddinxveen","operatorName":"Allego","maxPowerKw":0,"isMegawatt":false,"status":"AVAILABLE","source":"ndw"}},{"type":"Feature","geometry":{"type":"Point","coordinates":[4.651145,52.036467]},"properties":{"type":"charge","layer":"passenger","locationId":"4226278","name":"Laadnet Bouwacademie Groene Hart","address":"Kanaaldijk 11","city":"Waddinxveen","operatorName":"Laadnet","maxPowerKw":22,"isMegawatt":false,"status":"AVAILABLE","source":"ndw"}},{"type":"Feature","geometry":{"type":"Point","coordinates":[4.627794,52.035667]},"properties":{"type":"charge","layer":"passenger","locationId":"784e20c6-4f3c-11e8-9fb7-42010a840002","name":"NLD, Waddinxveen, Galilei 12","address":"Galilei 12","city":"Waddinxveen","operatorName":"Allego","maxPowerKw":0,"isMegawatt":false,"status":"AVAILABLE","source":"ndw"}},{"type":"Feature","geometry":{"type":"Point","coordinates":[4.639774,52.038172]},"properties":{"type":"charge","layer":"passenger","locationId":"b964b8fa-2c8c-11ec-8c55-42010a840003","name":"NL, Graanakker 110, 2743 EL Waddinxveen","address":"Graanakker 110","city":"Waddinxveen","operatorName":"Allego","maxPowerKw":0,"isMegawatt":false,"status":"AVAILABLE","source":"ndw"}},{"type":"Feature","geometry":{"type":"Point","coordinates":[4.638556,52.041543]},"properties":{"type":"charge","layer":"passenger","locationId":"50268cae-8268-11ee-a680-42010aa40fc0","name":"EQUANS SGZH 2.0 Machtelderf 2","address":"Machtelderf 2","city":"Waddinxveen","operatorName":"EQUANS","maxPowerKw":0,"isMegawatt":false,"status":"AVAILABLE","source":"ndw","priceKwh":0.37}},{"type":"Feature","geometry":{"type":"Point","coordinates":[4.648228,52.03555]},"properties":{"type":"charge","layer":"passenger","locationId":"446791b2-1d6a-11eb-8785-42010a840003","name":"NL, Molenzigt 2, 2742PH, Waddinxveen","address":"Molenzigt 2","city":"Waddinxveen","operatorName":"Allego","maxPowerKw":0,"isMegawatt":false,"status":"AVAILABLE","source":"ndw"}},{"type":"Feature","geometry":{"type":"Point","coordinates":[4.6446,52.03237]},"properties":{"type":"charge","layer":"passenger","locationId":"9ef76912-26d0-11f0-a2be-42010aa400b8","name":"EQUANS SGZH 2.0 Ganzerik 114","address":"Ganzerik 114","city":"Waddinxveen","operatorName":"EQUANS","maxPowerKw":0,"isMegawatt":false,"status":"AVAILABLE","source":"ndw","priceKwh":0.37}},{"type":"Feature","geometry":{"type":"Point","coordinates":[4.655522,52.038151]},"properties":{"type":"charge","layer":"passenger","locationId":"d5edcd9a-64b5-11ef-aa38-42010aa400b8","name":"EQUANS SGZH 2.0 89940126","address":"Walsmolen 2","city":"Waddinxveen","operatorName":"EQUANS","maxPowerKw":0,"isMegawatt":false,"status":"AVAILABLE","source":"ndw","priceKwh":0.37}},{"type":"Feature","geometry":{"type":"Point","coordinates":[4.638271,52.039304]},"properties":{"type":"charge","layer":"passenger","locationId":"82b41cec-57c9-11ed-9433-42010aa4001c","name":"EQUANS SGZH 2.0 89329938","address":"Graanakker 28","city":"Waddinxveen","operatorName":"EQUANS","maxPowerKw":0,"isMegawatt":false,"status":"AVAILABLE","source":"ndw","priceKwh":0.37}},{"type":"Feature","geometry":{"type":"Point","coordinates":[4.650093,52.04148]},"properties":{"type":"charge","layer":"passenger","locationId":"5e09c0c6-4f3c-11e8-b060-42010a840002","name":"NLD, Waddinxveen, Spoorpad 160","address":"Spoorpad 160","city":"Waddinxveen","operatorName":"Allego","maxPowerKw":0,"isMegawatt":false,"status":"AVAILABLE","source":"ndw"}},{"type":"Feature","geometry":{"type":"Point","coordinates":[4.646,52.03134]},"properties":{"type":"charge","layer":"passenger","locationId":"91167876","name":"EQUANS SGZH 2.0 Hugo Poortmanstraat 9","address":"Hugo Poortmanstraat 9","city":"Waddinxveen","operatorName":"EQUANS","maxPowerKw":0,"isMegawatt":false,"status":"AVAILABLE","source":"ndw"}},{"type":"Feature","geometry":{"type":"Point","coordinates":[4.657859,52.043352]},"properties":{"type":"charge","layer":"passenger","locationId":"f2040e2e-8d57-11f0-b72d-42010aa400b8","name":"NL, Raadhuisplein 1, 2741 HR, Waddinxveen","address":"Raadhuisplein 1","city":"Waddinxveen","operatorName":"Allego","maxPowerKw":0,"isMegawatt":false,"status":"AVAILABLE","source":"ndw"}},{"type":"Feature","geometry":{"type":"Point","coordinates":[4.636917,52.034756]},"properties":{"type":"charge","layer":"passenger","locationId":"18264cc2-5245-11ec-b146-42010a840003","name":"NL, Kuyperhoeve 31, 2743JM, Waddinxveen","address":"Kuyperhoeve 31","city":"Waddinxveen","operatorName":"Allego","maxPowerKw":0,"isMegawatt":false,"status":"AVAILABLE","source":"ndw"}},{"type":"Feature","geometry":{"type":"Point","coordinates":[4.652629,52.04689]},"properties":{"type":"charge","layer":"passenger","locationId":"842defda-55fd-11ed-8dca-42010aa40fc0","name":"EQUANS SGZH 2.0 Prins Bernhardlaan 79","address":"Prins Bernhardlaan 79","city":"Waddinxveen","operatorName":"EQUANS","maxPowerKw":0,"isMegawatt":false,"status":"CHARGING","source":"ndw","priceKwh":0.37}},{"type":"Feature","geometry":{"type":"Point","coordinates":[4.661455,52.056374]},"properties":{"type":"charge","layer":"passenger","locationId":"6bea1c04-4f3c-11e8-8bf5-42010a840002","name":"NLD, Willem Kloosstraat 2, Waddinxveen","address":"Willem Kloosstraat 2","city":"Waddinxveen","operatorName":"Allego","maxPowerKw":0,"isMegawatt":false,"status":"AVAILABLE","source":"ndw"}},{"type":"Feature","geometry":{"type":"Point","coordinates":[4.639929,52.033147]},"properties":{"type":"charge","layer":"passenger","locationId":"142b5042-8102-11ef-aeae-42010aa400b8","name":"EQUANS SGZH 2.0 Honingbij 41A","address":"Honingbij 41A","city":"Waddinxveen","operatorName":"EQUANS","maxPowerKw":0,"isMegawatt":false,"status":"AVAILABLE","source":"ndw","priceKwh":0.37}},{"type":"Feature","geometry":{"type":"Point","coordinates":[4.648654,52.046331]},"properties":{"type":"charge","layer":"passenger","locationId":"6db0f8ac-40be-11f0-b464-42010aa400b8","name":"EQUANS SGZH 2.0 Peter Zuidlaan 19","address":"Peter Zuidlaan 19","city":"Waddinxveen","operatorName":"EQUANS","maxPowerKw":0,"isMegawatt":false,"status":"AVAILABLE","source":"ndw","priceKwh":0.37}},{"type":"Feature","geometry":{"type":"Point","coordinates":[4.636382,52.040685]},"properties":{"type":"charge","layer":"passenger","locationId":"8a74d8e6-0187-11ee-86e9-42010aa40fc0","name":"EQUANS SGZH 2.0 89637099","address":"Nicolaaserf 11","city":"Waddinxveen","operatorName":"EQUANS","maxPowerKw":0,"isMegawatt":false,"status":"AVAILABLE","source":"ndw","priceKwh":0.37}},{"type":"Feature","geometry":{"type":"Point","coordinates":[4.655164,52.048852]},"properties":{"type":"charge","layer":"passenger","locationId":"d1e9b864-db33-11ee-ab69-42010aa40fc0","name":"EQUANS SGZH 2.0 Koning Willem II-straat 2","address":"Koning Willem II-straat 2","city":"Waddinxveen","operatorName":"EQUANS","maxPowerKw":0,"isMegawatt":false,"status":"AVAILABLE","source":"ndw","priceKwh":0.37}},{"type":"Feature","geometry":{"type":"Point","coordinates":[4.649262,52.054209]},"properties":{"type":"charge","layer":"passenger","locationId":"fafd11d2-2fb4-11ed-8a12-42010aa40fc0","name":"EQUANS SGZH 2.0 89306819","address":"Tesselschadelaan 30","city":"Waddinxveen","operatorName":"EQUANS","maxPowerKw":0,"isMegawatt":false,"status":"AVAILABLE","source":"ndw","priceKwh":0.37}},{"type":"Feature","geometry":{"type":"Point","coordinates":[4.645062,52.057506]},"properties":{"type":"charge","layer":"passenger","locationId":"89bc88cc-da3b-11ed-82a9-42010aa40fc0","name":"EQUANS SGZH 2.0 89596221","address":"Papaverveld 25","city":"Waddinxveen","operatorName":"EQUANS","maxPowerKw":0,"isMegawatt":false,"status":"AVAILABLE","source":"ndw","priceKwh":0.37}},{"type":"Feature","geometry":{"type":"Point","coordinates":[4.655704,52.049926]},"properties":{"type":"charge","layer":"passenger","locationId":"aefd583a-3400-11ef-8a53-42010aa400b8","name":"EQUANS SGZH 2.0 Mauritslaan 26","address":"Mauritslaan 26","city":"Waddinxveen","operatorName":"EQUANS","maxPowerKw":0,"isMegawatt":false,"status":"AVAILABLE","source":"ndw","priceKwh":0.37}},{"type":"Feature","geometry":{"type":"Point","coordinates":[4.657346,52.033103]},"properties":{"type":"charge","layer":"passenger","locationId":"76a5ef90-dbec-11ee-9351-42010aa400b8","name":"NLD, Waddinxveen, Jupiterlaan 9","address":"Jupiterlaan 9","city":"Waddinxveen","operatorName":"Allego","maxPowerKw":0,"isMegawatt":false,"status":"AVAILABLE","source":"ndw"}},{"type":"Feature","geometry":{"type":"Point","coordinates":[4.633431,52.036337]},"properties":{"type":"charge","layer":"passenger","locationId":"f61725ea-208e-11eb-a5dc-42010a840003","name":"NL, Aletta Jacobshoeve 11, 2743JA, Waddinxveen","address":"Aletta Jacobshoeve 11","city":"Waddinxveen","operatorName":"Allego","maxPowerKw":0,"isMegawatt":false,"status":"AVAILABLE","source":"ndw"}},{"type":"Feature","geometry":{"type":"Point","coordinates":[4.639847,52.032354]},"properties":{"type":"charge","layer":"passenger","locationId":"6804c4fe8a039ab451f7eb0f","name":"Zaptec (73)","address":"Polderlaan 177","city":"Waddinxveen","operatorName":"E-Flux by Road","maxPowerKw":22,"isMegawatt":false,"status":"UNAVAILABLE","source":"ndw"}},{"type":"Feature","geometry":{"type":"Point","coordinates":[4.655164,52.048852]},"properties":{"type":"charge","layer":"passenger","locationId":"90195825","name":"EQUANS SGZH 2.0 Koning Willem II-straat 2","address":"Koning Willem II-straat 2","city":"Waddinxveen","operatorName":"EQUANS","maxPowerKw":0,"isMegawatt":false,"status":"CHARGING","source":"ndw"}},{"type":"Feature","geometry":{"type":"Point","coordinates":[4.610758,52.026351]},"properties":{"type":"charge","layer":"passenger","locationId":"61c0fa24-4f88-11ea-90f4-42010a840003","name":"NL, Arie Kempkesweg 80, 2742JV, Waddinxveen","address":"Arie Kempkesweg 80","city":"Waddinxveen","operatorName":"Allego","maxPowerKw":0,"isMegawatt":false,"status":"AVAILABLE","source":"ndw"}},{"type":"Feature","geometry":{"type":"Point","coordinates":[4.656376,52.049318]},"properties":{"type":"charge","layer":"passenger","locationId":"65b767c8-3af1-11e9-a138-42010a840003","name":"NLD Prins Alexanderstraat 2, 2741 CR Waddinxveen","address":"Prins Alexanderstraat 2","city":"Waddinxveen","operatorName":"Allego","maxPowerKw":0,"isMegawatt":false,"status":"AVAILABLE","source":"ndw"}},{"type":"Feature","geometry":{"type":"Point","coordinates":[4.641104,52.046836]},"properties":{"type":"charge","layer":"passenger","locationId":"b01942c4-4f3c-11e8-9465-42010a840002","name":"NLD Polderkade 2, 2742KW Waddinxveen","address":"Polderkade 2","city":"Waddinxveen","operatorName":"Allego","maxPowerKw":0,"isMegawatt":false,"status":"AVAILABLE","source":"ndw"}},{"type":"Feature","geometry":{"type":"Point","coordinates":[4.641335,52.025932]},"properties":{"type":"charge","layer":"passenger","locationId":"b6549528-5be6-11ee-9ce2-42010aa40fc0","name":"EQUANS SGZH 2.0 89942902","address":"Grenenhout 1","city":"Waddinxveen","operatorName":"EQUANS","maxPowerKw":0,"isMegawatt":false,"status":"AVAILABLE","source":"ndw","priceKwh":0.37}},{"type":"Feature","geometry":{"type":"Point","coordinates":[4.62742,52.03522]},"properties":{"type":"charge","layer":"passenger","locationId":"191eb80a-4641-11f0-8646-42010aa400b8","name":"EQUANS SGZH 2.0 Phoenix 9","address":"Phoenix 9","city":"Waddinxveen","operatorName":"EQUANS","maxPowerKw":0,"isMegawatt":false,"status":"AVAILABLE","source":"ndw","priceKwh":0.37}},{"type":"Feature","geometry":{"type":"Point","coordinates":[4.646842,52.033741]},"properties":{"type":"charge","layer":"passenger","locationId":"96e0bcee-5be6-11ee-b334-42010aa40fc0","name":"EQUANS SGZH 2.0 89927125","address":"Ganzerik 42","city":"Waddinxveen","operatorName":"EQUANS","maxPowerKw":0,"isMegawatt":false,"status":"AVAILABLE","source":"ndw","priceKwh":0.37}},{"type":"Feature","geometry":{"type":"Point","coordinates":[4.635103,52.039558]},"properties":{"type":"charge","layer":"passenger","locationId":"c5250746-8d68-11ee-a05d-42010aa40fc0","name":"EQUANS SGZH 2.0 89954361","address":"Otto-erf 11","city":"Waddinxveen","operatorName":"EQUANS","maxPowerKw":0,"isMegawatt":false,"status":"UNAVAILABLE","source":"ndw","priceKwh":0.37}},{"type":"Feature","geometry":{"type":"Point","coordinates":[4.643714,52.052422]},"properties":{"type":"charge","layer":"passenger","locationId":"d9de1442-a5f0-11ef-8a26-42010aa400b8","name":"EQUANS SGZH 2.0 Peuleyen 110","address":"Peuleyen 110","city":"Waddinxveen","operatorName":"EQUANS","maxPowerKw":0,"isMegawatt":false,"status":"AVAILABLE","source":"ndw","priceKwh":0.37}},{"type":"Feature","geometry":{"type":"Point","coordinates":[4.653593,52.056931]},"properties":{"type":"charge","layer":"passenger","locationId":"dac16a46-da96-11ef-9d8a-42010aa400b8","name":"EQUANS SGZH 2.0 Nic. Beetslaan 25","address":"Nic. Beetslaan 25","city":"Waddinxveen","operatorName":"EQUANS","maxPowerKw":0,"isMegawatt":false,"status":"AVAILABLE","source":"ndw","priceKwh":0.37}},{"type":"Feature","geometry":{"type":"Point","coordinates":[4.645974,52.04833]},"properties":{"type":"charge","layer":"passenger","locationId":"f8fe4c2a-8101-11ef-9e1c-42010aa400b8","name":"EQUANS SGZH 2.0 Sweelinckhof 30","address":"Sweelinckhof 30","city":"Waddinxveen","operatorName":"EQUANS","maxPowerKw":0,"isMegawatt":false,"status":"AVAILABLE","source":"ndw","priceKwh":0.37}},{"type":"Feature","geometry":{"type":"Point","coordinates":[4.648778,52.034232]},"properties":{"type":"charge","layer":"passenger","locationId":"0b3d21be-1465-11ee-805d-42010aa40fc0","name":"EQUANS SGZH 2.0 89877075","address":"Graan voor Visch 61","city":"Waddinxveen","operatorName":"EQUANS","maxPowerKw":0,"isMegawatt":false,"status":"AVAILABLE","source":"ndw","priceKwh":0.37}},{"type":"Feature","geometry":{"type":"Point","coordinates":[4.644879,52.023719]},"properties":{"type":"charge","layer":"passenger","locationId":"84509d82-55fd-11ed-93d9-42010aa40fc0","name":"EQUANS SGZH 2.0 89329935","address":"Zonnebaars 31","city":"Waddinxveen","operatorName":"EQUANS","maxPowerKw":0,"isMegawatt":false,"status":"AVAILABLE","source":"ndw","priceKwh":0.37}},{"type":"Feature","geometry":{"type":"Point","coordinates":[4.646,52.03134]},"properties":{"type":"charge","layer":"passenger","locationId":"05103b0e-a55f-11f0-9f02-42010aa400b8","name":"EQUANS SGZH 2.0 Hugo Poortmanstraat 9","address":"Hugo Poortmanstraat 9","city":"Waddinxveen","operatorName":"EQUANS","maxPowerKw":0,"isMegawatt":false,"status":"AVAILABLE","source":"ndw","priceKwh":0.37}},{"type":"Feature","geometry":{"type":"Point","coordinates":[4.636209,52.03881]},"properties":{"type":"charge","layer":"passenger","locationId":"2a51f51a-a1c1-11ec-8a1c-42010a840003","name":"EQUANS SGZH 2.0 89192973","address":"Zuidplaslaan 114","city":"Waddinxveen","operatorName":"EQUANS","maxPowerKw":0,"isMegawatt":false,"status":"CHARGING","source":"ndw","priceKwh":0.37}},{"type":"Feature","geometry":{"type":"Point","coordinates":[4.64655,52.03786]},"properties":{"type":"charge","layer":"passenger","locationId":"39ef5d86-b73b-11ef-bb64-42010aa400b8","name":"EQUANS SGZH 2.0 Kapiteel 35","address":"Kapiteel 35","city":"Waddinxveen","operatorName":"EQUANS","maxPowerKw":0,"isMegawatt":false,"status":"AVAILABLE","source":"ndw","priceKwh":0.37}},{"type":"Feature","geometry":{"type":"Point","coordinates":[4.648477,52.051427]},"properties":{"type":"charge","layer":"passenger","locationId":"7d5ce028-a940-11f0-8171-42010aa400b8","name":"EQUANS SGZH 2.0 89329941","address":"Peppelhorst 5","city":"Waddinxveen","operatorName":"EQUANS","maxPowerKw":0,"isMegawatt":false,"status":"AVAILABLE","source":"ndw","priceKwh":0.37}},{"type":"Feature","geometry":{"type":"Point","coordinates":[4.648236,52.02813]},"properties":{"type":"charge","layer":"passenger","locationId":"95629c06-a1c1-11ec-ab6a-42010a840003","name":"EQUANS SGZH 2.0 89203122","address":"Dubbelspoor 55","city":"Waddinxveen","operatorName":"EQUANS","maxPowerKw":0,"isMegawatt":false,"status":"AVAILABLE","source":"ndw","priceKwh":0.37}},{"type":"Feature","geometry":{"type":"Point","coordinates":[4.646887,52.030723]},"properties":{"type":"charge","layer":"passenger","locationId":"c6d4a59c-9386-11ed-8b36-42010aa40fc0","name":"EQUANS SGZH 2.0 89329937","address":"Renske Boonstraat 101","city":"Waddinxveen","operatorName":"EQUANS","maxPowerKw":0,"isMegawatt":false,"status":"AVAILABLE","source":"ndw","priceKwh":0.37}},{"type":"Feature","geometry":{"type":"Point","coordinates":[4.639185,52.031987]},"properties":{"type":"charge","layer":"passenger","locationId":"0acafe7e-db06-11ed-ae54-42010aa40fc0","name":"EQUANS SGZH 2.0 89407209","address":"Honingbij 73","city":"Waddinxveen","operatorName":"EQUANS","maxPowerKw":0,"isMegawatt":false,"status":"AVAILABLE","source":"ndw","priceKwh":0.37}},{"type":"Feature","geometry":{"type":"Point","coordinates":[4.643881,52.025345]},"properties":{"type":"charge","layer":"passenger","locationId":"201ae362-c377-11ed-b114-42010aa40fc0","name":"EQUANS SGZH 2.0 89445007","address":"Meerval 28","city":"Waddinxveen","operatorName":"EQUANS","maxPowerKw":0,"isMegawatt":false,"status":"AVAILABLE","source":"ndw","priceKwh":0.37}},{"type":"Feature","geometry":{"type":"Point","coordinates":[4.6575,52.03926]},"properties":{"type":"charge","layer":"passenger","locationId":"30cf174a-8f59-11f0-a804-42010aa400b8","name":"EQUANS SGZH 2.0 Papiermolen 58","address":"Papiermolen 58","city":"Waddinxveen","operatorName":"EQUANS","maxPowerKw":0,"isMegawatt":false,"status":"AVAILABLE","source":"ndw","priceKwh":0.37}},{"type":"Feature","geometry":{"type":"Point","coordinates":[4.65101,52.0465]},"properties":{"type":"charge","layer":"passenger","locationId":"5fb4663a-021a-11f1-8988-42010aa400b8","name":"EQUANS SGZH 2.0 Prinses Beatrixlaan 2","address":"Prinses Beatrixlaan 2","city":"Waddinxveen","operatorName":"EQUANS","maxPowerKw":0,"isMegawatt":false,"status":"AVAILABLE","source":"ndw","priceKwh":0.37}},{"type":"Feature","geometry":{"type":"Point","coordinates":[4.64263,52.05743]},"properties":{"type":"charge","layer":"passenger","locationId":"6df10f82-40be-11f0-8aab-42010aa400b8","name":"EQUANS SGZH 2.0 Weidezoom 88","address":"Weidezoom 88","city":"Waddinxveen","operatorName":"EQUANS","maxPowerKw":0,"isMegawatt":false,"status":"AVAILABLE","source":"ndw","priceKwh":0.37}},{"type":"Feature","geometry":{"type":"Point","coordinates":[4.652478,52.045165]},"properties":{"type":"charge","layer":"passenger","locationId":"aaa9e146-df4e-11ef-950e-42010aa400b8","name":"EQUANS SGZH 2.0 Passage 76","address":"Passage 76","city":"Waddinxveen","operatorName":"EQUANS","maxPowerKw":0,"isMegawatt":false,"status":"AVAILABLE","source":"ndw","priceKwh":0.37}},{"type":"Feature","geometry":{"type":"Point","coordinates":[4.641436,52.037458]},"properties":{"type":"charge","layer":"passenger","locationId":"32a8dc66-04ac-11ee-ac25-42010aa40fc0","name":"EQUANS SGZH 2.0 89604298","address":"de Akker 29","city":"Waddinxveen","operatorName":"EQUANS","maxPowerKw":0,"isMegawatt":false,"status":"AVAILABLE","source":"ndw","priceKwh":0.37}},{"type":"Feature","geometry":{"type":"Point","coordinates":[4.626915,52.034864]},"properties":{"type":"charge","layer":"passenger","locationId":"82c549fe-57c9-11ed-ba0b-42010aa4001c","name":"EQUANS SGZH 2.0 89329939","address":"Noorderlicht 5","city":"Waddinxveen","operatorName":"EQUANS","maxPowerKw":0,"isMegawatt":false,"status":"AVAILABLE","source":"ndw","priceKwh":0.37}},{"type":"Feature","geometry":{"type":"Point","coordinates":[4.640909,52.035358]},"properties":{"type":"charge","layer":"passenger","locationId":"e894eb62-ebb2-11e9-8289-42010a840003","name":"NLD De Akker 129 2743DT Waddinxveen","address":"NLD De Akker 129","city":"Waddinxveen","operatorName":"Allego","maxPowerKw":0,"isMegawatt":false,"status":"AVAILABLE","source":"ndw"}},{"type":"Feature","geometry":{"type":"Point","coordinates":[4.648618,52.04742]},"properties":{"type":"charge","layer":"passenger","locationId":"1950f8ec-e2e3-11ed-b5c2-42010aa40fc0","name":"EQUANS SGZH 2.0 89604296","address":"Peter Zuidlaan 6","city":"Waddinxveen","operatorName":"EQUANS","maxPowerKw":0,"isMegawatt":false,"status":"AVAILABLE","source":"ndw","priceKwh":0.37}},{"type":"Feature","geometry":{"type":"Point","coordinates":[4.63498,52.0323]},"properties":{"type":"charge","layer":"passenger","locationId":"2998475c-b3c0-11ed-b3fa-42010aa40fc0","name":"EQUANS SGZH 2.0 89472611","address":"Poolster 50","city":"Waddinxveen","operatorName":"EQUANS","maxPowerKw":0,"isMegawatt":false,"status":"CHARGING","source":"ndw","priceKwh":0.37}},{"type":"Feature","geometry":{"type":"Point","coordinates":[4.64073,52.03637]},"properties":{"type":"charge","layer":"passenger","locationId":"4911e41c-e694-11f0-972a-42010aa400b8","name":"EQUANS SGZH 2.0 Bonenakker 30","address":"Bonenakker 30","city":"Waddinxveen","operatorName":"EQUANS","maxPowerKw":0,"isMegawatt":false,"status":"AVAILABLE","source":"ndw","priceKwh":0.37}},{"type":"Feature","geometry":{"type":"Point","coordinates":[4.648085,52.042499]},"properties":{"type":"charge","layer":"passenger","locationId":"5715c816-ce04-11ef-9293-42010aa400b8","name":"EQUANS SGZH 2.0 Leplaan (t.h.v. Eikenlaan 54)","address":"Leplaan","city":"Waddinxveen","operatorName":"EQUANS","maxPowerKw":0,"isMegawatt":false,"status":"AVAILABLE","source":"ndw","priceKwh":0.37}},{"type":"Feature","geometry":{"type":"Point","coordinates":[4.63256,52.031566]},"properties":{"type":"charge","layer":"passenger","locationId":"73103daa-a0e1-11ed-8d84-42010aa40fc0","name":"EQUANS SGZH 2.0 89402503","address":"Meteorenweg 2 a","city":"Waddinxveen","operatorName":"EQUANS","maxPowerKw":0,"isMegawatt":false,"status":"AVAILABLE","source":"ndw","priceKwh":0.37}},{"type":"Feature","geometry":{"type":"Point","coordinates":[4.632117,52.034496]},"properties":{"type":"charge","layer":"passenger","locationId":"9740543a-eb87-11ed-9266-42010aa40fc0","name":"EQUANS SGZH 2.0 89604295","address":"Zonnehof 100","city":"Waddinxveen","operatorName":"EQUANS","maxPowerKw":0,"isMegawatt":false,"status":"AVAILABLE","source":"ndw","priceKwh":0.37}},{"type":"Feature","geometry":{"type":"Point","coordinates":[4.638255,52.038288]},"properties":{"type":"charge","layer":"passenger","locationId":"ecfdb33e-58c1-11ee-92eb-42010aa40fc0","name":"EQUANS SGZH 2.0 89954360","address":"Graanakker 51","city":"Waddinxveen","operatorName":"EQUANS","maxPowerKw":0,"isMegawatt":false,"status":"AVAILABLE","source":"ndw","priceKwh":0.37}},{"type":"Feature","geometry":{"type":"Point","coordinates":[4.654537,52.040382]},"properties":{"type":"charge","layer":"passenger","locationId":"ffe38ad6-4187-11f0-8b2a-42010aa400b8","name":"EQUANS SGZH 2.0 Oostpolderweg 47","address":"Oostpolderweg 47","city":"Waddinxveen","operatorName":"EQUANS","maxPowerKw":0,"isMegawatt":false,"status":"AVAILABLE","source":"ndw","priceKwh":0.37}},{"type":"Feature","geometry":{"type":"Point","coordinates":[4.656914,52.033553]},"properties":{"type":"charge","layer":"passenger","locationId":"215cece8-ee36-11ea-8ea8-42010a840003","name":"NL, Jupiterlaan 1, 2741 TH, Waddinxveen","address":"Jupiterlaan 1","city":"Waddinxveen","operatorName":"Allego","maxPowerKw":0,"isMegawatt":false,"status":"CHARGING","source":"ndw"}},{"type":"Feature","geometry":{"type":"Point","coordinates":[4.64373,52.035537]},"properties":{"type":"charge","layer":"passenger","locationId":"abd4d8b0-56c6-11eb-ae01-42010a840003","name":"NL, Adrianahoeve 23, 2742 PL, Waddinxveen","address":"Adrianahoeve 23","city":"Waddinxveen","operatorName":"Allego","maxPowerKw":0,"isMegawatt":false,"status":"CHARGING","source":"ndw"}},{"type":"Feature","geometry":{"type":"Point","coordinates":[4.63604,52.03568]},"properties":{"type":"charge","layer":"passenger","locationId":"309bdbb6-bd84-11ef-8847-42010aa400b8","name":"EQUANS SGZH 2.0 Zuidplaslaan 393","address":"Zuidplaslaan 393","city":"Waddinxveen","operatorName":"EQUANS","maxPowerKw":0,"isMegawatt":false,"status":"AVAILABLE","source":"ndw","priceKwh":0.37}},{"type":"Feature","geometry":{"type":"Point","coordinates":[4.634034,52.037241]},"properties":{"type":"charge","layer":"passenger","locationId":"024a0736-eb87-11ed-a6b2-42010aa40fc0","name":"EQUANS SGZH 2.0 89455012","address":"Anna de Waalhoeve 35","city":"Waddinxveen","operatorName":"EQUANS","maxPowerKw":0,"isMegawatt":false,"status":"AVAILABLE","source":"ndw","priceKwh":0.37}},{"type":"Feature","geometry":{"type":"Point","coordinates":[4.653366,52.051134]},"properties":{"type":"charge","layer":"passenger","locationId":"f43e83ea-55fb-11ed-af65-42010aa40fc0","name":"EQUANS SGZH 2.0 89215305","address":"Koningin Wilhelminasingel 44","city":"Waddinxveen","operatorName":"EQUANS","maxPowerKw":0,"isMegawatt":false,"status":"AVAILABLE","source":"ndw","priceKwh":0.37}},{"type":"Feature","geometry":{"type":"Point","coordinates":[4.652276,52.04893]},"properties":{"type":"charge","layer":"passenger","locationId":"3a5dd25e-f618-11ef-b379-42010aa400b8","name":"EQUANS SGZH 2.0 Willem de Zwijgerlaan 62","address":"Willem de Zwijgerlaan 62","city":"Waddinxveen","operatorName":"EQUANS","maxPowerKw":0,"isMegawatt":false,"status":"AVAILABLE","source":"ndw","priceKwh":0.37}},{"type":"Feature","geometry":{"type":"Point","coordinates":[4.645437,52.032785]},"properties":{"type":"charge","layer":"passenger","locationId":"408fbb2a-2427-11e9-b50f-42010a840003","name":"NLD, Ganzerik 92, 2742MB Waddinxveen","address":"Ganzerik 92","city":"Waddinxveen","operatorName":"Allego","maxPowerKw":0,"isMegawatt":false,"status":"CHARGING","source":"ndw"}},{"type":"Feature","geometry":{"type":"Point","coordinates":[4.657376,52.032889]},"properties":{"type":"charge","layer":"passenger","locationId":"7f0974ec-4f3c-11e8-a778-42010a840002","name":"EQUANS SGZH 2.0 89596223","address":"Jupiterlaan 73","city":"Waddinxveen","operatorName":"EQUANS","maxPowerKw":0,"isMegawatt":false,"status":"AVAILABLE","source":"ndw","priceKwh":0.37}},{"type":"Feature","geometry":{"type":"Point","coordinates":[4.638612,52.035081]},"properties":{"type":"charge","layer":"passenger","locationId":"b6a33840-5be6-11ee-a993-42010aa40fc0","name":"EQUANS SGZH 2.0 89942959","address":"Kuyperhoeve 70","city":"Waddinxveen","operatorName":"EQUANS","maxPowerKw":0,"isMegawatt":false,"status":"AVAILABLE","source":"ndw","priceKwh":0.37}},{"type":"Feature","geometry":{"type":"Point","coordinates":[4.630806,52.016406]},"properties":{"type":"charge","layer":"passenger","locationId":"663e13e4dafc19001c210c05","name":"Waddinxveen K6","address":"Transportweg 32","city":"Waddinxveen","operatorName":"E-Flux by Road","maxPowerKw":11,"isMegawatt":false,"status":"AVAILABLE","source":"ndw","priceKwh":0.54}},{"type":"Feature","geometry":{"type":"Point","coordinates":[4.64498,52.029499]},"properties":{"type":"charge","layer":"passenger","locationId":"f5401c9c-5e40-11ee-b050-42010aa40fc0","name":"EQUANS SGZH 2.0 89927126","address":"Renske Boonstraat 141","city":"Waddinxveen","operatorName":"EQUANS","maxPowerKw":0,"isMegawatt":false,"status":"AVAILABLE","source":"ndw","priceKwh":0.37}},{"type":"Feature","geometry":{"type":"Point","coordinates":[4.640868,52.045452]},"properties":{"type":"charge","layer":"passenger","locationId":"f57df748-9c82-11ef-83a1-42010aa400b8","name":"EQUANS SGZH 2.0 Veenkade 8","address":"Veenkade 8","city":"Waddinxveen","operatorName":"EQUANS","maxPowerKw":0,"isMegawatt":false,"status":"AVAILABLE","source":"ndw","priceKwh":0.37}},{"type":"Feature","geometry":{"type":"Point","coordinates":[4.655987,52.033442]},"properties":{"type":"charge","layer":"passenger","locationId":"84405fb2-55fd-11ed-84fe-42010aa40fc0","name":"EQUANS SGZH 2.0 89329930","address":"Junolaan 1","city":"Waddinxveen","operatorName":"EQUANS","maxPowerKw":0,"isMegawatt":false,"status":"AVAILABLE","source":"ndw","priceKwh":0.37}},{"type":"Feature","geometry":{"type":"Point","coordinates":[4.661764,52.028517]},"properties":{"type":"charge","layer":"passenger","locationId":"a97f3fd6-202e-11ee-91d3-42010aa40fc0","name":"EQUANS SGZH 2.0 89885263","address":"Zuidkade 232","city":"Waddinxveen","operatorName":"EQUANS","maxPowerKw":0,"isMegawatt":false,"status":"AVAILABLE","source":"ndw","priceKwh":0.37}},{"type":"Feature","geometry":{"type":"Point","coordinates":[4.646202,52.049921]},"properties":{"type":"charge","layer":"passenger","locationId":"800f6b9e-4f3c-11e8-ae63-42010a840002","name":"NLD, Waddinxveen, Groensvoorde 20","address":"Groensvoorde 20","city":"Waddinxveen","operatorName":"Allego","maxPowerKw":0,"isMegawatt":false,"status":"AVAILABLE","source":"ndw"}},{"type":"Feature","geometry":{"type":"Point","coordinates":[4.65794,52.04185]},"properties":{"type":"charge","layer":"passenger","locationId":"8f728ee4-d9ce-11ef-bc60-42010aa400b8","name":"EQUANS SGZH 2.0 Alpherwetering 2","address":"Alpherwetering 2","city":"Waddinxveen","operatorName":"EQUANS","maxPowerKw":0,"isMegawatt":false,"status":"CHARGING","source":"ndw","priceKwh":0.37}},{"type":"Feature","geometry":{"type":"Point","coordinates":[4.646202,52.037395]},"properties":{"type":"charge","layer":"passenger","locationId":"0a484286-a33e-11ed-abc6-42010aa40fc0","name":"EQUANS SGZH 2.0 89445031","address":"Dreef 10 b","city":"Waddinxveen","operatorName":"EQUANS","maxPowerKw":0,"isMegawatt":false,"status":"AVAILABLE","source":"ndw","priceKwh":0.37}},{"type":"Feature","geometry":{"type":"Point","coordinates":[4.653538,52.046324]},"properties":{"type":"charge","layer":"passenger","locationId":"1fbc474a-0993-11ef-b38c-42010aa400b8","name":"EQUANS SGZH 2.0 Prins Bernhardlaan 2","address":"Prins Bernhardlaan 2","city":"Waddinxveen","operatorName":"EQUANS","maxPowerKw":0,"isMegawatt":false,"status":"AVAILABLE","source":"ndw","priceKwh":0.37}},{"type":"Feature","geometry":{"type":"Point","coordinates":[4.65022,52.04368]},"properties":{"type":"charge","layer":"passenger","locationId":"8264bdc2-8e90-11f0-bd27-42010aa400b8","name":"EQUANS SGZH 2.0 Spoorpad 12","address":"Spoorpad 12","city":"Waddinxveen","operatorName":"EQUANS","maxPowerKw":0,"isMegawatt":false,"status":"AVAILABLE","source":"ndw","priceKwh":0.37}},{"type":"Feature","geometry":{"type":"Point","coordinates":[4.644634,52.051444]},"properties":{"type":"charge","layer":"passenger","locationId":"b3999d50-924b-11ef-a666-42010aa400b8","name":"EQUANS SGZH 2.0 Akkerwinde 4","address":"Akkerwinde 4","city":"Waddinxveen","operatorName":"EQUANS","maxPowerKw":0,"isMegawatt":false,"status":"AVAILABLE","source":"ndw","priceKwh":0.37}},{"type":"Feature","geometry":{"type":"Point","coordinates":[4.661764,52.053747]},"properties":{"type":"charge","layer":"passenger","locationId":"e32fc5d8-e862-11ed-b4fd-42010aa40fc0","name":"EQUANS SGZH 2.0 89615418","address":"Noordkade 157","city":"Waddinxveen","operatorName":"EQUANS","maxPowerKw":0,"isMegawatt":false,"status":"AVAILABLE","source":"ndw","priceKwh":0.37}},{"type":"Feature","geometry":{"type":"Point","coordinates":[4.648348,52.053026]},"properties":{"type":"charge","layer":"passenger","locationId":"20c8e024-adcd-11ef-81f6-42010aa400b8","name":"EQUANS SGZH 2.0 Wilgenhorst 8","address":"Wilgenhorst 8","city":"Waddinxveen","operatorName":"EQUANS","maxPowerKw":0,"isMegawatt":false,"status":"AVAILABLE","source":"ndw","priceKwh":0.37}},{"type":"Feature","geometry":{"type":"Point","coordinates":[4.644066,52.038422]},"properties":{"type":"charge","layer":"passenger","locationId":"7d6417fe-db06-11ed-b83b-42010aa40fc0","name":"EQUANS SGZH 2.0 89479544","address":"Eksterdreef 9","city":"Waddinxveen","operatorName":"EQUANS","maxPowerKw":0,"isMegawatt":false,"status":"AVAILABLE","source":"ndw","priceKwh":0.37}},{"type":"Feature","geometry":{"type":"Point","coordinates":[4.659261,52.030648]},"properties":{"type":"charge","layer":"passenger","locationId":"8410da30-55fd-11ed-9d33-42010aa40fc0","name":"EQUANS SGZH 2.0 89329926","address":"St. Victorstraat 4","city":"Waddinxveen","operatorName":"EQUANS","maxPowerKw":0,"isMegawatt":false,"status":"AVAILABLE","source":"ndw","priceKwh":0.37}},{"type":"Feature","geometry":{"type":"Point","coordinates":[4.63758,52.03891]},"properties":{"type":"charge","layer":"passenger","locationId":"ac74755e-927c-11f0-bc58-42010aa400b8","name":"EQUANS SGZH 2.0 Graanakker 50","address":"Graanakker 50","city":"Waddinxveen","operatorName":"EQUANS","maxPowerKw":0,"isMegawatt":false,"status":"AVAILABLE","source":"ndw","priceKwh":0.37}},{"type":"Feature","geometry":{"type":"Point","coordinates":[4.655821,52.043786]},"properties":{"type":"charge","layer":"passenger","locationId":"eeecc0c4-b627-11ec-be0b-42010a840003","name":"EQUANS SGZH 2.0 89220723","address":"Beukenhof 1","city":"Waddinxveen","operatorName":"EQUANS","maxPowerKw":0,"isMegawatt":false,"status":"AVAILABLE","source":"ndw","priceKwh":0.37}},{"type":"Feature","geometry":{"type":"Point","coordinates":[4.640097,52.039956]},"properties":{"type":"charge","layer":"passenger","locationId":"94a2ca2e-b127-11f0-aac2-42010aa400b8","name":"EQUANS SGZH 2.0 Sperwerhoek 15","address":"Sperwerhoek 15","city":"Waddinxveen","operatorName":"EQUANS","maxPowerKw":0,"isMegawatt":false,"status":"AVAILABLE","source":"ndw","priceKwh":0.37}},{"type":"Feature","geometry":{"type":"Point","coordinates":[4.65759,52.0456]},"properties":{"type":"charge","layer":"passenger","locationId":"6dd195ee-40be-11f0-a2b2-42010aa400b8","name":"EQUANS SGZH 2.0 Oranjelaan 7 C","address":"Oranjelaan 7 C","city":"Waddinxveen","operatorName":"EQUANS","maxPowerKw":0,"isMegawatt":false,"status":"AVAILABLE","source":"ndw","priceKwh":0.37}},{"type":"Feature","geometry":{"type":"Point","coordinates":[4.652201,52.055036]},"properties":{"type":"charge","layer":"passenger","locationId":"9aaa483e-cce6-11ed-91dc-42010aa40fc0","name":"EQUANS SGZH 2.0 89407206","address":"Bilderdijklaan 14","city":"Waddinxveen","operatorName":"EQUANS","maxPowerKw":0,"isMegawatt":false,"status":"AVAILABLE","source":"ndw","priceKwh":0.37}},{"type":"Feature","geometry":{"type":"Point","coordinates":[4.642371,52.027213]},"properties":{"type":"charge","layer":"passenger","locationId":"19a613e8-1881-11ef-80fd-42010aa400b8","name":"EQUANS SGZH 2.0 Olijfhout 21","address":"Olijfhout 21","city":"Waddinxveen","operatorName":"EQUANS","maxPowerKw":0,"isMegawatt":false,"status":"AVAILABLE","source":"ndw","priceKwh":0.37}},{"type":"Feature","geometry":{"type":"Point","coordinates":[4.64369,52.035512]},"properties":{"type":"charge","layer":"passenger","locationId":"822d59ce-a915-11ef-b3c7-42010aa400b8","name":"EQUANS SGZH 2.0 Adrianahoeve 23","address":"Adrianahoeve 23","city":"Waddinxveen","operatorName":"EQUANS","maxPowerKw":0,"isMegawatt":false,"status":"AVAILABLE","source":"ndw","priceKwh":0.37}},{"type":"Feature","geometry":{"type":"Point","coordinates":[4.656426,52.031524]},"properties":{"type":"charge","layer":"passenger","locationId":"8c944768-a99c-11ec-a24e-42010a840003","name":"EQUANS SGZH 2.0 89195894","address":"Minervalaan 14","city":"Waddinxveen","operatorName":"EQUANS","maxPowerKw":0,"isMegawatt":false,"status":"CHARGING","source":"ndw","priceKwh":0.37}},{"type":"Feature","geometry":{"type":"Point","coordinates":[4.655889,52.041244]},"properties":{"type":"charge","layer":"passenger","locationId":"983d4f62-a1ab-11ed-92fc-42010aa40fc0","name":"EQUANS SGZH 2.0 89370329","address":"Oostpolderweg 64","city":"Waddinxveen","operatorName":"EQUANS","maxPowerKw":0,"isMegawatt":false,"status":"AVAILABLE","source":"ndw","priceKwh":0.37}},{"type":"Feature","geometry":{"type":"Point","coordinates":[4.645393,52.036598]},"properties":{"type":"charge","layer":"passenger","locationId":"82308aa4-9387-11ed-a43a-42010aa40fc0","name":"EQUANS SGZH 2.0 89439385","address":"Gerardshoeve 11","city":"Waddinxveen","operatorName":"EQUANS","maxPowerKw":0,"isMegawatt":false,"status":"AVAILABLE","source":"ndw","priceKwh":0.37}},{"type":"Feature","geometry":{"type":"Point","coordinates":[4.632117,52.034496]},"properties":{"type":"charge","layer":"passenger","locationId":"89604295","name":"EQUANS SGZH 2.0 89604295","address":"Zonnehof 100","city":"Waddinxveen","operatorName":"EQUANS","maxPowerKw":0,"isMegawatt":false,"status":"AVAILABLE","source":"ndw"}},{"type":"Feature","geometry":{"type":"Point","coordinates":[4.643264,52.044527]},"properties":{"type":"charge","layer":"passenger","locationId":"571c3732-9182-11ef-becb-42010aa400b8","name":"EQUANS SGZH 2.0 Ieplaan 40","address":"Ieplaan 40","city":"Waddinxveen","operatorName":"EQUANS","maxPowerKw":0,"isMegawatt":false,"status":"AVAILABLE","source":"ndw","priceKwh":0.37}},{"type":"Feature","geometry":{"type":"Point","coordinates":[4.654673,52.05477]},"properties":{"type":"charge","layer":"passenger","locationId":"8823b864-874b-11ef-93fd-42010aa400b8","name":"EQUANS SGZH 2.0 Justus van Effenlaan 98","address":"Justus van Effenlaan 98","city":"Waddinxveen","operatorName":"EQUANS","maxPowerKw":0,"isMegawatt":false,"status":"AVAILABLE","source":"ndw","priceKwh":0.37}},{"type":"Feature","geometry":{"type":"Point","coordinates":[4.646103,52.023757]},"properties":{"type":"charge","layer":"passenger","locationId":"94d6bba4-b127-11f0-a8bd-42010aa400b8","name":"EQUANS SGZH 2.0 Brasem 16","address":"Brasem 16","city":"Waddinxveen","operatorName":"EQUANS","maxPowerKw":0,"isMegawatt":false,"status":"AVAILABLE","source":"ndw","priceKwh":0.37}},{"type":"Feature","geometry":{"type":"Point","coordinates":[4.632922,52.032816]},"properties":{"type":"charge","layer":"passenger","locationId":"a9a1abca-79c0-11ee-ba7b-42010aa40fc0","name":"EQUANS SGZH 2.0 89445025","address":"Zonnesingel 32","city":"Waddinxveen","operatorName":"EQUANS","maxPowerKw":0,"isMegawatt":false,"status":"AVAILABLE","source":"ndw","priceKwh":0.37}},{"type":"Feature","geometry":{"type":"Point","coordinates":[4.63645,52.04569]},"properties":{"type":"charge","layer":"passenger","locationId":"ac508540-927c-11f0-90d7-42010aa400b8","name":"EQUANS SGZH 2.0 Onderweg 65","address":"Onderweg 65","city":"Waddinxveen","operatorName":"EQUANS","maxPowerKw":0,"isMegawatt":false,"status":"AVAILABLE","source":"ndw","priceKwh":0.37}},{"type":"Feature","geometry":{"type":"Point","coordinates":[4.647671,52.024419]},"properties":{"type":"charge","layer":"passenger","locationId":"b1ac323e-c509-11ed-94c1-42010aa40fc0","name":"EQUANS SGZH 2.0 89477480","address":"Zilverkarper 6","city":"Waddinxveen","operatorName":"EQUANS","maxPowerKw":0,"isMegawatt":false,"status":"AVAILABLE","source":"ndw","priceKwh":0.37}},{"type":"Feature","geometry":{"type":"Point","coordinates":[4.64901,52.03588]},"properties":{"type":"charge","layer":"passenger","locationId":"e6bb9856-bc29-11f0-84c7-42010aa400b8","name":"EQUANS SGZH 2.0 Land voor Water 46","address":"Land voor Water 46","city":"Waddinxveen","operatorName":"EQUANS","maxPowerKw":0,"isMegawatt":false,"status":"AVAILABLE","source":"ndw","priceKwh":0.37}},{"type":"Feature","geometry":{"type":"Point","coordinates":[4.642536,52.025055]},"properties":{"type":"charge","layer":"passenger","locationId":"f9fca45a-8101-11ef-b47e-42010aa400b8","name":"EQUANS SGZH 2.0 Zonnebaars 99","address":"Zonnebaars 99","city":"Waddinxveen","operatorName":"EQUANS","maxPowerKw":0,"isMegawatt":false,"status":"AVAILABLE","source":"ndw","priceKwh":0.37}},{"type":"Feature","geometry":{"type":"Point","coordinates":[4.643264,52.044527]},"properties":{"type":"charge","layer":"passenger","locationId":"90386345","name":"EQUANS SGZH 2.0 Ieplaan 40","address":"Ieplaan 40","city":"Waddinxveen","operatorName":"EQUANS","maxPowerKw":0,"isMegawatt":false,"status":"AVAILABLE","source":"ndw"}},{"type":"Feature","geometry":{"type":"Point","coordinates":[4.647695,52.029147]},"properties":{"type":"charge","layer":"passenger","locationId":"NLLOC014713","name":"NL, Leonard Springerstraat 16, 2742 MN Waddinxveen","address":"Leonard Springerstraat 16","city":"Waddinxveen","operatorName":"Allego","maxPowerKw":0,"isMegawatt":false,"status":"AVAILABLE","source":"ndw","priceKwh":0.511}},{"type":"Feature","geometry":{"type":"Point","coordinates":[4.646202,52.049921]},"properties":{"type":"charge","layer":"passenger","locationId":"NLLOC001508","name":"NLD, Waddinxveen, Groensvoorde 20","address":"Groensvoorde 20","city":"Waddinxveen","operatorName":"Allego","maxPowerKw":0,"isMegawatt":false,"status":"AVAILABLE","source":"ndw","priceKwh":0.511}},{"type":"Feature","geometry":{"type":"Point","coordinates":[4.659261,52.030648]},"properties":{"type":"charge","layer":"passenger","locationId":"89329926","name":"EQUANS SGZH 2.0 89329926","address":"St. Victorstraat 4","city":"Waddinxveen","operatorName":"EQUANS","maxPowerKw":0,"isMegawatt":false,"status":"AVAILABLE","source":"ndw"}},{"type":"Feature","geometry":{"type":"Point","coordinates":[4.648236,52.02813]},"properties":{"type":"charge","layer":"passenger","locationId":"89203122","name":"EQUANS SGZH 2.0 Dubbelspoor 55","address":"Dubbelspoor 55","city":"Waddinxveen","operatorName":"EQUANS","maxPowerKw":0,"isMegawatt":false,"status":"AVAILABLE","source":"ndw"}},{"type":"Feature","geometry":{"type":"Point","coordinates":[4.650922,52.032864]},"properties":{"type":"charge","layer":"passenger","locationId":"672dfa66445dde83cc39c4a3","name":"Woonpartners Midden-Holland","address":"Coenecoop 6","city":"Waddinxveen","operatorName":"E-Flux by Road","maxPowerKw":22,"isMegawatt":false,"status":"AVAILABLE","source":"ndw","priceKwh":0.27}},{"type":"Feature","geometry":{"type":"Point","coordinates":[4.653755,52.027658]},"properties":{"type":"charge","layer":"passenger","locationId":"69d8b3498237dfe223041f2d","name":"de Kruijf Trappen 1.2","address":"Coenecoop 79","city":"Waddinxveen","operatorName":"E-Flux by Road","maxPowerKw":22,"isMegawatt":false,"status":"AVAILABLE","source":"ndw","priceKwh":0.38}},{"type":"Feature","geometry":{"type":"Point","coordinates":[4.610758,52.026351]},"properties":{"type":"charge","layer":"passenger","locationId":"NLLOC007216","name":"NL, Arie Kempkesweg 80, 2742JV, Waddinxveen","address":"Arie Kempkesweg 80","city":"Waddinxveen","operatorName":"Allego","maxPowerKw":0,"isMegawatt":false,"status":"AVAILABLE","source":"ndw","priceKwh":0.511}},{"type":"Feature","geometry":{"type":"Point","coordinates":[4.645151,52.047345]},"properties":{"type":"charge","layer":"passenger","locationId":"NLLOC001506","name":"NLD, Waddinxveen, Mozartlaan 18","address":"Mozartlaan 18","city":"Waddinxveen","operatorName":"Allego","maxPowerKw":0,"isMegawatt":false,"status":"AVAILABLE","source":"ndw","priceKwh":0.511}},{"type":"Feature","geometry":{"type":"Point","coordinates":[4.648618,52.04742]},"properties":{"type":"charge","layer":"passenger","locationId":"89604296","name":"EQUANS SGZH 2.0 89604296","address":"Peter Zuidlaan 6","city":"Waddinxveen","operatorName":"EQUANS","maxPowerKw":0,"isMegawatt":false,"status":"AVAILABLE","source":"ndw"}},{"type":"Feature","geometry":{"type":"Point","coordinates":[4.65464,52.03604]},"properties":{"type":"charge","layer":"passenger","locationId":"91007020","name":"EQUANS SGZH 2.0 Mercuriusweg 4","address":"Mercuriusweg 4","city":"Waddinxveen","operatorName":"EQUANS","maxPowerKw":0,"isMegawatt":false,"status":"CHARGING","source":"ndw"}},{"type":"Feature","geometry":{"type":"Point","coordinates":[4.645007,52.056212]},"properties":{"type":"charge","layer":"passenger","locationId":"NLLOC002913","name":"NLD, Wingerd 109, 2742 SE Waddinxveen","address":"Wingerd 109","city":"Waddinxveen","operatorName":"Allego","maxPowerKw":0,"isMegawatt":false,"status":"AVAILABLE","source":"ndw","priceKwh":0.511}},{"type":"Feature","geometry":{"type":"Point","coordinates":[4.63645,52.04569]},"properties":{"type":"charge","layer":"passenger","locationId":"91144807","name":"EQUANS SGZH 2.0 Onderweg 65","address":"Onderweg 65","city":"Waddinxveen","operatorName":"EQUANS","maxPowerKw":0,"isMegawatt":false,"status":"AVAILABLE","source":"ndw"}},{"type":"Feature","geometry":{"type":"Point","coordinates":[4.630806,52.016406]},"properties":{"type":"charge","layer":"passenger","locationId":"663e1480fbb885001c2fd640","name":"Waddinxveen K7","address":"Transportweg 32","city":"Waddinxveen","operatorName":"E-Flux by Road","maxPowerKw":11,"isMegawatt":false,"status":"AVAILABLE","source":"ndw","priceKwh":0.54}},{"type":"Feature","geometry":{"type":"Point","coordinates":[4.658499,52.03159]},"properties":{"type":"charge","layer":"passenger","locationId":"11041eea-dfbd-11ed-ad89-42010aa40fc0","name":"EQUANS SGZH 2.0 89606407","address":"Fortunalaan 16","city":"Waddinxveen","operatorName":"EQUANS","maxPowerKw":0,"isMegawatt":false,"status":"AVAILABLE","source":"ndw","priceKwh":0.37}},{"type":"Feature","geometry":{"type":"Point","coordinates":[4.644511,52.030912]},"properties":{"type":"charge","layer":"passenger","locationId":"1e836390-6138-11ed-b783-42010aa40fc0","name":"EQUANS SGZH 2.0 89329940","address":"Gerard Bleekerstraat 13","city":"Waddinxveen","operatorName":"EQUANS","maxPowerKw":0,"isMegawatt":false,"status":"AVAILABLE","source":"ndw","priceKwh":0.37}},{"type":"Feature","geometry":{"type":"Point","coordinates":[4.657583,52.036479]},"properties":{"type":"charge","layer":"passenger","locationId":"2115ecf8-2808-11ee-a334-42010aa40fc0","name":"EQUANS SGZH 2.0 89606405","address":"Burgemeester Trooststraat 1","city":"Waddinxveen","operatorName":"EQUANS","maxPowerKw":0,"isMegawatt":false,"status":"AVAILABLE","source":"ndw","priceKwh":0.37}},{"type":"Feature","geometry":{"type":"Point","coordinates":[4.64309,52.02792]},"properties":{"type":"charge","layer":"passenger","locationId":"30af0c84-8f59-11f0-b79e-42010aa400b8","name":"EQUANS SGZH 2.0 Ebbenhout 90","address":"Ebbenhout 90","city":"Waddinxveen","operatorName":"EQUANS","maxPowerKw":0,"isMegawatt":false,"status":"AVAILABLE","source":"ndw","priceKwh":0.37}},{"type":"Feature","geometry":{"type":"Point","coordinates":[4.636628,52.033593]},"properties":{"type":"charge","layer":"passenger","locationId":"4f5a862c-0f3e-11f0-91a7-42010aa400b8","name":"EQUANS SGZH 2.0 Schaepmanhoeve 73","address":"Schaepmanhoeve 73","city":"Waddinxveen","operatorName":"EQUANS","maxPowerKw":0,"isMegawatt":false,"status":"AVAILABLE","source":"ndw","priceKwh":0.37}},{"type":"Feature","geometry":{"type":"Point","coordinates":[4.647536,52.026883]},"properties":{"type":"charge","layer":"passenger","locationId":"71df21dc-0575-11ee-9651-42010aa40fc0","name":"EQUANS SGZH 2.0 89637733","address":"Spiering 10","city":"Waddinxveen","operatorName":"EQUANS","maxPowerKw":0,"isMegawatt":false,"status":"AVAILABLE","source":"ndw","priceKwh":0.37}},{"type":"Feature","geometry":{"type":"Point","coordinates":[4.655601,52.052143]},"properties":{"type":"charge","layer":"passenger","locationId":"9ec0a586-95e5-11ed-a6bf-42010aa40fc0","name":"EQUANS SGZH 2.0 89439556","address":"Charlotte de Bourbonstraat 26","city":"Waddinxveen","operatorName":"EQUANS","maxPowerKw":0,"isMegawatt":false,"status":"AVAILABLE","source":"ndw","priceKwh":0.37}},{"type":"Feature","geometry":{"type":"Point","coordinates":[4.62742,52.03522]},"properties":{"type":"charge","layer":"passenger","locationId":"91007033","name":"EQUANS SGZH 2.0 Phoenix 9","address":"Phoenix 9","city":"Waddinxveen","operatorName":"EQUANS","maxPowerKw":0,"isMegawatt":false,"status":"AVAILABLE","source":"ndw"}},{"type":"Feature","geometry":{"type":"Point","coordinates":[4.661884,52.043744]},"properties":{"type":"charge","layer":"passenger","locationId":"068bd818-8a70-11ef-9d52-42010aa400b8","name":"EQUANS SGZH 2.0 Brugweg 27","address":"Brugweg 27","city":"Waddinxveen","operatorName":"EQUANS","maxPowerKw":0,"isMegawatt":false,"status":"AVAILABLE","source":"ndw","priceKwh":0.37}},{"type":"Feature","geometry":{"type":"Point","coordinates":[4.64631,52.048859]},"properties":{"type":"charge","layer":"passenger","locationId":"118abbba-d660-11ec-9fbd-42010a840003","name":"EQUANS SGZH 2.0 89238119","address":"Sweelinckhof 51","city":"Waddinxveen","operatorName":"EQUANS","maxPowerKw":0,"isMegawatt":false,"status":"AVAILABLE","source":"ndw","priceKwh":0.37}},{"type":"Feature","geometry":{"type":"Point","coordinates":[4.6464,52.02479]},"properties":{"type":"charge","layer":"passenger","locationId":"2b8b34ec-bcbb-11ef-8918-42010aa400b8","name":"EQUANS SGZH 2.0 Beekforel 15","address":"Beekforel 15","city":"Waddinxveen","operatorName":"EQUANS","maxPowerKw":0,"isMegawatt":false,"status":"AVAILABLE","source":"ndw","priceKwh":0.37}},{"type":"Feature","geometry":{"type":"Point","coordinates":[4.645414,52.039779]},"properties":{"type":"charge","layer":"passenger","locationId":"f1c74002-d4e9-11ee-b88a-42010aa40fc0","name":"EQUANS SGZH 2.0 Limaweg 3","address":"Limaweg 3","city":"Waddinxveen","operatorName":"EQUANS","maxPowerKw":0,"isMegawatt":false,"status":"CHARGING","source":"ndw","priceKwh":0.37}},{"type":"Feature","geometry":{"type":"Point","coordinates":[4.66305,52.027608]},"properties":{"type":"charge","layer":"passenger","locationId":"62a85d02a9bffd4aefe54bae","name":"Arvast Groep laadstation 2","address":"Wilhelminakade 1","city":"Waddinxveen","operatorName":"E-Flux by Road","maxPowerKw":22,"isMegawatt":false,"status":"AVAILABLE","source":"ndw","priceKwh":0.63}},{"type":"Feature","geometry":{"type":"Point","coordinates":[4.646363,52.052557]},"properties":{"type":"charge","layer":"passenger","locationId":"NLLOC001503","name":"NLD, Waddinxveen, Lindengaarde 32","address":"Lindengaarde 32","city":"Waddinxveen","operatorName":"Allego","maxPowerKw":0,"isMegawatt":false,"status":"AVAILABLE","source":"ndw","priceKwh":0.511}},{"type":"Feature","geometry":{"type":"Point","coordinates":[4.64745,52.054017]},"properties":{"type":"charge","layer":"passenger","locationId":"NLLOC001501","name":"NLD, Waddinxveen, Sparrengaarde 7","address":"Sparrengaarde 7","city":"Waddinxveen","operatorName":"Allego","maxPowerKw":0,"isMegawatt":false,"status":"AVAILABLE","source":"ndw","priceKwh":0.511}},{"type":"Feature","geometry":{"type":"Point","coordinates":[4.641104,52.046836]},"properties":{"type":"charge","layer":"passenger","locationId":"NLLOC003262","name":"NLD Polderkade 2, 2742KW Waddinxveen","address":"Polderkade 2","city":"Waddinxveen","operatorName":"Allego","maxPowerKw":0,"isMegawatt":false,"status":"AVAILABLE","source":"ndw","priceKwh":0.511}},{"type":"Feature","geometry":{"type":"Point","coordinates":[4.653604,52.053276]},"properties":{"type":"charge","layer":"passenger","locationId":"NLLOC001836","name":"NLD, Waddinxveen, Willem de Rijkelaan 182","address":"Willem de Rijkelaan 182","city":"Waddinxveen","operatorName":"Allego","maxPowerKw":0,"isMegawatt":false,"status":"AVAILABLE","source":"ndw","priceKwh":0.511}},{"type":"Feature","geometry":{"type":"Point","coordinates":[4.630806,52.016406]},"properties":{"type":"charge","layer":"passenger","locationId":"663e0090ae91c5001c9e2afe","name":"Waddinxveen K1","address":"Transportweg 32","city":"Waddinxveen","operatorName":"E-Flux by Road","maxPowerKw":11,"isMegawatt":false,"status":"AVAILABLE","source":"ndw","priceKwh":0.54}},{"type":"Feature","geometry":{"type":"Point","coordinates":[4.639185,52.031987]},"properties":{"type":"charge","layer":"passenger","locationId":"89407209","name":"EQUANS SGZH 2.0 89407209","address":"Honingbij 73","city":"Waddinxveen","operatorName":"EQUANS","maxPowerKw":0,"isMegawatt":false,"status":"CHARGING","source":"ndw"}},{"type":"Feature","geometry":{"type":"Point","coordinates":[4.646717,52.02856]},"properties":{"type":"charge","layer":"passenger","locationId":"fd836aca-5df8-11ec-8bbe-42010a840079","name":"EQUANS SGZH 2.0 89627066","address":"Leonard Springerstraat 30","city":"Waddinxveen","operatorName":"EQUANS","maxPowerKw":0,"isMegawatt":false,"status":"AVAILABLE","source":"ndw","priceKwh":0.37}},{"type":"Feature","geometry":{"type":"Point","coordinates":[4.657084,52.037235]},"properties":{"type":"charge","layer":"passenger","locationId":"c9944e44-5be6-11ee-b8b1-42010aa40fc0","name":"EQUANS SGZH 2.0 89965090","address":"Heemraadweg 65","city":"Waddinxveen","operatorName":"EQUANS","maxPowerKw":0,"isMegawatt":false,"status":"AVAILABLE","source":"ndw","priceKwh":0.37}},{"type":"Feature","geometry":{"type":"Point","coordinates":[4.656376,52.049318]},"properties":{"type":"charge","layer":"passenger","locationId":"NLLOC003501","name":"NLD Prins Alexanderstraat 2, 2741 CR Waddinxveen","address":"Prins Alexanderstraat 2","city":"Waddinxveen","operatorName":"Allego","maxPowerKw":0,"isMegawatt":false,"status":"AVAILABLE","source":"ndw","priceKwh":0.511}},{"type":"Feature","geometry":{"type":"Point","coordinates":[4.645736,52.023968]},"properties":{"type":"charge","layer":"passenger","locationId":"be8f6dee-5be6-11ee-9897-42010aa40fc0","name":"EQUANS SGZH 2.0 89954331","address":"Brasem 4","city":"Waddinxveen","operatorName":"EQUANS","maxPowerKw":0,"isMegawatt":false,"status":"AVAILABLE","source":"ndw","priceKwh":0.37}},{"type":"Feature","geometry":{"type":"Point","coordinates":[4.655964,52.037119]},"properties":{"type":"charge","layer":"passenger","locationId":"NLLOC005246","name":"NLD, Heemraadweg 10, Waddinxveen","address":"Heemraadweg 10","city":"Waddinxveen","operatorName":"Allego","maxPowerKw":0,"isMegawatt":false,"status":"CHARGING","source":"ndw","priceKwh":0.511}},{"type":"Feature","geometry":{"type":"Point","coordinates":[4.644453,52.042144]},"properties":{"type":"charge","layer":"passenger","locationId":"1a7956b6-97fd-11f0-8e76-42010aa400b8","name":"EQUANS SGZH 2.0 Sniepweg 13 n","address":"Sniepweg 13 n","city":"Waddinxveen","operatorName":"EQUANS","maxPowerKw":0,"isMegawatt":false,"status":"AVAILABLE","source":"ndw","priceKwh":0.37}},{"type":"Feature","geometry":{"type":"Point","coordinates":[4.642604,52.048933]},"properties":{"type":"charge","layer":"passenger","locationId":"693467d9751f26152307482d","name":"Van Drie","address":"Wagnerlaan 7","city":"Waddinxveen","operatorName":"E-Flux by Road","maxPowerKw":22,"isMegawatt":false,"status":"AVAILABLE","source":"ndw","priceKwh":1.03}},{"type":"Feature","geometry":{"type":"Point","coordinates":[4.661764,52.028517]},"properties":{"type":"charge","layer":"passenger","locationId":"89885263","name":"EQUANS SGZH 2.0 89885263","address":"Zuidkade 232","city":"Waddinxveen","operatorName":"EQUANS","maxPowerKw":0,"isMegawatt":false,"status":"AVAILABLE","source":"ndw"}},{"type":"Feature","geometry":{"type":"Point","coordinates":[4.63922,52.02737]},"properties":{"type":"charge","layer":"passenger","locationId":"91172307","name":"EQUANS SGZH 2.0 Laan van Hout 101","address":"Laan van Hout 101","city":"2742NW","operatorName":"EQUANS","maxPowerKw":0,"isMegawatt":false,"status":"AVAILABLE","source":"ndw"}},{"type":"Feature","geometry":{"type":"Point","coordinates":[4.64373,52.035537]},"properties":{"type":"charge","layer":"passenger","locationId":"NLLOC008281","name":"NL, Adrianahoeve 23, 2742 PL, Waddinxveen","address":"Adrianahoeve 23","city":"Waddinxveen","operatorName":"Allego","maxPowerKw":0,"isMegawatt":false,"status":"CHARGING","source":"ndw","priceKwh":0.511}},{"type":"Feature","geometry":{"type":"Point","coordinates":[4.661884,52.043744]},"properties":{"type":"charge","layer":"passenger","locationId":"90822381","name":"EQUANS SGZH 2.0 Brugweg 27","address":"Brugweg 27","city":"Waddinxveen","operatorName":"EQUANS","maxPowerKw":0,"isMegawatt":false,"status":"AVAILABLE","source":"ndw"}},{"type":"Feature","geometry":{"type":"Point","coordinates":[4.630806,52.016406]},"properties":{"type":"charge","layer":"passenger","locationId":"663e158a0f4975001cce4ccb","name":"Waddinxveen K8","address":"Transportweg 32","city":"Waddinxveen","operatorName":"E-Flux by Road","maxPowerKw":11,"isMegawatt":false,"status":"AVAILABLE","source":"ndw","priceKwh":0.54}},{"type":"Feature","geometry":{"type":"Point","coordinates":[4.648654,52.046331]},"properties":{"type":"charge","layer":"passenger","locationId":"91007016","name":"EQUANS SGZH 2.0 Peter Zuidlaan 19","address":"Peter Zuidlaan 19","city":"Waddinxveen","operatorName":"EQUANS","maxPowerKw":0,"isMegawatt":false,"status":"AVAILABLE","source":"ndw"}},{"type":"Feature","geometry":{"type":"Point","coordinates":[4.633431,52.036337]},"properties":{"type":"charge","layer":"passenger","locationId":"NLLOC007901","name":"NL, Aletta Jacobshoeve 11, 2743JA, Waddinxveen","address":"Aletta Jacobshoeve 11","city":"Waddinxveen","operatorName":"Allego","maxPowerKw":0,"isMegawatt":false,"status":"AVAILABLE","source":"ndw","priceKwh":0.511}},{"type":"Feature","geometry":{"type":"Point","coordinates":[4.638271,52.039304]},"properties":{"type":"charge","layer":"passenger","locationId":"89329938","name":"EQUANS SGZH 2.0 89329938","address":"Graanakker 28","city":"Waddinxveen","operatorName":"EQUANS","maxPowerKw":0,"isMegawatt":false,"status":"AVAILABLE","source":"ndw"}},{"type":"Feature","geometry":{"type":"Point","coordinates":[4.633675,52.038505]},"properties":{"type":"charge","layer":"passenger","locationId":"NLLOC003854","name":"NLD Woubrechterf 36, 2743 HM Waddinxveen","address":"Woubrechterf 36","city":"Waddinxveen","operatorName":"Allego","maxPowerKw":0,"isMegawatt":false,"status":"AVAILABLE","source":"ndw","priceKwh":0.511}},{"type":"Feature","geometry":{"type":"Point","coordinates":[4.653685,52.027702]},"properties":{"type":"charge","layer":"passenger","locationId":"69d8b3cfce4b9fde90e76cdf","name":"de Kruijf Trappen 2.1","address":"Coenecoop 79","city":"Waddinxveen","operatorName":"E-Flux by Road","maxPowerKw":22,"isMegawatt":false,"status":"AVAILABLE","source":"ndw","priceKwh":0.38}},{"type":"Feature","geometry":{"type":"Point","coordinates":[4.651355,52.02418]},"properties":{"type":"charge","layer":"passenger","locationId":"65a55c4c5ec16b001cd357d8","name":"C de Rooij 's station","address":"coenecoop  665","city":"Waddinxveen","operatorName":"E-Flux by Road","maxPowerKw":11,"isMegawatt":false,"status":"AVAILABLE","source":"ndw","priceKwh":0.38}},{"type":"Feature","geometry":{"type":"Point","coordinates":[4.644879,52.023719]},"properties":{"type":"charge","layer":"passenger","locationId":"89329935","name":"EQUANS SGZH 2.0 89329935","address":"Zonnebaars 31","city":"Waddinxveen","operatorName":"EQUANS","maxPowerKw":0,"isMegawatt":false,"status":"AVAILABLE","source":"ndw"}},{"type":"Feature","geometry":{"type":"Point","coordinates":[4.652629,52.04689]},"properties":{"type":"charge","layer":"passenger","locationId":"89329928","name":"EQUANS SGZH 2.0 Prins Bernhardlaan 79","address":"Prins Bernhardlaan 79","city":"Waddinxveen","operatorName":"EQUANS","maxPowerKw":0,"isMegawatt":false,"status":"AVAILABLE","source":"ndw"}},{"type":"Feature","geometry":{"type":"Point","coordinates":[4.652201,52.055036]},"properties":{"type":"charge","layer":"passenger","locationId":"89407206","name":"EQUANS SGZH 2.0 89407206","address":"Bilderdijklaan 14","city":"Waddinxveen","operatorName":"EQUANS","maxPowerKw":0,"isMegawatt":false,"status":"AVAILABLE","source":"ndw"}},{"type":"Feature","geometry":{"type":"Point","coordinates":[4.636917,52.034756]},"properties":{"type":"charge","layer":"passenger","locationId":"NLLOC015975","name":"NL, Kuyperhoeve 31, 2743JM, Waddinxveen","address":"Kuyperhoeve 31","city":"Waddinxveen","operatorName":"Allego","maxPowerKw":0,"isMegawatt":false,"status":"AVAILABLE","source":"ndw","priceKwh":0.511}},{"type":"Feature","geometry":{"type":"Point","coordinates":[4.641752,52.049166]},"properties":{"type":"charge","layer":"passenger","locationId":"11DF164A-5BF2-4C7E-9F92-F3D6580303A4","name":"Eneco eMobility Alcapharm B.V. - Waddinxveen","address":"Dorpstraat 101","city":"Waddinxveen","operatorName":"Eneco","maxPowerKw":22,"isMegawatt":false,"status":"AVAILABLE","source":"ndw","priceKwh":0.4}},{"type":"Feature","geometry":{"type":"Point","coordinates":[4.619318,52.02049]},"properties":{"type":"charge","layer":"passenger","locationId":"65ca1a4b729164001cbe5c5b","name":"Boba Supply BV","address":"Tweede Bloksweg  72A","city":"Waddinxveen","operatorName":"E-Flux by Road","maxPowerKw":22,"isMegawatt":false,"status":"AVAILABLE","source":"ndw","priceKwh":0.41}},{"type":"Feature","geometry":{"type":"Point","coordinates":[4.62873,52.03541]},"properties":{"type":"charge","layer":"passenger","locationId":"90883038","name":"EQUANS SGZH 2.0 Orion 8","address":"Orion 8","city":"Waddinxveen","operatorName":"EQUANS","maxPowerKw":0,"isMegawatt":false,"status":"CHARGING","source":"ndw"}},{"type":"Feature","geometry":{"type":"Point","coordinates":[4.643714,52.052422]},"properties":{"type":"charge","layer":"passenger","locationId":"90360705","name":"EQUANS SGZH 2.0 Peuleyen 110","address":"Peuleyen 110","city":"Waddinxveen","operatorName":"EQUANS","maxPowerKw":0,"isMegawatt":false,"status":"AVAILABLE","source":"ndw"}},{"type":"Feature","geometry":{"type":"Point","coordinates":[4.653763,52.027651]},"properties":{"type":"charge","layer":"passenger","locationId":"69d8b276af3df745fe57d0c5","name":"De Kruijf Trappen 1.1","address":"Coenecoop 79","city":"Waddinxveen","operatorName":"E-Flux by Road","maxPowerKw":22,"isMegawatt":false,"status":"AVAILABLE","source":"ndw","priceKwh":0.38}},{"type":"Feature","geometry":{"type":"Point","coordinates":[4.635103,52.039558]},"properties":{"type":"charge","layer":"passenger","locationId":"89954361","name":"EQUANS SGZH 2.0 89954361","address":"Otto-erf 11","city":"Waddinxveen","operatorName":"EQUANS","maxPowerKw":0,"isMegawatt":false,"status":"AVAILABLE","source":"ndw"}},{"type":"Feature","geometry":{"type":"Point","coordinates":[4.648085,52.042499]},"properties":{"type":"charge","layer":"passenger","locationId":"90695535","name":"EQUANS SGZH 2.0 Ieplaan (t.h.v. Eikenlaan 54)","address":"Ieplaan","city":"Waddinxveen","operatorName":"EQUANS","maxPowerKw":0,"isMegawatt":false,"status":"AVAILABLE","source":"ndw"}},{"type":"Feature","geometry":{"type":"Point","coordinates":[4.646842,52.033741]},"properties":{"type":"charge","layer":"passenger","locationId":"89927125","name":"EQUANS SGZH 2.0 89927125","address":"Ganzerik 42","city":"Waddinxveen","operatorName":"EQUANS","maxPowerKw":0,"isMegawatt":false,"status":"AVAILABLE","source":"ndw"}},{"type":"Feature","geometry":{"type":"Point","coordinates":[4.642746,52.038568]},"properties":{"type":"charge","layer":"passenger","locationId":"89238566","name":"EQUANS SGZH 2.0 89238566","address":"Fazantdreef 22","city":"Waddinxveen","operatorName":"EQUANS","maxPowerKw":0,"isMegawatt":false,"status":"AVAILABLE","source":"ndw"}},{"type":"Feature","geometry":{"type":"Point","coordinates":[4.648228,52.03555]},"properties":{"type":"charge","layer":"passenger","locationId":"NLLOC008327","name":"NL, Molenzigt 2, 2742PH, Waddinxveen","address":"Molenzigt 2","city":"Waddinxveen","operatorName":"Allego","maxPowerKw":0,"isMegawatt":false,"status":"CHARGING","source":"ndw","priceKwh":0.511}},{"type":"Feature","geometry":{"type":"Point","coordinates":[4.655704,52.049926]},"properties":{"type":"charge","layer":"passenger","locationId":"90300319","name":"EQUANS SGZH 2.0 Mauritslaan 26","address":"Mauritslaan 26","city":"Waddinxveen","operatorName":"EQUANS","maxPowerKw":0,"isMegawatt":false,"status":"CHARGING","source":"ndw"}},{"type":"Feature","geometry":{"type":"Point","coordinates":[4.630806,52.016406]},"properties":{"type":"charge","layer":"passenger","locationId":"663e047ffbb885001c2f5736","name":"Waddinxveen K2","address":"Transportweg 32","city":"Waddinxveen","operatorName":"E-Flux by Road","maxPowerKw":11,"isMegawatt":false,"status":"AVAILABLE","source":"ndw","priceKwh":0.54}},{"type":"Feature","geometry":{"type":"Point","coordinates":[4.64448,52.036276]},"properties":{"type":"charge","layer":"passenger","locationId":"NLLOC016577","name":"NL, Tuinbouwweg 2A, 2742 KP Waddinxveen","address":"Tuinbouwweg 2A","city":"Waddinxveen","operatorName":"Allego","maxPowerKw":0,"isMegawatt":false,"status":"AVAILABLE","source":"ndw","priceKwh":0.511}},{"type":"Feature","geometry":{"type":"Point","coordinates":[4.650077,52.056028]},"properties":{"type":"charge","layer":"passenger","locationId":"NLLOC002257","name":"NLD, Busken Huetlaan 31 2741 AM Waddinxveen","address":"Busken Huetlaan","city":"Waddinxveen","operatorName":"Allego","maxPowerKw":0,"isMegawatt":false,"status":"AVAILABLE","source":"ndw","priceKwh":0.511}},{"type":"Feature","geometry":{"type":"Point","coordinates":[4.644511,52.030912]},"properties":{"type":"charge","layer":"passenger","locationId":"89329940","name":"EQUANS SGZH 2.0 89329940","address":"Gerard Bleekerstraat 13","city":"Waddinxveen","operatorName":"EQUANS","maxPowerKw":0,"isMegawatt":false,"status":"CHARGING","source":"ndw"}},{"type":"Feature","geometry":{"type":"Point","coordinates":[4.657084,52.037235]},"properties":{"type":"charge","layer":"passenger","locationId":"89965090","name":"EQUANS SGZH 2.0 89965090","address":"Heemraadweg 65","city":"Waddinxveen","operatorName":"EQUANS","maxPowerKw":0,"isMegawatt":false,"status":"AVAILABLE","source":"ndw"}},{"type":"Feature","geometry":{"type":"Point","coordinates":[4.642869,52.039531]},"properties":{"type":"charge","layer":"passenger","locationId":"NLLOC003431","name":"NLD Kievitdreef 43, 2743 EG Waddinxveen","address":"Kievitdreef 43","city":"Waddinxveen","operatorName":"Allego","maxPowerKw":0,"isMegawatt":false,"status":"AVAILABLE","source":"ndw","priceKwh":0.511}},{"type":"Feature","geometry":{"type":"Point","coordinates":[4.631305,52.037836]},"properties":{"type":"charge","layer":"passenger","locationId":"67eceae2005ce9e08be6d3bb","name":"Verbaan 's station","address":"Woubrechterf 73","city":"Waddinxveen","operatorName":"E-Flux by Road","maxPowerKw":11,"isMegawatt":false,"status":"AVAILABLE","source":"ndw","priceKwh":0.5}},{"type":"Feature","geometry":{"type":"Point","coordinates":[4.632531,52.03644]},"properties":{"type":"charge","layer":"passenger","locationId":"5700ad64-9182-11ef-857b-42010aa400b8","name":"EQUANS SGZH 2.0 Aletta Jacobshoeve 36","address":"Aletta Jacobshoeve 36","city":"Waddinxveen","operatorName":"EQUANS","maxPowerKw":0,"isMegawatt":false,"status":"AVAILABLE","source":"ndw","priceKwh":0.37}},{"type":"Feature","geometry":{"type":"Point","coordinates":[4.654537,52.040382]},"properties":{"type":"charge","layer":"passenger","locationId":"91007019","name":"EQUANS SGZH 2.0 Oostpolderweg 47","address":"Oostpolderweg 47","city":"Waddinxveen","operatorName":"EQUANS","maxPowerKw":0,"isMegawatt":false,"status":"AVAILABLE","source":"ndw"}},{"type":"Feature","geometry":{"type":"Point","coordinates":[4.657976,52.039377]},"properties":{"type":"charge","layer":"passenger","locationId":"NLLOC003811","name":"NLD Zuidkade 56, 2741 JC Waddinxveen","address":"Zuidkade 56","city":"Waddinxveen","operatorName":"Allego","maxPowerKw":0,"isMegawatt":false,"status":"AVAILABLE","source":"ndw","priceKwh":0.511}},{"type":"Feature","geometry":{"type":"Point","coordinates":[4.64655,52.03786]},"properties":{"type":"charge","layer":"passenger","locationId":"90878400","name":"EQUANS SGZH 2.0 Kapiteel 35","address":"Kapiteel 35","city":"Waddinxveen","operatorName":"EQUANS","maxPowerKw":0,"isMegawatt":false,"status":"CHARGING","source":"ndw"}},{"type":"Feature","geometry":{"type":"Point","coordinates":[4.657217,52.041122]},"properties":{"type":"charge","layer":"passenger","locationId":"91365616","name":"EQUANS SGZH 2.0 Alpherwetering 55","address":"Alpherwetering 55","city":"Waddinxveen","operatorName":"EQUANS","maxPowerKw":0,"isMegawatt":false,"status":"AVAILABLE","source":"ndw"}},{"type":"Feature","geometry":{"type":"Point","coordinates":[4.63732,52.02914]},"properties":{"type":"charge","layer":"passenger","locationId":"91366052","name":"EQUANS SGZH 2.0 Laan van Hout 211","address":"Laan van Hout 211","city":"Waddinxveen","operatorName":"EQUANS","maxPowerKw":0,"isMegawatt":false,"status":"AVAILABLE","source":"ndw"}},{"type":"Feature","geometry":{"type":"Point","coordinates":[4.656408,52.02514]},"properties":{"type":"charge","layer":"passenger","locationId":"676293484c1b31a0402de9be","name":"Autocentrum Van Vliet Waddinxveen","address":"Coenecoop 143","city":"Waddinxveen","operatorName":"Kia Nederland B.V.","maxPowerKw":176,"isMegawatt":false,"status":"AVAILABLE","source":"ndw","priceKwh":0.73}},{"type":"Feature","geometry":{"type":"Point","coordinates":[4.64756,52.05495]},"properties":{"type":"charge","layer":"passenger","locationId":"89942901","name":"EQUANS SGZH 2.0 89942901","address":"Sparrengaarde 33","city":"Waddinxveen","operatorName":"EQUANS","maxPowerKw":0,"isMegawatt":false,"status":"AVAILABLE","source":"ndw"}},{"type":"Feature","geometry":{"type":"Point","coordinates":[4.645437,52.032785]},"properties":{"type":"charge","layer":"passenger","locationId":"NLLOC002854","name":"NLD, Ganzerik 92, 2742MB Waddinxveen","address":"Ganzerik 92","city":"Waddinxveen","operatorName":"Allego","maxPowerKw":0,"isMegawatt":false,"status":"AVAILABLE","source":"ndw","priceKwh":0.511}},{"type":"Feature","geometry":{"type":"Point","coordinates":[4.630779,52.016465]},"properties":{"type":"charge","layer":"passenger","locationId":"663e1889115599001c573ae2","name":"Waddinxveen K10","address":"Transportweg 32","city":"Waddinxveen","operatorName":"E-Flux by Road","maxPowerKw":11,"isMegawatt":false,"status":"AVAILABLE","source":"ndw","priceKwh":0.54}},{"type":"Feature","geometry":{"type":"Point","coordinates":[4.636382,52.040685]},"properties":{"type":"charge","layer":"passenger","locationId":"89637099","name":"EQUANS SGZH 2.0 89637099","address":"Nicolaaserf 11","city":"Waddinxveen","operatorName":"EQUANS","maxPowerKw":0,"isMegawatt":false,"status":"CHARGING","source":"ndw"}},{"type":"Feature","geometry":{"type":"Point","coordinates":[4.634034,52.037241]},"properties":{"type":"charge","layer":"passenger","locationId":"89455012","name":"EQUANS SGZH 2.0 89455012","address":"Anna de Waalhoeve 35","city":"Waddinxveen","operatorName":"EQUANS","maxPowerKw":0,"isMegawatt":false,"status":"AVAILABLE","source":"ndw"}},{"type":"Feature","geometry":{"type":"Point","coordinates":[4.6472,52.03496]},"properties":{"type":"charge","layer":"passenger","locationId":"91366053","name":"EQUANS SGZH 2.0 Graan voor Visch 15","address":"Graan voor Visch 15","city":"Waddinxveen","operatorName":"EQUANS","maxPowerKw":0,"isMegawatt":false,"status":"AVAILABLE","source":"ndw"}},{"type":"Feature","geometry":{"type":"Point","coordinates":[4.655987,52.033442]},"properties":{"type":"charge","layer":"passenger","locationId":"89329930","name":"EQUANS SGZH 2.0 89329930","address":"Junolaan 1","city":"Waddinxveen","operatorName":"EQUANS","maxPowerKw":0,"isMegawatt":false,"status":"AVAILABLE","source":"ndw"}},{"type":"Feature","geometry":{"type":"Point","coordinates":[4.639774,52.038172]},"properties":{"type":"charge","layer":"passenger","locationId":"NLLOC013029","name":"NL, Graanakker 110, 2743 EL Waddinxveen","address":"Graanakker 110","city":"Waddinxveen","operatorName":"Allego","maxPowerKw":0,"isMegawatt":false,"status":"AVAILABLE","source":"ndw","priceKwh":0.511}},{"type":"Feature","geometry":{"type":"Point","coordinates":[4.633063,52.035379]},