{"type":"FeatureCollection","metadata":{"gemeente":"Waterland","slug":"waterland","code":"GM0852","generated_at":"2026-06-02T13:19:22.438Z","total_passenger":102,"total_freight":0,"bounds":[4.946876453209988,52.415129273860636,5.139380184575512,52.494732952119016],"operators":["NXT50Five","TotalEnergies","Ubitricity","Vattenfall InCharge"]},"features":[{"type":"Feature","geometry":{"type":"Point","coordinates":[4.9515,52.46793]},"properties":{"type":"charge","layer":"passenger","locationId":"ede336bc-d545-11ec-8c13-42010a840003","name":"Shell Recharge NL Lepelaarstraat 52 Ilpendam","address":"Lepelaarstraat 52","city":"Ilpendam","operatorName":"Ubitricity","maxPowerKw":11,"isMegawatt":false,"status":"AVAILABLE","source":"ndw"}},{"type":"Feature","geometry":{"type":"Point","coordinates":[5.042424,52.445813]},"properties":{"type":"charge","layer":"passenger","locationId":"BF4B4679-6DE0-4A87-B135-F0A3386AEE60","name":"TNLP008447","address":"Leeuwetand 20","city":"Monnickendam","operatorName":"TotalEnergies","maxPowerKw":14,"isMegawatt":false,"status":"AVAILABLE","source":"ndw"}},{"type":"Feature","geometry":{"type":"Point","coordinates":[5.10267,52.459676]},"properties":{"type":"charge","layer":"passenger","locationId":"6f1a3acc-c30e-4c37-b599-ebc02beac2e7","name":"TNLP007288","address":"Akkerstraat 11","city":"Marken","operatorName":"TotalEnergies","maxPowerKw":17,"isMegawatt":false,"status":"CHARGING","source":"ndw"}},{"type":"Feature","geometry":{"type":"Point","coordinates":[4.99821,52.43088]},"properties":{"type":"charge","layer":"passenger","locationId":"4b359dec-d545-11ec-80e3-42010a840003","name":"Shell Recharge NL Wagengouw 10 Broek in Waterland","address":"Wagengouw 10","city":"Broek in Waterland","operatorName":"Ubitricity","maxPowerKw":11,"isMegawatt":false,"status":"CHARGING","source":"ndw"}},{"type":"Feature","geometry":{"type":"Point","coordinates":[4.95146,52.463657]},"properties":{"type":"charge","layer":"passenger","locationId":"a670cbda-f7ce-11e8-9b62-42010a840002","name":"Shell Recharge NL De Noord 2 Ilpendam","address":"De Noord 2","city":"Ilpendam","operatorName":"Ubitricity","maxPowerKw":11,"isMegawatt":false,"status":"AVAILABLE","source":"ndw"}},{"type":"Feature","geometry":{"type":"Point","coordinates":[5.033499,52.459888]},"properties":{"type":"charge","layer":"passenger","locationId":"b6222c64-5798-11f0-9720-42010aa400b8","name":"Shell Recharge NL Nieuwe Zijds Burgwal 32, Monnickendam","address":"Nieuwe Zijds Burgwal 32","city":"Monnickendam","operatorName":"Ubitricity","maxPowerKw":22,"isMegawatt":false,"status":"CHARGING","source":"ndw"}},{"type":"Feature","geometry":{"type":"Point","coordinates":[5.040648,52.446024]},"properties":{"type":"charge","layer":"passenger","locationId":"BFD2386F-3D2C-41C9-A977-2150B8898FD2","name":"TNLP007500","address":"Bereklauw 15","city":"Monnickendam","operatorName":"TotalEnergies","maxPowerKw":17,"isMegawatt":false,"status":"AVAILABLE","source":"ndw"}},{"type":"Feature","geometry":{"type":"Point","coordinates":[5.04357,52.453524]},"properties":{"type":"charge","layer":"passenger","locationId":"fbb50602-0273-11ed-befc-42010aa40046","name":"TNLP007474","address":"Cornelis Dirkszoonlaan 84","city":"Monnickendam","operatorName":"TotalEnergies","maxPowerKw":17,"isMegawatt":false,"status":"AVAILABLE","source":"ndw"}},{"type":"Feature","geometry":{"type":"Point","coordinates":[5.035239,52.455688]},"properties":{"type":"charge","layer":"passenger","locationId":"92355e3f-4f93-4e49-9a4b-76e4bc6b4174","name":"TNLP015166","address":"Marijkestraat 52","city":"Monnickendam","operatorName":"TotalEnergies","maxPowerKw":17,"isMegawatt":false,"status":"AVAILABLE","source":"ndw"}},{"type":"Feature","geometry":{"type":"Point","coordinates":[5.03235,52.44934]},"properties":{"type":"charge","layer":"passenger","locationId":"fdc1d14e-ca42-11e9-a9f0-42010a840037","name":"Shell Recharge NL Lijnbaan 11 Monnickendam","address":"Lijnbaan 11","city":"Monnickendam","operatorName":"Ubitricity","maxPowerKw":11,"isMegawatt":false,"status":"AVAILABLE","source":"ndw"}},{"type":"Feature","geometry":{"type":"Point","coordinates":[4.952164,52.459526]},"properties":{"type":"charge","layer":"passenger","locationId":"a6e1a744-2554-11ed-ad73-42010aa4004f","name":"TNLP007553","address":"Dorpsstraat 77","city":"Ilpendam","operatorName":"TotalEnergies","maxPowerKw":17,"isMegawatt":false,"status":"UNAVAILABLE","source":"ndw"}},{"type":"Feature","geometry":{"type":"Point","coordinates":[5.041691,52.449272]},"properties":{"type":"charge","layer":"passenger","locationId":"0d3fa17c-2168-4c0b-b35d-895d40023e37","name":"TNLP007024","address":"Houtrib 102","city":"Monnickendam","operatorName":"TotalEnergies","maxPowerKw":17,"isMegawatt":false,"status":"AVAILABLE","source":"ndw"}},{"type":"Feature","geometry":{"type":"Point","coordinates":[5.037256,52.455537]},"properties":{"type":"charge","layer":"passenger","locationId":"710","name":"Shell Recharge NL Pierebaan 7","address":"Pierebaan 7","city":"Monnickendam","operatorName":"Ubitricity","maxPowerKw":11,"isMegawatt":false,"status":"AVAILABLE","source":"ndw"}},{"type":"Feature","geometry":{"type":"Point","coordinates":[5.043283,52.450525]},"properties":{"type":"charge","layer":"passenger","locationId":"9bb1cfae-3e91-11ea-a495-42010a840fce","name":"Shell Recharge NL Cornelis Dirkszoonlaan 328 Monnickendam","address":"Cornelis Dirkszoonlaan 328","city":"Monnickendam","operatorName":"Ubitricity","maxPowerKw":11,"isMegawatt":false,"status":"AVAILABLE","source":"ndw"}},{"type":"Feature","geometry":{"type":"Point","coordinates":[5.033105,52.452187]},"properties":{"type":"charge","layer":"passenger","locationId":"f76272ac-9d88-11f0-a506-42010aa400b8","name":"Shell Recharge NL Avegaar 48, Monnickendam","address":"Avegaar 48","city":"Monnickendam","operatorName":"Ubitricity","maxPowerKw":22,"isMegawatt":false,"status":"AVAILABLE","source":"ndw"}},{"type":"Feature","geometry":{"type":"Point","coordinates":[5.03735,52.44925]},"properties":{"type":"charge","layer":"passenger","locationId":"592","name":"Shell Recharge NL Opheve 20","address":"Opheve 20","city":"Monnickendam","operatorName":"Ubitricity","maxPowerKw":11,"isMegawatt":false,"status":"AVAILABLE","source":"ndw"}},{"type":"Feature","geometry":{"type":"Point","coordinates":[4.949791,52.4656]},"properties":{"type":"charge","layer":"passenger","locationId":"849927f6-9e25-11ef-bcf1-42010aa400b8","name":"Shell Recharge NL Kievitstraat 24, Ilpendam","address":"Kievitstraat 24","city":"Ilpendam","operatorName":"Ubitricity","maxPowerKw":22,"isMegawatt":false,"status":"AVAILABLE","source":"ndw"}},{"type":"Feature","geometry":{"type":"Point","coordinates":[5.04357,52.453524]},"properties":{"type":"charge","layer":"passenger","locationId":"880C5B57-01B1-42E9-8CA5-02DE2505C80E","name":"TNLP007474","address":"Cornelis Dirkszoonlaan 84","city":"Monnickendam","operatorName":"TotalEnergies","maxPowerKw":17,"isMegawatt":false,"status":"AVAILABLE","source":"ndw"}},{"type":"Feature","geometry":{"type":"Point","coordinates":[5.042898,52.448191]},"properties":{"type":"charge","layer":"passenger","locationId":"98a85203-01b2-4f28-9ba3-c429078966d5","name":"TNLP015223","address":"Houtrib 144","city":"Monnickendam","operatorName":"TotalEnergies","maxPowerKw":17,"isMegawatt":false,"status":"AVAILABLE","source":"ndw"}},{"type":"Feature","geometry":{"type":"Point","coordinates":[5.03755,52.4562]},"properties":{"type":"charge","layer":"passenger","locationId":"7c551bd0-d547-11ec-99f1-42010a840003","name":"Shell Recharge NL Swaensborch 1 Waterland","address":"Swaensborch 1","city":"Waterland","operatorName":"Ubitricity","maxPowerKw":11,"isMegawatt":false,"status":"CHARGING","source":"ndw"}},{"type":"Feature","geometry":{"type":"Point","coordinates":[5.03113,52.45596]},"properties":{"type":"charge","layer":"passenger","locationId":"c0c3b81a-fb3a-11e9-8055-42010a84000f","name":"Shell Recharge NL Nieuwpoortslaan 14 Monnickendam","address":"Nieuwpoortslaan 14","city":"Monnickendam","operatorName":"Ubitricity","maxPowerKw":11,"isMegawatt":false,"status":"AVAILABLE","source":"ndw"}},{"type":"Feature","geometry":{"type":"Point","coordinates":[4.99708,52.43537]},"properties":{"type":"charge","layer":"passenger","locationId":"5899ecac-d547-11ec-88f1-42010a840003","name":"Shell Recharge NL Nieuwland 34, Waterland, [AN null]","address":"Nieuwland 34","city":"Waterland","operatorName":"Ubitricity","maxPowerKw":11,"isMegawatt":false,"status":"AVAILABLE","source":"ndw"}},{"type":"Feature","geometry":{"type":"Point","coordinates":[5.037256,52.455537]},"properties":{"type":"charge","layer":"passenger","locationId":"73fe74b0-98f7-11ea-abed-42010a840fe8","name":"Shell Recharge NL Pierebaan 7 Monnickendam","address":"Pierebaan 7","city":"Monnickendam","operatorName":"Ubitricity","maxPowerKw":11,"isMegawatt":false,"status":"CHARGING","source":"ndw"}},{"type":"Feature","geometry":{"type":"Point","coordinates":[5.03735,52.44925]},"properties":{"type":"charge","layer":"passenger","locationId":"b0d92aba-92a4-11e9-8e55-42010a840fc4","name":"Shell Recharge NL Opheve 20 Monnickendam","address":"Opheve 20","city":"Monnickendam","operatorName":"Ubitricity","maxPowerKw":11,"isMegawatt":false,"status":"AVAILABLE","source":"ndw"}},{"type":"Feature","geometry":{"type":"Point","coordinates":[5.0334995,52.4598877]},"properties":{"type":"charge","layer":"passenger","locationId":"908","name":"Shell Recharge NL Nieuwe Zijds Burgwal 32","address":"Nieuwe Zijds Burgwal 32","city":"Monnickendam","operatorName":"Ubitricity","maxPowerKw":22,"isMegawatt":false,"status":"AVAILABLE","source":"ndw"}},{"type":"Feature","geometry":{"type":"Point","coordinates":[4.95151,52.463713]},"properties":{"type":"charge","layer":"passenger","locationId":"59f6c35c-e46e-11ef-85f8-42010aa400b8","name":"PP005353","address":"De Noord 3","city":"Ilpendam","operatorName":"TotalEnergies","maxPowerKw":0,"isMegawatt":false,"status":"AVAILABLE","source":"ndw"}},{"type":"Feature","geometry":{"type":"Point","coordinates":[5.036175,52.462266]},"properties":{"type":"charge","layer":"passenger","locationId":"91b164d0-9ac7-11ec-a912-42010a840074","name":"TNLP007158","address":"Haringburgwal 11a","city":"Monnickendam","operatorName":"TotalEnergies","maxPowerKw":17,"isMegawatt":false,"status":"AVAILABLE","source":"ndw"}},{"type":"Feature","geometry":{"type":"Point","coordinates":[4.996667,52.435723]},"properties":{"type":"charge","layer":"passenger","locationId":"41f22dde-58cc-11ee-962e-42010aa40fc0","name":"TNLP008940","address":"Nieuwland 34","city":"Broek in Waterland","operatorName":"TotalEnergies","maxPowerKw":14,"isMegawatt":false,"status":"AVAILABLE","source":"ndw"}},{"type":"Feature","geometry":{"type":"Point","coordinates":[4.99858,52.43344]},"properties":{"type":"charge","layer":"passenger","locationId":"712d6018-42ba-11ea-861e-42010a840010","name":"PP004230","address":"Eilandweg 1","city":"Broek in Waterland","operatorName":"TotalEnergies","maxPowerKw":0,"isMegawatt":false,"status":"AVAILABLE","source":"ndw"}},{"type":"Feature","geometry":{"type":"Point","coordinates":[5.04252,52.455128]},"properties":{"type":"charge","layer":"passenger","locationId":"9f848ec6-82d0-11f0-89e1-42010aa400b8","name":"TNLP009811","address":"Jan Persijnlaan 162","city":"Monnickendam","operatorName":"TotalEnergies","maxPowerKw":17,"isMegawatt":false,"status":"UNAVAILABLE","source":"ndw"}},{"type":"Feature","geometry":{"type":"Point","coordinates":[5.031422,52.457073]},"properties":{"type":"charge","layer":"passenger","locationId":"63e1bc92-4f3c-11e8-b7f9-42010a840002","name":"Shell Recharge NL Vesting 1 Monnickendam","address":"Vesting 1","city":"Monnickendam","operatorName":"Ubitricity","maxPowerKw":11,"isMegawatt":false,"status":"AVAILABLE","source":"ndw"}},{"type":"Feature","geometry":{"type":"Point","coordinates":[5.04125,52.44775]},"properties":{"type":"charge","layer":"passenger","locationId":"6890e0a8-d546-11ec-86e4-42010a840003","name":"Shell Recharge NL Trintel 127 Monnickendam","address":"Trintel 127","city":"Monnickendam","operatorName":"Ubitricity","maxPowerKw":11,"isMegawatt":false,"status":"AVAILABLE","source":"ndw"}},{"type":"Feature","geometry":{"type":"Point","coordinates":[5.037641,52.448604]},"properties":{"type":"charge","layer":"passenger","locationId":"63221b7e-c8bc-11f0-abd2-42010aa400b8","name":"TNLP009394","address":"Rielant 18","city":"Monnickendam","operatorName":"TotalEnergies","maxPowerKw":17,"isMegawatt":false,"status":"AVAILABLE","source":"ndw"}},{"type":"Feature","geometry":{"type":"Point","coordinates":[5.040046,52.456123]},"properties":{"type":"charge","layer":"passenger","locationId":"f1a41334-d545-11ec-87f7-42010a840003","name":"Shell Recharge NL Graaf Willemlaan 1 Monnickendam","address":"Graaf Willemlaan 1","city":"Monnickendam","operatorName":"Ubitricity","maxPowerKw":11,"isMegawatt":false,"status":"AVAILABLE","source":"ndw"}},{"type":"Feature","geometry":{"type":"Point","coordinates":[5.10369,52.45649]},"properties":{"type":"charge","layer":"passenger","locationId":"a51db26a-4f3c-11e8-a8d4-42010a840002","name":"Shell Recharge NL Kets 21 Waterland","address":"Kets 21","city":"Waterland","operatorName":"Ubitricity","maxPowerKw":11,"isMegawatt":false,"status":"AVAILABLE","source":"ndw"}},{"type":"Feature","geometry":{"type":"Point","coordinates":[5.10504,52.45938]},"properties":{"type":"charge","layer":"passenger","locationId":"62d7abaa-5ef7-11ea-b65e-42010a840032","name":"PP005062","address":"Buurterstraat 2","city":"Marken","operatorName":"TotalEnergies","maxPowerKw":0,"isMegawatt":false,"status":"AVAILABLE","source":"ndw"}},{"type":"Feature","geometry":{"type":"Point","coordinates":[5.041691,52.449272]},"properties":{"type":"charge","layer":"passenger","locationId":"c8450ce8-8598-11ec-a1a9-42010a840053","name":"TNLP007024","address":"Houtrib 102","city":"Monnickendam","operatorName":"TotalEnergies","maxPowerKw":17,"isMegawatt":false,"status":"AVAILABLE","source":"ndw"}},{"type":"Feature","geometry":{"type":"Point","coordinates":[5.11018,52.46233]},"properties":{"type":"charge","layer":"passenger","locationId":"f9c04cec-daef-11ea-a861-42010a840013","name":"PP005445","address":"Minneweg 2","city":"Marken","operatorName":"TotalEnergies","maxPowerKw":0,"isMegawatt":false,"status":"AVAILABLE","source":"ndw"}},{"type":"Feature","geometry":{"type":"Point","coordinates":[5.030261,52.452364]},"properties":{"type":"charge","layer":"passenger","locationId":"b7552cf2-b577-4eca-85a7-0968335c1962","name":"PP005012","address":"Tongnaald 1","city":"Monnickendam","operatorName":"TotalEnergies","maxPowerKw":0,"isMegawatt":false,"status":"UNAVAILABLE","source":"ndw"}},{"type":"Feature","geometry":{"type":"Point","coordinates":[5.031985,52.461621]},"properties":{"type":"charge","layer":"passenger","locationId":"6C977E44-CFE4-4C26-AD53-C7FD796D0AEF","name":"TNLP007459","address":"Leo Hordijkstraat 25","city":"Monnickendam","operatorName":"TotalEnergies","maxPowerKw":17,"isMegawatt":false,"status":"AVAILABLE","source":"ndw"}},{"type":"Feature","geometry":{"type":"Point","coordinates":[4.99821,52.43088]},"properties":{"type":"charge","layer":"passenger","locationId":"139","name":"Shell Recharge NL Wagengouw 10","address":"Wagengouw 10","city":"Broek in Waterland","operatorName":"Ubitricity","maxPowerKw":11,"isMegawatt":false,"status":"CHARGING","source":"ndw"}},{"type":"Feature","geometry":{"type":"Point","coordinates":[4.99713,52.43564]},"properties":{"type":"charge","layer":"passenger","locationId":"4b733b28-c72e-11f0-9afb-42010aa400b8","name":"PP004059","address":"Nieuwland 23","city":"Broek in Waterland","operatorName":"TotalEnergies","maxPowerKw":0,"isMegawatt":false,"status":"AVAILABLE","source":"ndw"}},{"type":"Feature","geometry":{"type":"Point","coordinates":[5.10369,52.45649]},"properties":{"type":"charge","layer":"passenger","locationId":"1540","name":"Shell Recharge NL Kets 21","address":"Kets 21","city":"Waterland","operatorName":"Ubitricity","maxPowerKw":11,"isMegawatt":false,"status":"AVAILABLE","source":"ndw"}},{"type":"Feature","geometry":{"type":"Point","coordinates":[5.03235,52.44934]},"properties":{"type":"charge","layer":"passenger","locationId":"571","name":"Shell Recharge NL Lijnbaan 11","address":"Lijnbaan 11","city":"Monnickendam","operatorName":"Ubitricity","maxPowerKw":11,"isMegawatt":false,"status":"AVAILABLE","source":"ndw"}},{"type":"Feature","geometry":{"type":"Point","coordinates":[5.044836,52.447678]},"properties":{"type":"charge","layer":"passenger","locationId":"531e458e-c8be-11f0-aadc-42010aa400b8","name":"TNLP008595","address":"Zwaluwtong 112","city":"Monnickendam","operatorName":"TotalEnergies","maxPowerKw":14,"isMegawatt":false,"status":"AVAILABLE","source":"ndw"}},{"type":"Feature","geometry":{"type":"Point","coordinates":[5.043988,52.446772]},"properties":{"type":"charge","layer":"passenger","locationId":"dc626105-4d4b-45e3-a8ee-1b22f91efea7","name":"TNLP006462","address":"Leeuwetand 97","city":"Monnickendam","operatorName":"TotalEnergies","maxPowerKw":17,"isMegawatt":false,"status":"AVAILABLE","source":"ndw"}},{"type":"Feature","geometry":{"type":"Point","coordinates":[4.9515,52.46793]},"properties":{"type":"charge","layer":"passenger","locationId":"372","name":"Shell Recharge NL Lepelaarstraat 52","address":"Lepelaarstraat 52","city":"Ilpendam","operatorName":"Ubitricity","maxPowerKw":11,"isMegawatt":false,"status":"CHARGING","source":"ndw"}},{"type":"Feature","geometry":{"type":"Point","coordinates":[5.10936,52.46225]},"properties":{"type":"charge","layer":"passenger","locationId":"aaf30edc4fca14ba90a547ccd6badf1b","name":"Minneweg 2","address":"Minneweg 2","city":"Marken","operatorName":"Vattenfall InCharge","maxPowerKw":11,"isMegawatt":false,"status":"AVAILABLE","source":"ndw"}},{"type":"Feature","geometry":{"type":"Point","coordinates":[4.9497912,52.4655995]},"properties":{"type":"charge","layer":"passenger","locationId":"998","name":"Shell Recharge NL Kievitstraat 24","address":"Kievitstraat 24","city":"Ilpendam","operatorName":"Ubitricity","maxPowerKw":22,"isMegawatt":false,"status":"AVAILABLE","source":"ndw"}},{"type":"Feature","geometry":{"type":"Point","coordinates":[5.031431,52.457131]},"properties":{"type":"charge","layer":"passenger","locationId":"63e1bc92-4f3c-11e8-b7f9-42010a840002","name":"PP005268","address":"Vesting 2","city":"Monnickendam","operatorName":"TotalEnergies","maxPowerKw":0,"isMegawatt":false,"status":"AVAILABLE","source":"ndw"}},{"type":"Feature","geometry":{"type":"Point","coordinates":[5.043988,52.446772]},"properties":{"type":"charge","layer":"passenger","locationId":"b9c34d7a-cd73-11f0-a97a-42010aa400b8","name":"TNLP006462","address":"Leeuwetand 97","city":"Monnickendam","operatorName":"TotalEnergies","maxPowerKw":17,"isMegawatt":false,"status":"AVAILABLE","source":"ndw"}},{"type":"Feature","geometry":{"type":"Point","coordinates":[5.044522,52.455297]},"properties":{"type":"charge","layer":"passenger","locationId":"910c0872-1e7d-11eb-8ddd-42010a840fdf","name":"PP005618","address":"Cornelis Dirkszoonlaan 1","city":"Monnickendam","operatorName":"TotalEnergies","maxPowerKw":0,"isMegawatt":false,"status":"AVAILABLE","source":"ndw"}},{"type":"Feature","geometry":{"type":"Point","coordinates":[5.040648,52.446024]},"properties":{"type":"charge","layer":"passenger","locationId":"ebfea600-8461-11f0-8e08-42010aa400b8","name":"TNLP007500","address":"Bereklauw 15","city":"Monnickendam","operatorName":"TotalEnergies","maxPowerKw":17,"isMegawatt":false,"status":"AVAILABLE","source":"ndw"}},{"type":"Feature","geometry":{"type":"Point","coordinates":[5.039006,52.45878]},"properties":{"type":"charge","layer":"passenger","locationId":"f277502e-90f3-11f0-9dd6-42010aa400b8","name":"TNLP007010","address":"t Prooyen 12","city":"Monnickendam","operatorName":"TotalEnergies","maxPowerKw":17,"isMegawatt":false,"status":"CHARGING","source":"ndw"}},{"type":"Feature","geometry":{"type":"Point","coordinates":[5.035239,52.455688]},"properties":{"type":"charge","layer":"passenger","locationId":"172b07ee-ad10-11ef-8c50-42010aa400b8","name":"TNLP015166","address":"Marijkestraat 52","city":"Monnickendam","operatorName":"TotalEnergies","maxPowerKw":17,"isMegawatt":false,"status":"AVAILABLE","source":"ndw"}},{"type":"Feature","geometry":{"type":"Point","coordinates":[5.042898,52.448191]},"properties":{"type":"charge","layer":"passenger","locationId":"3183e468-cf0a-11f0-be80-42010aa400b8","name":"TNLP015223","address":"Houtrib 144","city":"Monnickendam","operatorName":"TotalEnergies","maxPowerKw":17,"isMegawatt":false,"status":"AVAILABLE","source":"ndw"}},{"type":"Feature","geometry":{"type":"Point","coordinates":[4.95171,52.46507]},"properties":{"type":"charge","layer":"passenger","locationId":"333055f4-40da-11ea-b944-42010a840fea","name":"PP004287","address":"Lepelaarstraat 7","city":"Ilpendam","operatorName":"TotalEnergies","maxPowerKw":0,"isMegawatt":false,"status":"AVAILABLE","source":"ndw"}},{"type":"Feature","geometry":{"type":"Point","coordinates":[5.034397,52.459261]},"properties":{"type":"charge","layer":"passenger","locationId":"3b80d96e-2b2a-11eb-8c20-42010a840058","name":"TNLP007090","address":"Kermergracht 2","city":"Monnickendam","operatorName":"TotalEnergies","maxPowerKw":17,"isMegawatt":false,"status":"CHARGING","source":"ndw"}},{"type":"Feature","geometry":{"type":"Point","coordinates":[5.030261,52.452364]},"properties":{"type":"charge","layer":"passenger","locationId":"387af348-571e-11ea-81fc-42010a84000f","name":"PP005012","address":"Tongnaald 1","city":"Monnickendam","operatorName":"TotalEnergies","maxPowerKw":0,"isMegawatt":false,"status":"AVAILABLE","source":"ndw"}},{"type":"Feature","geometry":{"type":"Point","coordinates":[5.043283,52.450525]},"properties":{"type":"charge","layer":"passenger","locationId":"746","name":"Shell Recharge NL Cornelis Dirkszoonlaan 328","address":"Cornelis Dirkszoonlaan 328","city":"Monnickendam","operatorName":"Ubitricity","maxPowerKw":11,"isMegawatt":false,"status":"AVAILABLE","source":"ndw"}},{"type":"Feature","geometry":{"type":"Point","coordinates":[5.034335,52.459227]},"properties":{"type":"charge","layer":"passenger","locationId":"4215e8f9-6a83-4277-8165-12c217b68932","name":"TNLP007104","address":"Kermergracht 1","city":"Monnickendam","operatorName":"TotalEnergies","maxPowerKw":17,"isMegawatt":false,"status":"AVAILABLE","source":"ndw"}},{"type":"Feature","geometry":{"type":"Point","coordinates":[5.041107,52.452326]},"properties":{"type":"charge","layer":"passenger","locationId":"cb4d5602-b127-11f0-8fa5-42010aa400b8","name":"TNLP006520","address":"Jan Nieuwenhuyzenlaan 24","city":"Monnickendam","operatorName":"TotalEnergies","maxPowerKw":17,"isMegawatt":false,"status":"AVAILABLE","source":"ndw"}},{"type":"Feature","geometry":{"type":"Point","coordinates":[5.03698,52.43111]},"properties":{"type":"charge","layer":"passenger","locationId":"d48e38b0-cb14-11f0-862e-42010aa400b8","name":"PP004079","address":"Zuiderwouder Dorpsstraat 39","city":"Zuiderwoude","operatorName":"TotalEnergies","maxPowerKw":0,"isMegawatt":false,"status":"AVAILABLE","source":"ndw"}},{"type":"Feature","geometry":{"type":"Point","coordinates":[4.954362,52.467208]},"properties":{"type":"charge","layer":"passenger","locationId":"c80184aa-8526-11f0-8832-42010aa400b8","name":"TNLP007543","address":"Fuutstraat 44","city":"Ilpendam","operatorName":"TotalEnergies","maxPowerKw":17,"isMegawatt":false,"status":"AVAILABLE","source":"ndw"}},{"type":"Feature","geometry":{"type":"Point","coordinates":[5.030989,52.450087]},"properties":{"type":"charge","layer":"passenger","locationId":"07af89ac-6813-11f0-8017-42010aa400b8","name":"TNLP034095","address":"Drevel 59","city":"Monnickendam","operatorName":"TotalEnergies","maxPowerKw":14,"isMegawatt":false,"status":"AVAILABLE","source":"ndw"}},{"type":"Feature","geometry":{"type":"Point","coordinates":[5.10267,52.459676]},"properties":{"type":"charge","layer":"passenger","locationId":"5a95caac-d02f-11ec-b502-42010aa40059","name":"TNLP007288","address":"Akkerstraat 11","city":"Marken","operatorName":"TotalEnergies","maxPowerKw":17,"isMegawatt":false,"status":"AVAILABLE","source":"ndw"}},{"type":"Feature","geometry":{"type":"Point","coordinates":[5.03672,52.44737]},"properties":{"type":"charge","layer":"passenger","locationId":"cd287eee-d547-11ec-9014-42010a840003","name":"PP004129","address":"Rielant 50","city":"Monnickendam","operatorName":"TotalEnergies","maxPowerKw":0,"isMegawatt":false,"status":"AVAILABLE","source":"ndw"}},{"type":"Feature","geometry":{"type":"Point","coordinates":[5.00199,52.43222]},"properties":{"type":"charge","layer":"passenger","locationId":"4268ab16-ca4f-11f0-a658-42010aa400b8","name":"PP004218","address":"De Draai 1","city":"Broek in Waterland","operatorName":"TotalEnergies","maxPowerKw":0,"isMegawatt":false,"status":"AVAILABLE","source":"ndw"}},{"type":"Feature","geometry":{"type":"Point","coordinates":[5.042424,52.445813]},"properties":{"type":"charge","layer":"passenger","locationId":"1fd423aa-c8ba-11f0-b8e3-42010aa400b8","name":"TNLP008447","address":"Leeuwetand 20","city":"Monnickendam","operatorName":"TotalEnergies","maxPowerKw":14,"isMegawatt":false,"status":"AVAILABLE","source":"ndw"}},{"type":"Feature","geometry":{"type":"Point","coordinates":[5.04357,52.453524]},"properties":{"type":"charge","layer":"passenger","locationId":"ea54f9e6-b6af-11f0-a751-42010aa400b8","name":"TNLP007474","address":"Cornelis Dirkszoonlaan 84","city":"Monnickendam","operatorName":"TotalEnergies","maxPowerKw":17,"isMegawatt":false,"status":"AVAILABLE","source":"ndw"}},{"type":"Feature","geometry":{"type":"Point","coordinates":[5.031985,52.461621]},"properties":{"type":"charge","layer":"passenger","locationId":"fbaeae56-0273-11ed-93eb-42010aa40028","name":"TNLP007459","address":"Leo Hordijkstraat 25","city":"Monnickendam","operatorName":"TotalEnergies","maxPowerKw":17,"isMegawatt":false,"status":"AVAILABLE","source":"ndw"}},{"type":"Feature","geometry":{"type":"Point","coordinates":[5.03113,52.45596]},"properties":{"type":"charge","layer":"passenger","locationId":"697","name":"Shell Recharge NL Nieuwpoortslaan 14","address":"Nieuwpoortslaan 14","city":"Monnickendam","operatorName":"Ubitricity","maxPowerKw":11,"isMegawatt":false,"status":"AVAILABLE","source":"ndw"}},{"type":"Feature","geometry":{"type":"Point","coordinates":[5.044836,52.447678]},"properties":{"type":"charge","layer":"passenger","locationId":"88B334D9-979C-4014-9018-2F768AEA1E56","name":"TNLP008595","address":"Zwaluwtong 112","city":"Monnickendam","operatorName":"TotalEnergies","maxPowerKw":14,"isMegawatt":false,"status":"AVAILABLE","source":"ndw"}},{"type":"Feature","geometry":{"type":"Point","coordinates":[5.044522,52.455297]},"properties":{"type":"charge","layer":"passenger","locationId":"12341b2e-2e81-460d-b7b2-8016383e554c","name":"PP005618","address":"Cornelis Dirkszoonlaan 1","city":"Monnickendam","operatorName":"TotalEnergies","maxPowerKw":0,"isMegawatt":false,"status":"AVAILABLE","source":"ndw"}},{"type":"Feature","geometry":{"type":"Point","coordinates":[5.037067,52.449673]},"properties":{"type":"charge","layer":"passenger","locationId":"67bc825f7b4a576fdbe72332","name":"NXT 50five - Monnickendam - 't Spil 32 - DC","address":"'t Spil 32","city":"Monnickendam","operatorName":"NXT50Five","maxPowerKw":50,"isMegawatt":false,"status":"AVAILABLE","source":"ndw"}},{"type":"Feature","geometry":{"type":"Point","coordinates":[5.10504,52.45938]},"properties":{"type":"charge","layer":"passenger","locationId":"91e395c0-fad9-441f-9178-937fea94b572","name":"PP005062","address":"Buurterstraat 2","city":"Marken","operatorName":"TotalEnergies","maxPowerKw":0,"isMegawatt":false,"status":"CHARGING","source":"ndw"}},{"type":"Feature","geometry":{"type":"Point","coordinates":[5.103698,52.456497]},"properties":{"type":"charge","layer":"passenger","locationId":"a47e4f689902bbacdfc0dfe82f17e162","name":"Kets 21","address":"Kets 21","city":"Marken","operatorName":"Vattenfall InCharge","maxPowerKw":11,"isMegawatt":false,"status":"AVAILABLE","source":"ndw"}},{"type":"Feature","geometry":{"type":"Point","coordinates":[5.031431,52.457131]},"properties":{"type":"charge","layer":"passenger","locationId":"8694c868-7248-416f-bcc4-106afe30ecf9","name":"PP005268","address":"Vesting 2","city":"Monnickendam","operatorName":"TotalEnergies","maxPowerKw":0,"isMegawatt":false,"status":"AVAILABLE","source":"ndw"}},{"type":"Feature","geometry":{"type":"Point","coordinates":[5.040046,52.456123]},"properties":{"type":"charge","layer":"passenger","locationId":"378","name":"Shell Recharge NL Graaf Willemlaan 1","address":"Graaf Willemlaan 1","city":"Monnickendam","operatorName":"Ubitricity","maxPowerKw":11,"isMegawatt":false,"status":"CHARGING","source":"ndw"}},{"type":"Feature","geometry":{"type":"Point","coordinates":[5.037641,52.448604]},"properties":{"type":"charge","layer":"passenger","locationId":"87C19A0F-F861-47C1-B208-F84A8465409C","name":"TNLP009394","address":"Rielant 18","city":"Monnickendam","operatorName":"TotalEnergies","maxPowerKw":17,"isMegawatt":false,"status":"AVAILABLE","source":"ndw"}},{"type":"Feature","geometry":{"type":"Point","coordinates":[5.036175,52.462266]},"properties":{"type":"charge","layer":"passenger","locationId":"11B865F1-01AE-4CB6-A9D9-57B96C60E652","name":"TNLP007158","address":"Haringburgwal 11a","city":"Monnickendam","operatorName":"TotalEnergies","maxPowerKw":17,"isMegawatt":false,"status":"AVAILABLE","source":"ndw"}},{"type":"Feature","geometry":{"type":"Point","coordinates":[5.00199,52.43222]},"properties":{"type":"charge","layer":"passenger","locationId":"50d04265-7e2a-40cf-8d7a-97fdbe897b7a","name":"PP004218","address":"De Draai 1","city":"Broek in Waterland","operatorName":"TotalEnergies","maxPowerKw":0,"isMegawatt":false,"status":"AVAILABLE","source":"ndw"}},{"type":"Feature","geometry":{"type":"Point","coordinates":[4.954362,52.467208]},"properties":{"type":"charge","layer":"passenger","locationId":"EF697189-612B-4817-93B1-54C74F0BB216","name":"TNLP007543","address":"Fuutstraat 44","city":"Ilpendam","operatorName":"TotalEnergies","maxPowerKw":17,"isMegawatt":false,"status":"AVAILABLE","source":"ndw"}},{"type":"Feature","geometry":{"type":"Point","coordinates":[5.03698,52.43111]},"properties":{"type":"charge","layer":"passenger","locationId":"3e8119c8-6a0d-4f7e-831a-d21af49f8d6c","name":"PP004079","address":"Zuiderwouder Dorpsstraat 39","city":"Zuiderwoude","operatorName":"TotalEnergies","maxPowerKw":0,"isMegawatt":false,"status":"AVAILABLE","source":"ndw"}},{"type":"Feature","geometry":{"type":"Point","coordinates":[5.04252,52.455128]},"properties":{"type":"charge","layer":"passenger","locationId":"7E2CC2B2-8D2F-4891-BAE9-2D28D8762A76","name":"TNLP009811","address":"Jan Persijnlaan 162","city":"Monnickendam","operatorName":"TotalEnergies","maxPowerKw":17,"isMegawatt":false,"status":"AVAILABLE","source":"ndw"}},{"type":"Feature","geometry":{"type":"Point","coordinates":[4.99858,52.43344]},"properties":{"type":"charge","layer":"passenger","locationId":"bbe84f60-57dd-4561-b9b9-618c1cb80fe7","name":"PP004230","address":"Eilandweg 1","city":"Broek in Waterland","operatorName":"TotalEnergies","maxPowerKw":0,"isMegawatt":false,"status":"AVAILABLE","source":"ndw"}},{"type":"Feature","geometry":{"type":"Point","coordinates":[5.030989,52.450087]},"properties":{"type":"charge","layer":"passenger","locationId":"587fd713-9687-4a5b-b4b3-9419d99179ac","name":"TNLP034095","address":"Drevel 59","city":"Monnickendam","operatorName":"TotalEnergies","maxPowerKw":14,"isMegawatt":false,"status":"AVAILABLE","source":"ndw"}},{"type":"Feature","geometry":{"type":"Point","coordinates":[4.99713,52.43564]},"properties":{"type":"charge","layer":"passenger","locationId":"5054dd51-7c3a-4b08-8c37-19d8fe5b88a8","name":"PP004059","address":"Nieuwland 23","city":"Broek in Waterland","operatorName":"TotalEnergies","maxPowerKw":0,"isMegawatt":false,"status":"CHARGING","source":"ndw"}},{"type":"Feature","geometry":{"type":"Point","coordinates":[5.041107,52.452326]},"properties":{"type":"charge","layer":"passenger","locationId":"ca56ee8b-2f36-4620-8a72-43ebb0832540","name":"TNLP006520","address":"Jan Nieuwenhuyzenlaan 24","city":"Monnickendam","operatorName":"TotalEnergies","maxPowerKw":17,"isMegawatt":false,"status":"AVAILABLE","source":"ndw"}},{"type":"Feature","geometry":{"type":"Point","coordinates":[4.996667,52.435723]},"properties":{"type":"charge","layer":"passenger","locationId":"54C86AFB-191A-4F5D-B30B-8146692AD96B","name":"TNLP008940","address":"Nieuwland 34","city":"Broek in Waterland","operatorName":"TotalEnergies","maxPowerKw":14,"isMegawatt":false,"status":"CHARGING","source":"ndw"}},{"type":"Feature","geometry":{"type":"Point","coordinates":[5.105269,52.459231]},"properties":{"type":"charge","layer":"passenger","locationId":"521e0fa829c6853751b1487053b2adda","name":"Buurterstraat 17","address":"Buurterstraat 17","city":"Marken","operatorName":"Vattenfall InCharge","maxPowerKw":11,"isMegawatt":false,"status":"AVAILABLE","source":"ndw"}},{"type":"Feature","geometry":{"type":"Point","coordinates":[5.11018,52.46233]},"properties":{"type":"charge","layer":"passenger","locationId":"85d43f31-c7a9-4539-b7ee-8d8429a37c11","name":"PP005445","address":"Minneweg 2","city":"Marken","operatorName":"TotalEnergies","maxPowerKw":0,"isMegawatt":false,"status":"AVAILABLE","source":"ndw"}},{"type":"Feature","geometry":{"type":"Point","coordinates":[4.95151,52.463713]},"properties":{"type":"charge","layer":"passenger","locationId":"72efb89b-1585-459f-aee2-c585d94ebe30","name":"PP005353","address":"De Noord 3","city":"Ilpendam","operatorName":"TotalEnergies","maxPowerKw":0,"isMegawatt":false,"status":"AVAILABLE","source":"ndw"}},{"type":"Feature","geometry":{"type":"Point","coordinates":[5.03672,52.44737]},"properties":{"type":"charge","layer":"passenger","locationId":"46725ee1-c456-4d86-b72b-2bc8e1ee3f53","name":"PP004129","address":"Rielant 50","city":"Monnickendam","operatorName":"TotalEnergies","maxPowerKw":0,"isMegawatt":false,"status":"AVAILABLE","source":"ndw"}},{"type":"Feature","geometry":{"type":"Point","coordinates":[5.039006,52.45878]},"properties":{"type":"charge","layer":"passenger","locationId":"c0159c2a-2fff-48c1-9050-996f1d8723bd","name":"TNLP007010","address":"t Prooyen 12","city":"Monnickendam","operatorName":"TotalEnergies","maxPowerKw":17,"isMegawatt":false,"status":"AVAILABLE","source":"ndw"}},{"type":"Feature","geometry":{"type":"Point","coordinates":[4.95146,52.463657]},"properties":{"type":"charge","layer":"passenger","locationId":"157","name":"Shell Recharge NL De Noord 2","address":"De Noord 2","city":"Ilpendam","operatorName":"Ubitricity","maxPowerKw":11,"isMegawatt":false,"status":"AVAILABLE","source":"ndw"}},{"type":"Feature","geometry":{"type":"Point","coordinates":[5.04125,52.44775]},"properties":{"type":"charge","layer":"passenger","locationId":"570","name":"Shell Recharge NL Trintel 127","address":"Trintel 127","city":"Monnickendam","operatorName":"Ubitricity","maxPowerKw":11,"isMegawatt":false,"status":"AVAILABLE","source":"ndw"}},{"type":"Feature","geometry":{"type":"Point","coordinates":[4.99708,52.43537]},"properties":{"type":"charge","layer":"passenger","locationId":"1583","name":"Shell Recharge NL Nieuwland 34","address":"Nieuwland 34","city":"Waterland","operatorName":"Ubitricity","maxPowerKw":11,"isMegawatt":false,"status":"AVAILABLE","source":"ndw"}},{"type":"Feature","geometry":{"type":"Point","coordinates":[5.033105,52.4521872]},"properties":{"type":"charge","layer":"passenger","locationId":"1862","name":"Shell Recharge NL Avegaar 48","address":"Avegaar 48","city":"Monnickendam","operatorName":"Ubitricity","maxPowerKw":22,"isMegawatt":false,"status":"AVAILABLE","source":"ndw"}},{"type":"Feature","geometry":{"type":"Point","coordinates":[5.03755,52.4562]},"properties":{"type":"charge","layer":"passenger","locationId":"1643","name":"Shell Recharge NL Swaensborch 1","address":"Swaensborch 1","city":"Waterland","operatorName":"Ubitricity","maxPowerKw":11,"isMegawatt":false,"status":"AVAILABLE","source":"ndw"}},{"type":"Feature","geometry":{"type":"Point","coordinates":[4.95171,52.46507]},"properties":{"type":"charge","layer":"passenger","locationId":"294d9dc2-b01a-42e1-bd69-50a4885fa2c3","name":"PP004287","address":"Lepelaarstraat 7","city":"Ilpendam","operatorName":"TotalEnergies","maxPowerKw":0,"isMegawatt":false,"status":"AVAILABLE","source":"ndw"}},{"type":"Feature","geometry":{"type":"Point","coordinates":[4.99633,52.42624]},"properties":{"type":"charge","layer":"passenger","locationId":"4fd80c27e9c02da68cb4b910103362d5","name":"Veenderijgouw 82","address":"Veenderijgouw 82","city":"Broek in Waterland","operatorName":"Vattenfall InCharge","maxPowerKw":11,"isMegawatt":false,"status":"AVAILABLE","source":"ndw"}},{"type":"Feature","geometry":{"type":"MultiPolygon","coordinates":[[[[4.9979635643813305,52.494732952119016],[5.024610244802011,52.48492552745935],[5.025519511722344,52.48513618572494],[5.030620763148963,52.48706075914633],[5.031051703477848,52.488476892417054],[5.03391252525437,52.48857234282857],[5.034077774000789,52.48833006882399],[5.038779142584567,52.48834375971496],[5.0590938793393,52.49095561234314],[5.058644555259117,52.48552478207047],[5.059480368984287,52.48561446491617],[5.059060894050516,52.48179657825358],[5.060569977798994,52.476706421027465],[5.067651077003061,52.47230428588742],[5.069087786800574,52.470711609680954],[5.068473841481244,52.468766552932856],[5.061903718256482,52.46770485609222],[5.057837729594702,52.46792568776124],[5.051065740056708,52.469332694096224],[5.048828516118937,52.46845687338767],[5.041572078913985,52.46589448338192],[5.041423076790541,52.465497447770296],[5.03972288627694,52.465574015660245],[5.03911703515744,52.46497513407531],[5.038761022574991,52.46503402727365],[5.038829885613721,52.46577571375587],[5.038650046661412,52.46578753474562],[5.038662978562334,52.466132671820134],[5.038214969364861,52.46620105549953],[5.038224948085165,52.466280718312944],[5.0336042279631,52.46738980285896],[5.033414863732825,52.465965708435604],[5.033307181972176,52.46480695135394],[5.034097718865632,52.464397957277036],[5.038515779144896,52.46400102313133],[5.038749523742082,52.463424480683884],[5.0383643863038055,52.463225059023024],[5.037708387971406,52.463449234908346],[5.036448110568055,52.46317094819812],[5.03879806288774,52.46046323123615],[5.039870058159003,52.460852531653195],[5.040436378994874,52.4601355644383],[5.041670637587853,52.460137777484654],[5.040652238055447,52.45904182456253],[5.040883139710264,52.458184574021544],[5.042291246032233,52.45777622061552],[5.043459554037494,52.457593973240854],[5.046072972749809,52.46118125658001],[5.049256623044605,52.46276523617821],[5.054034879284474,52.462083506334615],[5.055247385589993,52.460876318287966],[5.049800303147742,52.45551393476207],[5.048463842870862,52.45510022503173],[5.048177385794835,52.453883470959944],[5.048164366488389,52.450567612658894],[5.047725570459247,52.44837982698052],[5.048222795989913,52.44767434545507],[5.049124259913226,52.44732617706477],[5.050303806095856,52.4450010285715],[5.0479507054125765,52.442253662749465],[5.049415046693439,52.43935897968384],[5.057487822094138,52.43912747874789],[5.0638318045595705,52.43732510917401],[5.064841573355291,52.437343109255956],[5.065661878004794,52.438582965672325],[5.067195446311188,52.43889549074624],[5.071704395377803,52.43773280304837],[5.078059915091817,52.43655786193541],[5.086926115386843,52.437023828309115],[5.087186267130496,52.43506133949682],[5.088845134712082,52.43484317356573],[5.093001239119638,52.4401155056778],[5.094389796656492,52.4485435045239],[5.092995729100502,52.4503672669543],[5.092635270015887,52.451661981364005],[5.094685412105402,52.45414609725823],[5.098775313630438,52.45726874117396],[5.0992518390195505,52.4582352566487],[5.099072850363063,52.458413016138245],[5.0991424943439405,52.458554063210634],[5.099507727264108,52.45828814179806],[5.099232401927396,52.45761142757436],[5.099039221693974,52.45739997865132],[5.10016141982237,52.457063863252785],[5.100688261413981,52.45791028827399],[5.100544231013755,52.4579458451355],[5.1006255166762715,52.458082335960015],[5.100780965271347,52.45804437097317],[5.100960700370432,52.458318165660906],[5.101319336089069,52.45889939479793],[5.1007922090410025,52.45899644139924],[5.100429491753229,52.458417560898454],[5.09926832549701,52.45866365572448],[5.0992782387914914,52.45877608021067],[5.10000595033613,52.45869531752069],[5.10153418229407,52.4620549864834],[5.100520608126627,52.46417192032728],[5.102724099664909,52.46671480032953],[5.104925995990985,52.467276007307724],[5.106343647485965,52.46754542989823],[5.111761772680139,52.46397754289867],[5.113643221292501,52.461788735671064],[5.120096960528801,52.46179274121223],[5.132078969767208,52.46309780414971],[5.134742761565267,52.46288088214917],[5.136522529018683,52.46240459040105],[5.1372839145637865,52.46183974241551],[5.137571709164683,52.46125391382914],[5.137327176411336,52.46065780459673],[5.1375948005580625,52.46038650625215],[5.138772745996986,52.45991046529972],[5.139311628574967,52.459909489329206],[5.139380184575512,52.45968778549856],[5.138854729728143,52.45962439686966],[5.138857573794165,52.459547587384215],[5.139291557174372,52.45950032223305],[5.139268537171604,52.45943704312891],[5.138705693515402,52.45948688807849],[5.13829242302047,52.459983145645715],[5.137003948328662,52.46034155680766],[5.133415377083718,52.45981830590468],[5.1243140064362,52.457067763767],[5.12192086584629,52.455644884412926],[5.111084398262826,52.4540455010519],[5.106175499139449,52.45019334871143],[5.099121552575723,52.45026830094729],[5.094937637315184,52.44845231153042],[5.093869906826684,52.441010111140365],[5.09192010694337,52.43736562716066],[5.0867550695653785,52.43209173314625],[5.086346151049027,52.43229381765164],[5.088211102799454,52.43423163664964],[5.085921223643489,52.435046294387746],[5.081697174585645,52.43105821089865],[5.0808468530171496,52.43069532744087],[5.079428074927507,52.43074168238584],[5.079981340164693,52.43029371455598],[5.079775063738605,52.430026850522744],[5.078910500121812,52.43016014903225],[5.076605052178471,52.42892729264685],[5.0763189620616105,52.42857448366438],[5.076219622540505,52.42817018741198],[5.077032120382507,52.4278265021646],[5.076969333633741,52.42760437679569],[5.076831307076537,52.42697433913317],[5.076677814620792,52.42699163365474],[5.0766660719642305,52.4276504231172],[5.075442126022146,52.427836252669174],[5.075630957476819,52.42858138876215],[5.074877889170134,52.42872180552019],[5.074317176042371,52.427858473745964],[5.074651645245296,52.427757577887846],[5.074210294290886,52.4271226487952],[5.076706459107579,52.42668378579594],[5.076177162749775,52.42643177013901],[5.075842445296957,52.42634132157614],[5.075182167001815,52.42625237687995],[5.074288143602532,52.42495200855331],[5.0743760732211545,52.42450999946436],[5.075438190657413,52.42429966661851],[5.075364990853883,52.42417460644691],[5.074055034408822,52.42441768456433],[5.07304809530866,52.42395379282237],[5.073262470692603,52.42058214436523],[5.06826231836466,52.41655808392892],[5.065411341923559,52.41723943109709],[5.049175945359275,52.415129273860636],[5.0401079615224305,52.41730725654916],[5.035236903598149,52.41825099655722],[5.032933037651278,52.416462859195185],[5.030043626592635,52.4156435117637],[5.029726632742484,52.41770683290621],[5.028356152358436,52.4194164365282],[5.021144614419857,52.42105483783113],[5.018203971107407,52.41905957334087],[5.000291728626658,52.425406778584865],[4.995577014088879,52.42547128224323],[4.990487924166759,52.425429936975554],[4.990404509735187,52.424518363653426],[4.989099127372002,52.42330657135635],[4.9871004462233515,52.422841765331675],[4.982635402065783,52.426762370349714],[4.976237273782326,52.42402608310717],[4.973318808274188,52.42279742323811],[4.956004332208751,52.421960453302425],[4.955776174100895,52.42243204814072],[4.953558285529057,52.42225675109598],[4.952328259501258,52.42352369399785],[4.9513393021366845,52.42322863946255],[4.951721086234403,52.422507139381665],[4.951480444456404,52.421929866056686],[4.9496819265950505,52.42198366854083],[4.948806251768378,52.42146447061062],[4.947787666041382,52.421562367297405],[4.950688743994707,52.42359625635454],[4.950860428833681,52.437140878012904],[4.9487853056232725,52.44797418079042],[4.948000793956959,52.452388892553785],[4.950675423622916,52.458220008389446],[4.946876453209988,52.468883365431594],[4.947168212065712,52.47906349027169],[4.948315551215007,52.484005142215494],[4.9538952325934105,52.482958992139324],[4.953616558469326,52.47569428883307],[4.958035328569935,52.471228371596695],[4.974009274570389,52.470404553934955],[4.976493383678135,52.472741013699085],[4.995162996233866,52.49187279867169],[4.9979635643813305,52.494732952119016]]]]},"properties":{"type":"boundary","gemeente":"Waterland","code":"GM0852"}}]}