{"type":"FeatureCollection","metadata":{"gemeente":"West Maas en Waal","slug":"west-maas-en-waal","code":"GM0668","generated_at":"2026-06-02T13:19:22.438Z","total_passenger":33,"total_freight":0,"bounds":[5.400632671526156,51.80967738764593,5.6098570252190765,51.89475318725149],"operators":["E-Flux by Road","Pluq","Vattenfall","Vattenfall InCharge"]},"features":[{"type":"Feature","geometry":{"type":"Point","coordinates":[5.468599,51.822252]},"properties":{"type":"charge","layer":"passenger","locationId":"f5580285-3048-44e7-9c11-b2ccaabe659b","name":"Het Gement","address":"Het Gement 24","city":"Alphen","operatorName":"Vattenfall InCharge","maxPowerKw":11,"isMegawatt":false,"status":"AVAILABLE","source":"ndw"}},{"type":"Feature","geometry":{"type":"Point","coordinates":[5.51436,51.882342]},"properties":{"type":"charge","layer":"passenger","locationId":"7160c48a69e98093098750bbc4d996df","name":"Sportlaan 13","address":"Sportlaan 13","city":"Beneden-Leeuwen","operatorName":"Vattenfall InCharge","maxPowerKw":11,"isMegawatt":false,"status":"AVAILABLE","source":"ndw"}},{"type":"Feature","geometry":{"type":"Point","coordinates":[5.431074,51.847967]},"properties":{"type":"charge","layer":"passenger","locationId":"eb671551-dffc-48e9-80e8-c6401db36ce8","name":"Rooijsestraat","address":"Rooijsestraat 48","city":"Dreumel","operatorName":"Vattenfall InCharge","maxPowerKw":11,"isMegawatt":false,"status":"AVAILABLE","source":"ndw"}},{"type":"Feature","geometry":{"type":"Point","coordinates":[5.582329,51.833093]},"properties":{"type":"charge","layer":"passenger","locationId":"69e239c2169ba7f30c804348","name":"M van Munster Thuis","address":"Dwarsakker  3","city":"Appeltern","operatorName":"E-Flux by Road","maxPowerKw":22,"isMegawatt":false,"status":"AVAILABLE","source":"ndw"}},{"type":"Feature","geometry":{"type":"Point","coordinates":[5.53691,51.823711]},"properties":{"type":"charge","layer":"passenger","locationId":"c32eb1265dd24a1dd09610f9377256d5","name":"De Bennenmaker 13","address":"De Bennenmaker 13","city":"Maasbommel","operatorName":"Vattenfall InCharge","maxPowerKw":11,"isMegawatt":false,"status":"AVAILABLE","source":"ndw"}},{"type":"Feature","geometry":{"type":"Point","coordinates":[5.548069,51.883901]},"properties":{"type":"charge","layer":"passenger","locationId":"74d7db3c-0369-48d7-8a86-4de05e6793cd","name":"Meidoornstraat","address":"Meidoornstraat 11","city":"Boven-Leeuwen","operatorName":"Vattenfall InCharge","maxPowerKw":11,"isMegawatt":false,"status":"AVAILABLE","source":"ndw"}},{"type":"Feature","geometry":{"type":"Point","coordinates":[5.521678,51.877175]},"properties":{"type":"charge","layer":"passenger","locationId":"68dbbcfbd20a1287b0616a84","name":"Bakhuus Akkertje","address":"Veldlaan 4","city":"Beneden-Leeuwen","operatorName":"Vattenfall","maxPowerKw":22,"isMegawatt":false,"status":"AVAILABLE","source":"ndw"}},{"type":"Feature","geometry":{"type":"Point","coordinates":[5.461782,51.880522]},"properties":{"type":"charge","layer":"passenger","locationId":"68376696a99ee40e822c8aca","name":"Willemijn Vlieg","address":"Dorpsstraat  110","city":"Wamel","operatorName":"E-Flux by Road","maxPowerKw":22,"isMegawatt":false,"status":"AVAILABLE","source":"ndw"}},{"type":"Feature","geometry":{"type":"Point","coordinates":[5.433926,51.846722]},"properties":{"type":"charge","layer":"passenger","locationId":"e8bf8ce756ae7b48d3a7c440e7e3dbfe","name":"Frans Halsemaplein 12","address":"Frans Halsemaplein 12","city":"Dreumel","operatorName":"Vattenfall InCharge","maxPowerKw":11,"isMegawatt":false,"status":"AVAILABLE","source":"ndw"}},{"type":"Feature","geometry":{"type":"Point","coordinates":[5.507878,51.885178]},"properties":{"type":"charge","layer":"passenger","locationId":"61c06950c351a182d5f48427","name":"Dave Bressers 's station","address":"Oosterpas 17","city":"Beneden Leeuwen","operatorName":"E-Flux by Road","maxPowerKw":22,"isMegawatt":false,"status":"AVAILABLE","source":"ndw"}},{"type":"Feature","geometry":{"type":"Point","coordinates":[5.6014,51.835127]},"properties":{"type":"charge","layer":"passenger","locationId":"668bd4d22e7dad001ce26f11","name":"Informatietuinen Appeltern B.V.","address":"Walstraat 2 a","city":"Appeltern","operatorName":"Pluq","maxPowerKw":22,"isMegawatt":false,"status":"AVAILABLE","source":"ndw"}},{"type":"Feature","geometry":{"type":"Point","coordinates":[5.528844,51.859573]},"properties":{"type":"charge","layer":"passenger","locationId":"68adbbb91270cba25ede9706","name":"Vakantieboerderij Olpoda","address":"Mosterdwal 9","city":"Beneden-Leeuwen","operatorName":"E-Flux by Road","maxPowerKw":7,"isMegawatt":false,"status":"AVAILABLE","source":"ndw"}},{"type":"Feature","geometry":{"type":"Point","coordinates":[5.587016,51.831483]},"properties":{"type":"charge","layer":"passenger","locationId":"691ba8bc-e7e7-45a3-bc4b-f7d9bca8c2f3","name":"Maasdijk 12","address":"Maasdijk 12","city":"Appeltern","operatorName":"Vattenfall InCharge","maxPowerKw":11,"isMegawatt":false,"status":"AVAILABLE","source":"ndw"}},{"type":"Feature","geometry":{"type":"Point","coordinates":[5.532346,51.876617]},"properties":{"type":"charge","layer":"passenger","locationId":"64088c19b6ae1f0012e24bf6","name":"Global Paint Products BV #2","address":"Veesteeg 11-13","city":"Boven-Leeuwen","operatorName":"E-Flux by Road","maxPowerKw":22,"isMegawatt":false,"status":"AVAILABLE","source":"ndw"}},{"type":"Feature","geometry":{"type":"Point","coordinates":[5.51783,51.883418]},"properties":{"type":"charge","layer":"passenger","locationId":"0255003b-e410-4ef5-adc9-1d52eaf5a036","name":"Dijkstraat","address":"Dijkstraat 11","city":"Beneden-Leeuwen","operatorName":"Vattenfall InCharge","maxPowerKw":11,"isMegawatt":false,"status":"AVAILABLE","source":"ndw"}},{"type":"Feature","geometry":{"type":"Point","coordinates":[5.532327,51.876637]},"properties":{"type":"charge","layer":"passenger","locationId":"64088ac1014b6d0012255b91","name":"Global Paint Products BV #1","address":"Veesteeg 11-13","city":"Boven-Leeuwen","operatorName":"E-Flux by Road","maxPowerKw":11,"isMegawatt":false,"status":"CHARGING","source":"ndw"}},{"type":"Feature","geometry":{"type":"Point","coordinates":[5.525976,51.882606]},"properties":{"type":"charge","layer":"passenger","locationId":"d514361e5bcf5975dd84a0c041c136e6","name":"Perzikstraat 12","address":"Perzikstraat 12","city":"Beneden-Leeuwen","operatorName":"Vattenfall InCharge","maxPowerKw":11,"isMegawatt":false,"status":"AVAILABLE","source":"ndw"}},{"type":"Feature","geometry":{"type":"Point","coordinates":[5.583723,51.832112]},"properties":{"type":"charge","layer":"passenger","locationId":"1b83eff47a59916f4afe7521fb746623","name":"Van der Capellenstraat 12","address":"Van der Capellenstraat 12","city":"Appeltern","operatorName":"Vattenfall InCharge","maxPowerKw":11,"isMegawatt":false,"status":"AVAILABLE","source":"ndw"}},{"type":"Feature","geometry":{"type":"Point","coordinates":[5.556428,51.88708]},"properties":{"type":"charge","layer":"passenger","locationId":"61f7dae8222e69fccfa8dc02c73a4fc6","name":"Eikstraat 13","address":"Eikstraat 13","city":"Boven-Leeuwen","operatorName":"Vattenfall InCharge","maxPowerKw":11,"isMegawatt":false,"status":"AVAILABLE","source":"ndw"}},{"type":"Feature","geometry":{"type":"Point","coordinates":[5.515534,51.875894]},"properties":{"type":"charge","layer":"passenger","locationId":"5da405f2756a6ad257f941e641b4a7d4","name":"Violenstraat 13","address":"Violenstraat 13","city":"Beneden-Leeuwen","operatorName":"Vattenfall InCharge","maxPowerKw":11,"isMegawatt":false,"status":"AVAILABLE","source":"ndw"}},{"type":"Feature","geometry":{"type":"Point","coordinates":[5.554735,51.830028]},"properties":{"type":"charge","layer":"passenger","locationId":"67acbf7ac40709561bfb858c","name":"Riverside","address":"Hamsestraat 10","city":"Appeltern","operatorName":"Pluq","maxPowerKw":11,"isMegawatt":false,"status":"AVAILABLE","source":"ndw"}},{"type":"Feature","geometry":{"type":"Point","coordinates":[5.538884,51.826178]},"properties":{"type":"charge","layer":"passenger","locationId":"60a6813cb3a4c7f3788e873b","name":"Jachthaven Maasbommel","address":"Bovendijk 2","city":"Appeltern","operatorName":"E-Flux by Road","maxPowerKw":22,"isMegawatt":false,"status":"AVAILABLE","source":"ndw"}},{"type":"Feature","geometry":{"type":"Point","coordinates":[5.470557,51.879404]},"properties":{"type":"charge","layer":"passenger","locationId":"9a135d97-7932-4ba7-bbfb-43f3990ae6d2","name":"Lakenstraat","address":"Lakenstraat 4","city":"Wamel","operatorName":"Vattenfall InCharge","maxPowerKw":11,"isMegawatt":false,"status":"UNAVAILABLE","source":"ndw"}},{"type":"Feature","geometry":{"type":"Point","coordinates":[5.552441,51.835068]},"properties":{"type":"charge","layer":"passenger","locationId":"608a9f54ea5e4c2c7d01c882","name":"Camping Het Groene Eiland","address":"Lutenkampstraat 2","city":"Appeltern","operatorName":"E-Flux by Road","maxPowerKw":22,"isMegawatt":false,"status":"AVAILABLE","source":"ndw"}},{"type":"Feature","geometry":{"type":"Point","coordinates":[5.538958,51.8598]},"properties":{"type":"charge","layer":"passenger","locationId":"63105ff45608b9291daa6d73","name":"Buitengoed Ruysbos","address":"Zegeweg 1-01","city":"Altforst","operatorName":"E-Flux by Road","maxPowerKw":22,"isMegawatt":false,"status":"AVAILABLE","source":"ndw"}},{"type":"Feature","geometry":{"type":"Point","coordinates":[5.537933,51.820605]},"properties":{"type":"charge","layer":"passenger","locationId":"292218b5-0fde-44ee-b22e-8a9d062605ec","name":"Hoflaan","address":"Hoflaan 39","city":"Maasbommel","operatorName":"Vattenfall InCharge","maxPowerKw":11,"isMegawatt":false,"status":"AVAILABLE","source":"ndw"}},{"type":"Feature","geometry":{"type":"Point","coordinates":[5.524476,51.875976]},"properties":{"type":"charge","layer":"passenger","locationId":"5a51ce8973d72a2dff762035a2517564","name":"Haverveld 13","address":"Haverveld 13","city":"Beneden-Leeuwen","operatorName":"Vattenfall InCharge","maxPowerKw":11,"isMegawatt":false,"status":"AVAILABLE","source":"ndw"}},{"type":"Feature","geometry":{"type":"Point","coordinates":[5.566599,51.849885]},"properties":{"type":"charge","layer":"passenger","locationId":"9d723549-323c-4254-9806-b07cb147ac12","name":"Kerkdwarsstraat","address":"Kerkdwarsstraat 3","city":"Altforst","operatorName":"Vattenfall InCharge","maxPowerKw":11,"isMegawatt":false,"status":"AVAILABLE","source":"ndw"}},{"type":"Feature","geometry":{"type":"Point","coordinates":[5.478263,51.880782]},"properties":{"type":"charge","layer":"passenger","locationId":"8df1ab9e4472572e37ad76e9497edfc3","name":"Kloosterweide 8","address":"Kloosterweide 8","city":"Wamel","operatorName":"Vattenfall InCharge","maxPowerKw":11,"isMegawatt":false,"status":"AVAILABLE","source":"ndw"}},{"type":"Feature","geometry":{"type":"Point","coordinates":[5.503427,51.881654]},"properties":{"type":"charge","layer":"passenger","locationId":"cb3909cf-b8ea-4d37-a5e0-0c17937141d6","name":"Albatros 2","address":"Albatros 2","city":"Beneden-Leeuwen","operatorName":"Vattenfall InCharge","maxPowerKw":11,"isMegawatt":false,"status":"CHARGING","source":"ndw"}},{"type":"Feature","geometry":{"type":"Point","coordinates":[5.431021,51.852798]},"properties":{"type":"charge","layer":"passenger","locationId":"2517ad4dcd82ad46a4782377ea466c8d","name":"Donjon 63","address":"Donjon 63","city":"Dreumel","operatorName":"Vattenfall InCharge","maxPowerKw":11,"isMegawatt":false,"status":"AVAILABLE","source":"ndw"}},{"type":"Feature","geometry":{"type":"Point","coordinates":[5.516422,51.878006]},"properties":{"type":"charge","layer":"passenger","locationId":"cd817197-d8f0-494e-b7c2-25659c805588","name":"Leliestraat","address":"Leliestraat 19a","city":"Beneden-Leeuwen","operatorName":"Vattenfall InCharge","maxPowerKw":11,"isMegawatt":false,"status":"AVAILABLE","source":"ndw"}},{"type":"Feature","geometry":{"type":"Point","coordinates":[5.585349,51.832464]},"properties":{"type":"charge","layer":"passenger","locationId":"af32deba-32b9-4c5c-9a0d-07f5538e049b","name":"Van der Capellenstraat","address":"Van der Capellenstraat 6","city":"Appeltern","operatorName":"Vattenfall InCharge","maxPowerKw":11,"isMegawatt":false,"status":"AVAILABLE","source":"ndw"}},{"type":"Feature","geometry":{"type":"MultiPolygon","coordinates":[[[[5.531361970473795,51.89475318725149],[5.530982360259837,51.89139332806061],[5.539302940830326,51.89186641555691],[5.543121031010098,51.88840367715158],[5.547329699092736,51.888258258331994],[5.547811276708829,51.88830623060447],[5.550661671052782,51.88804776018403],[5.556375281943082,51.88875018722444],[5.560401855707411,51.88985126432721],[5.575708192961735,51.89250608351941],[5.57699256110578,51.89243651359762],[5.57356693484656,51.886919541584064],[5.572249848806267,51.88577770759919],[5.572687017459794,51.885663316059414],[5.571537028258959,51.88391729694306],[5.570449760363594,51.884353427375615],[5.5695842170573835,51.884923959231045],[5.568717308731407,51.88458436602004],[5.5687957474990535,51.8844672259371],[5.566446975906611,51.883914572970994],[5.566947511031269,51.88125451583272],[5.5682646999169805,51.88044721174172],[5.569393362628593,51.879665496398125],[5.5684350024722065,51.87654534337602],[5.5602553386453275,51.875047728401135],[5.559600724101469,51.87050706182944],[5.5537817673773855,51.87037360198474],[5.554049538729755,51.867522035271755],[5.5530729126152005,51.86263247408858],[5.577272790776768,51.864584793467365],[5.577732351231975,51.86035127007393],[5.578710258022887,51.85920486227031],[5.584695926287417,51.85722800299995],[5.5815699894489645,51.85259912587919],[5.584545531122452,51.84153491511943],[5.585012748383104,51.839106507417206],[5.598268893482289,51.8395441555098],[5.598493130431703,51.83785114444109],[5.606431852701041,51.83697334098425],[5.609834784642524,51.83627380577875],[5.606630779381701,51.83568923241552],[5.6098570252190765,51.83393988798389],[5.607852990731012,51.83312073373933],[5.608961388380163,51.830988786141866],[5.603069255917248,51.828281382928374],[5.599544035442148,51.82911856588904],[5.597976081683936,51.8280493938333],[5.588847845983293,51.82969950992395],[5.576791301978483,51.82815172751302],[5.567879196846829,51.82778318726934],[5.558157760581646,51.827526597869046],[5.554823670370165,51.82656005267573],[5.55214656133858,51.824967110153544],[5.551263958664654,51.8241307075743],[5.54862808706384,51.81980261390529],[5.545283912696698,51.81743423846709],[5.5409291702204015,51.81630749070013],[5.535633252746975,51.81657425331485],[5.527883586528764,51.818481063935145],[5.51773358160672,51.8192837697231],[5.514213324845796,51.82074374691454],[5.5080780840092975,51.826143236998476],[5.503254402118637,51.82876371464777],[5.496005531533503,51.83060428328846],[5.490189554396464,51.83050843124429],[5.485847871378025,51.82940883165919],[5.481839073231369,51.82706617986802],[5.479672145197983,51.82437140706291],[5.478348131834569,51.820053952401906],[5.476930874320814,51.81718286211697],[5.4742139377762955,51.81464120833849],[5.4674853726332024,51.811802468340865],[5.464479758495674,51.81118642712978],[5.449553614127549,51.80967738764593],[5.439403348614983,51.80970932298232],[5.429254595117146,51.81136727713482],[5.422291743161045,51.8145583125775],[5.418271002559787,51.818557760580276],[5.414884903486013,51.82129002678053],[5.416222372047945,51.8226396524592],[5.414964413513402,51.82493763511659],[5.4083308224268505,51.82928046311965],[5.4069700857489815,51.83280038880581],[5.405842729780223,51.83270547995225],[5.405338053406746,51.83465327416677],[5.400632671526156,51.83765862477092],[5.409148373104292,51.8439237675375],[5.415233516652254,51.85180083822597],[5.417824245143532,51.85809170092834],[5.4229775384663945,51.8664239576817],[5.433339659735726,51.87705239833328],[5.4348128049088515,51.878150348702675],[5.436045436774729,51.87901888056194],[5.44498274991444,51.88420305679246],[5.4534337270977575,51.88743723878249],[5.463915916236752,51.88900869118361],[5.47615571297924,51.889624576235725],[5.4973808453866235,51.88904169884746],[5.509030418858408,51.88984464449852],[5.523174822787304,51.89239366299811],[5.531361970473795,51.89475318725149]]]]},"properties":{"type":"boundary","gemeente":"West Maas en Waal","code":"GM0668"}}]}