{"type":"FeatureCollection","metadata":{"gemeente":"West Betuwe","slug":"west-betuwe","code":"GM1960","generated_at":"2026-06-07T19:22:09.578Z","total_passenger":287,"total_freight":2,"bounds":[4.993967174850783,51.80418627755209,5.415233516652254,51.93548254591111],"operators":["Allego","DAEN Mobility","E-Flux by Road","Eneco","Fastned","Fleet Charge Services","Laadnet","Pluq","Tesla","Vattenfall InCharge","WattHub","bp pulse"]},"features":[{"type":"Feature","geometry":{"type":"Point","coordinates":[5.178823,51.912202]},"properties":{"type":"charge","layer":"passenger","locationId":"939351c2-92f1-11ee-9b4c-42010aa40fc0","name":"bp pulse De IJssel #02","address":"Rijksweg A2","city":"Nieuwegein","operatorName":"bp pulse","maxPowerKw":150,"isMegawatt":false,"status":"UNAVAILABLE","source":"ndw","priceKwh":0.7}},{"type":"Feature","geometry":{"type":"Point","coordinates":[5.249444,51.831505]},"properties":{"type":"charge","layer":"passenger","locationId":"697727a5-e40a-4a0e-9ac8-61b3103e6c50","name":"Regterweistraat 1","address":"Regterweistraat 1","city":"Waardenburg","operatorName":"Vattenfall InCharge","maxPowerKw":50,"isMegawatt":false,"status":"AVAILABLE","source":"ndw"}},{"type":"Feature","geometry":{"type":"Point","coordinates":[5.190689,51.847553]},"properties":{"type":"charge","layer":"passenger","locationId":"a1f41510-8dda-11e9-86d3-42010a840fe5","name":"Fastned Molenkamp","address":"Molenkamp A15","city":"Gellicum","operatorName":"Fastned","maxPowerKw":175,"isMegawatt":false,"status":"AVAILABLE","source":"ndw"}},{"type":"Feature","geometry":{"type":"Point","coordinates":[5.191405,51.849062]},"properties":{"type":"charge","layer":"passenger","locationId":"94399f3e-8ddb-11e9-97d8-42010a840fe5","name":"Fastned Eigenblok","address":"Eigenblok A15","city":"Gellicum","operatorName":"Fastned","maxPowerKw":175,"isMegawatt":false,"status":"AVAILABLE","source":"ndw"}},{"type":"Feature","geometry":{"type":"Point","coordinates":[5.249517,51.886707]},"properties":{"type":"charge","layer":"passenger","locationId":"922645","name":"DAE-NL-2000093 P4","address":"Steenoven 2-6","city":"Tricht","operatorName":"DAEN Mobility","maxPowerKw":22,"isMegawatt":false,"status":"AVAILABLE","source":"ndw","priceKwh":0.29}},{"type":"Feature","geometry":{"type":"Point","coordinates":[5.191405,51.849062]},"properties":{"type":"charge","layer":"passenger","locationId":"50012","name":"Fastned Eigenblok","address":"Eigenblok A15","city":"Gellicum","operatorName":"Fastned","maxPowerKw":300,"isMegawatt":false,"status":"AVAILABLE","source":"ndw","priceKwh":0.6364}},{"type":"Feature","geometry":{"type":"Point","coordinates":[5.276563,51.886852]},"properties":{"type":"charge","layer":"passenger","locationId":"4daa574a-fc35-11ec-a5ef-42010aa40fc1","name":"Eneco eMobility Trichtsevoetpad 4 Geldermalsen","address":"Trichtsevoetpad 4","city":"Geldermalsen","operatorName":"Eneco","maxPowerKw":0,"isMegawatt":false,"status":"AVAILABLE","source":"ndw","priceKwh":0.25}},{"type":"Feature","geometry":{"type":"Point","coordinates":[5.272901,51.883451]},"properties":{"type":"charge","layer":"passenger","locationId":"7b25cfb0-ea1c-11ef-b5b9-42010aa400b8","name":"Eneco eMobility Zorggroep Sirjon - De Terp 1 - Geldermalsen","address":"De Terp 1","city":"Geldermalsen","operatorName":"Eneco","maxPowerKw":11,"isMegawatt":false,"status":"AVAILABLE","source":"ndw","priceKwh":0.6}},{"type":"Feature","geometry":{"type":"Point","coordinates":[5.312517,51.851451]},"properties":{"type":"charge","layer":"passenger","locationId":"b0a9b701-d242-4e57-a9a7-c12cfa76defd","name":"Dorpsstraat 6","address":"Dorpsstraat 6","city":"Est","operatorName":"Vattenfall InCharge","maxPowerKw":11,"isMegawatt":false,"status":"AVAILABLE","source":"ndw"}},{"type":"Feature","geometry":{"type":"Point","coordinates":[5.155032,51.877385]},"properties":{"type":"charge","layer":"passenger","locationId":"b80fa653b093066d7eeeda8f984bd819","name":"Kerkweg  1","address":"Kerkweg  1","city":"Gellicum","operatorName":"Vattenfall InCharge","maxPowerKw":11,"isMegawatt":false,"status":"AVAILABLE","source":"ndw"}},{"type":"Feature","geometry":{"type":"Point","coordinates":[5.309686,51.875116]},"properties":{"type":"charge","layer":"passenger","locationId":"2247203","name":"Laadnet Werkzaak Rivierenland","address":"Poppenbouwing 18","city":"Geldermalsen","operatorName":"Laadnet","maxPowerKw":22,"isMegawatt":false,"status":"AVAILABLE","source":"ndw"}},{"type":"Feature","geometry":{"type":"Point","coordinates":[5.174349,51.884627]},"properties":{"type":"charge","layer":"passenger","locationId":"c2e6357438e4294f38b75955401e4941","name":"Steegakker 7","address":"Steegakker 7","city":"Rumpt","operatorName":"Vattenfall InCharge","maxPowerKw":11,"isMegawatt":false,"status":"AVAILABLE","source":"ndw"}},{"type":"Feature","geometry":{"type":"Point","coordinates":[5.18067,51.91259]},"properties":{"type":"charge","layer":"passenger","locationId":"50468","name":"Fastned Lingehorst","address":"Lingehorst A2","city":"Beesd","operatorName":"Fastned","maxPowerKw":300,"isMegawatt":false,"status":"AVAILABLE","source":"ndw","priceKwh":0.6364}},{"type":"Feature","geometry":{"type":"Point","coordinates":[5.214291,51.884036]},"properties":{"type":"charge","layer":"passenger","locationId":"155f2e73-e803-4a76-ae8b-597d24ad7d73","name":"Lingestraat","address":"Lingestraat 7","city":"Enspijk","operatorName":"Vattenfall InCharge","maxPowerKw":11,"isMegawatt":false,"status":"AVAILABLE","source":"ndw"}},{"type":"Feature","geometry":{"type":"Point","coordinates":[5.29611,51.876243]},"properties":{"type":"charge","layer":"passenger","locationId":"3632e362-feb6-11ea-93f4-42010a840033","name":"NL, Lange Akker 89 4191 JB Geldermalsen","address":"Lange Akker 89","city":"Geldermalsen","operatorName":"Allego","maxPowerKw":0,"isMegawatt":false,"status":"AVAILABLE","source":"ndw"}},{"type":"Feature","geometry":{"type":"Point","coordinates":[5.210272,51.822815]},"properties":{"type":"charge","layer":"passenger","locationId":"36a6e5ea-0c69-11ea-9cd1-42010a840003","name":"NLD, Stevenstraat 11, Haaften","address":"Stevenstraat 11","city":"Haaften","operatorName":"Allego","maxPowerKw":0,"isMegawatt":false,"status":"AVAILABLE","source":"ndw"}},{"type":"Feature","geometry":{"type":"Point","coordinates":[5.305679,51.885626]},"properties":{"type":"charge","layer":"passenger","locationId":"4dd63be0-10aa-11ea-ba38-42010a840003","name":"NLD, Prinses Beatrixweg 71, Geldermalsen","address":"Prinses Beatrixweg 71","city":"Geldermalsen","operatorName":"Allego","maxPowerKw":0,"isMegawatt":false,"status":"AVAILABLE","source":"ndw"}},{"type":"Feature","geometry":{"type":"Point","coordinates":[5.256778,51.831464]},"properties":{"type":"charge","layer":"passenger","locationId":"8b926e68-17bc-11ea-8d40-42010a840003","name":"NLD, Dorpsstraat 2b, Waardenburg","address":"Dorpsstraat 2b","city":"Waardenburg","operatorName":"Allego","maxPowerKw":0,"isMegawatt":false,"status":"AVAILABLE","source":"ndw"}},{"type":"Feature","geometry":{"type":"Point","coordinates":[5.102436,51.880616]},"properties":{"type":"charge","layer":"passenger","locationId":"b74cbfb4-a157-11ec-9d03-42010a840003","name":"NL, Drostlaan 50, 4147 GD Asperen","address":"Drostlaan 50","city":"Asperen","operatorName":"Allego","maxPowerKw":0,"isMegawatt":false,"status":"AVAILABLE","source":"ndw"}},{"type":"Feature","geometry":{"type":"Point","coordinates":[5.290485,51.882278]},"properties":{"type":"charge","layer":"passenger","locationId":"ed6762ce-5a88-11ea-9cf7-42010a840003","name":"NL, Herman Kuijkstraat 25, 4191AJ, Geldermalsen","address":"Herman Kuijkstraat 25","city":"Geldermalsen","operatorName":"Allego","maxPowerKw":0,"isMegawatt":false,"status":"AVAILABLE","source":"ndw"}},{"type":"Feature","geometry":{"type":"Point","coordinates":[5.295185,51.868516]},"properties":{"type":"charge","layer":"passenger","locationId":"e7d01ce03dce0ffac2c7264f0fae3ef8","name":"Bentinckshof 100","address":"Bentinckshof 100","city":"Meteren","operatorName":"Vattenfall InCharge","maxPowerKw":11,"isMegawatt":false,"status":"AVAILABLE","source":"ndw"}},{"type":"Feature","geometry":{"type":"Point","coordinates":[5.178823,51.912202]},"properties":{"type":"charge","layer":"passenger","locationId":"939351c2-92f1-11ee-9b4c-42010aa40fc0","name":"bp pulse De IJssel #02","address":"Rijksweg A2","city":"Nieuwegein","operatorName":"bp pulse","maxPowerKw":150,"isMegawatt":false,"status":"UNAVAILABLE","source":"ndw","priceKwh":0.7}},{"type":"Feature","geometry":{"type":"Point","coordinates":[5.075399,51.872561]},"properties":{"type":"charge","layer":"passenger","locationId":"NLLOC008949","name":"NL, Groenewal 37, 4161CM Heukelum","address":"Groenewal 37","city":"Heukelum","operatorName":"Allego","maxPowerKw":0,"isMegawatt":false,"status":"AVAILABLE","source":"ndw","priceKwh":0.3488}},{"type":"Feature","geometry":{"type":"Point","coordinates":[5.27149,51.891924]},"properties":{"type":"charge","layer":"passenger","locationId":"77e1da73aa572cfc22e543f36e039d0f","name":"Bantamlaan 23","address":"Bantamlaan 23","city":"Tricht","operatorName":"Vattenfall InCharge","maxPowerKw":11,"isMegawatt":false,"status":"AVAILABLE","source":"ndw"}},{"type":"Feature","geometry":{"type":"Point","coordinates":[5.177882,51.827823]},"properties":{"type":"charge","layer":"passenger","locationId":"NLLOC005276","name":"NLD, Korfgraaf 22, Hellouw","address":"Korfgraaf 22","city":"Hellouw","operatorName":"Allego","maxPowerKw":0,"isMegawatt":false,"status":"AVAILABLE","source":"ndw","priceKwh":0.3488}},{"type":"Feature","geometry":{"type":"Point","coordinates":[5.13416,51.82896]},"properties":{"type":"charge","layer":"passenger","locationId":"dc7f2daa133aeaa90d8ca445bbd88180","name":"Mijnliefflaan 2","address":"Mijnliefflaan 2","city":"Herwijnen","operatorName":"Vattenfall InCharge","maxPowerKw":11,"isMegawatt":false,"status":"AVAILABLE","source":"ndw"}},{"type":"Feature","geometry":{"type":"Point","coordinates":[5.177882,51.827823]},"properties":{"type":"charge","layer":"passenger","locationId":"218b9d44-f5ea-11e9-868e-42010a840003","name":"NLD, Korfgraaf 22, Hellouw","address":"Korfgraaf 22","city":"Hellouw","operatorName":"Allego","maxPowerKw":0,"isMegawatt":false,"status":"AVAILABLE","source":"ndw"}},{"type":"Feature","geometry":{"type":"Point","coordinates":[5.297421,51.88295]},"properties":{"type":"charge","layer":"passenger","locationId":"e0236000-9992-11eb-aca2-42010a840003","name":"NL, De Schakel 10, 4191XR, Geldermalsen","address":"De Schakel 10","city":"Geldermalsen","operatorName":"Allego","maxPowerKw":0,"isMegawatt":false,"status":"AVAILABLE","source":"ndw"}},{"type":"Feature","geometry":{"type":"Point","coordinates":[5.252034,51.828123]},"properties":{"type":"charge","layer":"passenger","locationId":"4227320","name":"Laadnet de Waardenburcht vastgoed","address":"Steenweg 17 b","city":"Waardenburg","operatorName":"Laadnet","maxPowerKw":22,"isMegawatt":false,"status":"AVAILABLE","source":"ndw"}},{"type":"Feature","geometry":{"type":"Point","coordinates":[5.010971,51.856488]},"properties":{"type":"charge","layer":"passenger","locationId":"165ef151-2b0e-4fc6-8bc1-36aafb2d8964","name":"Tuin","address":"Tuin 6","city":"Spijk Gem Lingewaal","operatorName":"Vattenfall InCharge","maxPowerKw":11,"isMegawatt":false,"status":"AVAILABLE","source":"ndw"}},{"type":"Feature","geometry":{"type":"Point","coordinates":[5.132837,51.826161]},"properties":{"type":"charge","layer":"passenger","locationId":"bbe3d465-1ce0-4531-9194-c312451b37c0","name":"Sluimerskamp","address":"Sluimerskamp 18","city":"Herwijnen","operatorName":"Vattenfall InCharge","maxPowerKw":11,"isMegawatt":false,"status":"AVAILABLE","source":"ndw"}},{"type":"Feature","geometry":{"type":"Point","coordinates":[5.071195,51.869185]},"properties":{"type":"charge","layer":"passenger","locationId":"bdc2d2ff7d3fe50207ee3be15d2eaea9","name":"Vormer 19","address":"Vormer 19","city":"Heukelum","operatorName":"Vattenfall InCharge","maxPowerKw":11,"isMegawatt":false,"status":"AVAILABLE","source":"ndw"}},{"type":"Feature","geometry":{"type":"Point","coordinates":[5.049638,51.82561]},"properties":{"type":"charge","layer":"passenger","locationId":"28d5f7d4-7055-4dac-97a3-9c1abda1abbe","name":"Molenlaan","address":"Molenlaan 15","city":"Vuren","operatorName":"Vattenfall InCharge","maxPowerKw":11,"isMegawatt":false,"status":"AVAILABLE","source":"ndw"}},{"type":"Feature","geometry":{"type":"Point","coordinates":[5.128229,51.832081]},"properties":{"type":"charge","layer":"passenger","locationId":"c7f78edc63a24c7daf52063e5ececdbc","name":"MDB-opslag","address":"Lekdijk Oost 21","city":"Bergambacht","operatorName":"","maxPowerKw":11,"isMegawatt":false,"status":"AVAILABLE","source":"ndw","priceKwh":0.55}},{"type":"Feature","geometry":{"type":"Point","coordinates":[5.006639,51.855461]},"properties":{"type":"charge","layer":"passenger","locationId":"62a6b87361807db081658a56af5dfc8e","name":"Spijkse Kweldijk 196","address":"Spijkse Kweldijk 196","city":"Spijk","operatorName":"Vattenfall InCharge","maxPowerKw":11,"isMegawatt":false,"status":"AVAILABLE","source":"ndw"}},{"type":"Feature","geometry":{"type":"Point","coordinates":[5.249517,51.886707]},"properties":{"type":"charge","layer":"passenger","locationId":"922646","name":"DAE-NL-2000102 P14","address":"Steenoven 2-6","city":"Tricht","operatorName":"DAEN Mobility","maxPowerKw":22,"isMegawatt":false,"status":"AVAILABLE","source":"ndw","priceKwh":0.29}},{"type":"Feature","geometry":{"type":"Point","coordinates":[5.273117,51.885423]},"properties":{"type":"charge","layer":"passenger","locationId":"NLLOC009039","name":"NL, Ossengang 26, 4191LR, Geldermalsen","address":"Ossengang 26","city":"Geldermalsen","operatorName":"Allego","maxPowerKw":0,"isMegawatt":false,"status":"AVAILABLE","source":"ndw","priceKwh":0.3488}},{"type":"Feature","geometry":{"type":"Point","coordinates":[5.178495,51.911763]},"properties":{"type":"charge","layer":"passenger","locationId":"50467","name":"Fastned Bisde","address":"Bisde A2","city":"Beesd","operatorName":"Fastned","maxPowerKw":300,"isMegawatt":false,"status":"AVAILABLE","source":"ndw","priceKwh":0.6364}},{"type":"Feature","geometry":{"type":"Point","coordinates":[5.264961,51.831651]},"properties":{"type":"charge","layer":"passenger","locationId":"NLLOC008477","name":"NL, G.E.H. Tutein Noltheniuslaan 7, 4181 AS Waardenburg","address":"G.E.H. Tutein Noltheniuslaan 7","city":"Waardenburg","operatorName":"Allego","maxPowerKw":0,"isMegawatt":false,"status":"CHARGING","source":"ndw","priceKwh":0.3488}},{"type":"Feature","geometry":{"type":"Point","coordinates":[5.178874,51.881557]},"properties":{"type":"charge","layer":"passenger","locationId":"34723e4bface5687416a6cc7d20f9d63","name":"Achterweg 16","address":"Achterweg 16","city":"Rumpt","operatorName":"Vattenfall InCharge","maxPowerKw":11,"isMegawatt":false,"status":"CHARGING","source":"ndw"}},{"type":"Feature","geometry":{"type":"Point","coordinates":[5.151838,51.888835]},"properties":{"type":"charge","layer":"passenger","locationId":"b3027817ca35da85583c4c8ff34e1cd4","name":"Haarakker 22","address":"Haarakker 22","city":"Rhenoy","operatorName":"Vattenfall InCharge","maxPowerKw":11,"isMegawatt":false,"status":"AVAILABLE","source":"ndw"}},{"type":"Feature","geometry":{"type":"Point","coordinates":[5.29211,51.870048]},"properties":{"type":"charge","layer":"passenger","locationId":"NLLOC005633","name":"NLD, Schoolhof 1, Meteren","address":"Schoolhof 1","city":"Meteren","operatorName":"Allego","maxPowerKw":0,"isMegawatt":false,"status":"AVAILABLE","source":"ndw","priceKwh":0.3488}},{"type":"Feature","geometry":{"type":"Point","coordinates":[5.128229,51.832081]},"properties":{"type":"charge","layer":"passenger","locationId":"fd641c9e034d4831bc9d3f091cb2c1a4","name":"MDB-opslag","address":"Lekdijk Oost 21","city":"Bergambacht","operatorName":"","maxPowerKw":11,"isMegawatt":false,"status":"AVAILABLE","source":"ndw","priceKwh":0.5}},{"type":"Feature","geometry":{"type":"Point","coordinates":[5.178495,51.911763]},"properties":{"type":"charge","layer":"passenger","locationId":"cb590fe0-8058-11e8-a009-42010a840002","name":"Fastned Bisde","address":"Bisde A2","city":"Beesd","operatorName":"Fastned","maxPowerKw":300,"isMegawatt":false,"status":"AVAILABLE","source":"ndw"}},{"type":"Feature","geometry":{"type":"Point","coordinates":[5.265551,51.89146]},"properties":{"type":"charge","layer":"passenger","locationId":"9d72d09e1254d0fdc2fab2cb7c1253cb","name":"Donkere Gaard 58","address":"Donkere Gaard 58","city":"Tricht","operatorName":"Vattenfall InCharge","maxPowerKw":11,"isMegawatt":false,"status":"AVAILABLE","source":"ndw"}},{"type":"Feature","geometry":{"type":"Point","coordinates":[5.290765,51.867611]},"properties":{"type":"charge","layer":"passenger","locationId":"2044594f5e06cac98d05764ad111e014","name":"Sterrebos 15","address":"Sterrebos 15","city":"Meteren","operatorName":"Vattenfall InCharge","maxPowerKw":11,"isMegawatt":false,"status":"AVAILABLE","source":"ndw"}},{"type":"Feature","geometry":{"type":"Point","coordinates":[5.068694,51.87095]},"properties":{"type":"charge","layer":"passenger","locationId":"db5539ea-a157-11ec-9b43-42010a840003","name":"NL, Ringovenlaan 54, 4161 BS Heukelum","address":"Ringovenlaan 54","city":"Heukelum","operatorName":"Allego","maxPowerKw":0,"isMegawatt":false,"status":"AVAILABLE","source":"ndw"}},{"type":"Feature","geometry":{"type":"Point","coordinates":[5.318391,51.830839]},"properties":{"type":"charge","layer":"passenger","locationId":"4157500","name":"Laadnet House of African Beauty","address":"Zandstraat 55","city":"Opijnen","operatorName":"Laadnet","maxPowerKw":22,"isMegawatt":false,"status":"AVAILABLE","source":"ndw"}},{"type":"Feature","geometry":{"type":"Point","coordinates":[5.25547,51.835819]},"properties":{"type":"charge","layer":"passenger","locationId":"2aa3c66518223f50e0490068f59af161","name":"Notaris van Aalstweg 22","address":"Notaris van Aalstweg 22","city":"Waardenburg","operatorName":"Vattenfall InCharge","maxPowerKw":11,"isMegawatt":false,"status":"CHARGING","source":"ndw"}},{"type":"Feature","geometry":{"type":"Point","coordinates":[5.282032,51.860781]},"properties":{"type":"charge","layer":"passenger","locationId":"3543023","name":"Laadnet Rijksstraatweg 69","address":"Rijksstraatweg 69","city":"Meteren","operatorName":"Laadnet","maxPowerKw":22,"isMegawatt":false,"status":"AVAILABLE","source":"ndw"}},{"type":"Feature","geometry":{"type":"Point","coordinates":[5.173881,51.884213]},"properties":{"type":"charge","layer":"passenger","locationId":"cc485b1a-8d66-11e9-b2c0-42010a840003","name":"NLD, Achtermonde 58, Rumpt","address":"Achtermonde 58","city":"Rumpt","operatorName":"Allego","maxPowerKw":0,"isMegawatt":false,"status":"AVAILABLE","source":"ndw"}},{"type":"Feature","geometry":{"type":"Point","coordinates":[5.244714,51.825462]},"properties":{"type":"charge","layer":"passenger","locationId":"5a389378-f00b-11eb-bd8a-42010a840003","name":"NL, Weerklank, 10, 4176CE, Tuil","address":"Weerklank 10","city":"Tuil","operatorName":"Allego","maxPowerKw":0,"isMegawatt":false,"status":"AVAILABLE","source":"ndw"}},{"type":"Feature","geometry":{"type":"Point","coordinates":[5.090715,51.83866]},"properties":{"type":"charge","layer":"passenger","locationId":"NLLOC002985","name":"Allego - Restaurant Goudreinet Vuren A15","address":"Zeiving 21","city":"Vuren","operatorName":"Allego","maxPowerKw":0,"isMegawatt":false,"status":"AVAILABLE","source":"ndw","priceKwh":0.655}},{"type":"Feature","geometry":{"type":"Point","coordinates":[5.314893,51.853815]},"properties":{"type":"charge","layer":"passenger","locationId":"4e82566b34944702b8d0196d004c1d12","name":"De Hoek 1","address":"De Hoek 1","city":"Est","operatorName":"Vattenfall InCharge","maxPowerKw":11,"isMegawatt":false,"status":"AVAILABLE","source":"ndw"}},{"type":"Feature","geometry":{"type":"Point","coordinates":[5.29814,51.88484]},"properties":{"type":"charge","layer":"passenger","locationId":"b460c666a5bf5d11532c311ad8f5a4fe","name":"Korneplein 13","address":"Korneplein 13","city":"Geldermalsen","operatorName":"Vattenfall InCharge","maxPowerKw":11,"isMegawatt":false,"status":"UNAVAILABLE","source":"ndw"}},{"type":"Feature","geometry":{"type":"Point","coordinates":[5.254749,51.835446]},"properties":{"type":"charge","layer":"passenger","locationId":"7c28826e-0d85-11ea-97f4-42010a840003","name":"NLD, Dokter Kijlstradreef 8, Waardenburg","address":"Dokter Kijlstradreef 8","city":"Waardenburg","operatorName":"Allego","maxPowerKw":0,"isMegawatt":false,"status":"AVAILABLE","source":"ndw"}},{"type":"Feature","geometry":{"type":"Point","coordinates":[5.107712,51.880971]},"properties":{"type":"charge","layer":"passenger","locationId":"e23ff812-cc6a-11ea-8d6c-42010a840003","name":"NL, van Langerakstraat 32, 4147 BJ, Asperen","address":"van Langerakstraat 32","city":"Asperen","operatorName":"Allego","maxPowerKw":0,"isMegawatt":false,"status":"AVAILABLE","source":"ndw"}},{"type":"Feature","geometry":{"type":"Point","coordinates":[5.264509,51.888989]},"properties":{"type":"charge","layer":"passenger","locationId":"NLLOC004828","name":"NLD, Moerkensgaard 9, Tricht","address":"Moerkensgaard 9","city":"Tricht","operatorName":"Allego","maxPowerKw":0,"isMegawatt":false,"status":"AVAILABLE","source":"ndw","priceKwh":0.3488}},{"type":"Feature","geometry":{"type":"Point","coordinates":[5.247185,51.893993]},"properties":{"type":"charge","layer":"passenger","locationId":"234B3D8F-1E31-47A6-9154-D199D7C074CD","name":"Eneco eMobility Middelweg 60 Tricht","address":"Middelweg 60","city":"Tricht","operatorName":"Eneco","maxPowerKw":11,"isMegawatt":false,"status":"AVAILABLE","source":"ndw","priceKwh":0.25}},{"type":"Feature","geometry":{"type":"Point","coordinates":[5.280664,51.872447]},"properties":{"type":"charge","layer":"passenger","locationId":"a1c91fe8-5715-4fa3-a57d-191c75956126","name":"A.H.H. Tolhuisenstraat","address":"A.H.H. Tolhuisenstraat 69","city":"Meteren","operatorName":"Vattenfall InCharge","maxPowerKw":11,"isMegawatt":false,"status":"AVAILABLE","source":"ndw"}},{"type":"Feature","geometry":{"type":"Point","coordinates":[5.264483,51.891752]},"properties":{"type":"charge","layer":"passenger","locationId":"e26029b1-332e-42fa-a7f3-a178ca282909","name":"25 Juni Straat","address":"25 Juni Straat 15","city":"Tricht","operatorName":"Vattenfall InCharge","maxPowerKw":11,"isMegawatt":false,"status":"AVAILABLE","source":"ndw"}},{"type":"Feature","geometry":{"type":"Point","coordinates":[5.249517,51.886707]},"properties":{"type":"charge","layer":"passenger","locationId":"922648","name":"DAE-NL-2000096 P6","address":"Steenoven 2-6","city":"Tricht","operatorName":"DAEN Mobility","maxPowerKw":22,"isMegawatt":false,"status":"UNAVAILABLE","source":"ndw","priceKwh":0.29}},{"type":"Feature","geometry":{"type":"Point","coordinates":[5.18067,51.91259]},"properties":{"type":"charge","layer":"passenger","locationId":"cb1f336a-8058-11e8-af08-42010a840002","name":"Fastned Lingehorst","address":"Lingehorst A2","city":"Beesd","operatorName":"Fastned","maxPowerKw":300,"isMegawatt":false,"status":"AVAILABLE","source":"ndw"}},{"type":"Feature","geometry":{"type":"Point","coordinates":[5.090632,51.839046]},"properties":{"type":"charge","layer":"passenger","locationId":"d4454e4d-1412-4272-ad82-500f563edc1b","name":"Vuren, Netherlands","address":"21, Zeiving","city":"Vuren","operatorName":"Tesla","maxPowerKw":150,"isMegawatt":false,"status":"AVAILABLE","source":"ndw","priceKwh":0.54}},{"type":"Feature","geometry":{"type":"Point","coordinates":[5.247185,51.893993]},"properties":{"type":"charge","layer":"passenger","locationId":"4f43c92e-fc35-11ec-bd5a-42010aa40fc6","name":"Eneco eMobility Middelweg 60 Tricht","address":"Middelweg 60","city":"Tricht","operatorName":"Eneco","maxPowerKw":11,"isMegawatt":false,"status":"AVAILABLE","source":"ndw","priceKwh":0.25}},{"type":"Feature","geometry":{"type":"Point","coordinates":[5.29078,51.876746]},"properties":{"type":"charge","layer":"passenger","locationId":"NLLOC011216","name":"NL, Van Utenhoveweg 12, 4191 MA, Geldermalsen","address":"Van Utenhoveweg 12","city":"Geldermalsen","operatorName":"Allego","maxPowerKw":0,"isMegawatt":false,"status":"AVAILABLE","source":"ndw","priceKwh":0.3488}},{"type":"Feature","geometry":{"type":"Point","coordinates":[5.290485,51.882278]},"properties":{"type":"charge","layer":"passenger","locationId":"NLLOC006526","name":"NL, Herman Kuijkstraat 25, 4191AJ, Geldermalsen","address":"Herman Kuijkstraat 25","city":"Geldermalsen","operatorName":"Allego","maxPowerKw":0,"isMegawatt":false,"status":"AVAILABLE","source":"ndw","priceKwh":0.3488}},{"type":"Feature","geometry":{"type":"Point","coordinates":[5.305679,51.885626]},"properties":{"type":"charge","layer":"passenger","locationId":"NLLOC005648","name":"NLD, Prinses Beatrixweg 71, Geldermalsen","address":"Prinses Beatrixweg 71","city":"Geldermalsen","operatorName":"Allego","maxPowerKw":0,"isMegawatt":false,"status":"AVAILABLE","source":"ndw","priceKwh":0.3488}},{"type":"Feature","geometry":{"type":"Point","coordinates":[5.195208,51.885554]},"properties":{"type":"charge","layer":"passenger","locationId":"2c6b82e8-c768-4e8d-9b2b-945d1ed9f0b7","name":"Middenstraat 13","address":"Middenstraat 13","city":"Beesd","operatorName":"Vattenfall InCharge","maxPowerKw":11,"isMegawatt":false,"status":"AVAILABLE","source":"ndw"}},{"type":"Feature","geometry":{"type":"Point","coordinates":[5.277761,51.879245]},"properties":{"type":"charge","layer":"passenger","locationId":"6f45c892-f8db-11ec-93f0-42010aa40fc0","name":"NL, Tuindorp 32, 4191 KE Geldermalsen","address":"Tuindorp 32","city":"Geldermalsen","operatorName":"Allego","maxPowerKw":0,"isMegawatt":false,"status":"AVAILABLE","source":"ndw"}},{"type":"Feature","geometry":{"type":"Point","coordinates":[5.195673,51.885778]},"properties":{"type":"charge","layer":"passenger","locationId":"eb73bc36-b31e-11e9-af76-42010a840003","name":"NLD, Beesd, Middenstraat 11","address":"Middenstraat 11","city":"Beesd","operatorName":"Allego","maxPowerKw":0,"isMegawatt":false,"status":"AVAILABLE","source":"ndw"}},{"type":"Feature","geometry":{"type":"Point","coordinates":[5.205375,51.880295]},"properties":{"type":"charge","layer":"passenger","locationId":"3964831","name":"Laadnet Vogelaar Enspijk","address":"Polderdijk 2","city":"Enspijk","operatorName":"Laadnet","maxPowerKw":22,"isMegawatt":false,"status":"CHARGING","source":"ndw"}},{"type":"Feature","geometry":{"type":"Point","coordinates":[5.249517,51.886707]},"properties":{"type":"charge","layer":"passenger","locationId":"922639","name":"DAE-NL-2000097 P1","address":"Steenoven 2-6","city":"Tricht","operatorName":"DAEN Mobility","maxPowerKw":22,"isMegawatt":false,"status":"AVAILABLE","source":"ndw","priceKwh":0.29}},{"type":"Feature","geometry":{"type":"Point","coordinates":[5.251973,51.830627]},"properties":{"type":"charge","layer":"passenger","locationId":"3968947","name":"Laadnet Marant 05","address":"Koeweistraat 10","city":"Waardenburg","operatorName":"Laadnet","maxPowerKw":11,"isMegawatt":false,"status":"AVAILABLE","source":"ndw"}},{"type":"Feature","geometry":{"type":"Point","coordinates":[5.131553,51.8279]},"properties":{"type":"charge","layer":"passenger","locationId":"55ad898fe20440d07b405b00bb0aef78","name":"Zworrelstraat 75","address":"Zworrelstraat 75","city":"Herwijnen","operatorName":"Vattenfall InCharge","maxPowerKw":11,"isMegawatt":false,"status":"CHARGING","source":"ndw"}},{"type":"Feature","geometry":{"type":"Point","coordinates":[5.075399,51.872561]},"properties":{"type":"charge","layer":"passenger","locationId":"7bea6056-54a0-11ec-9c4d-42010a840003","name":"NL, Groenewal 37, 4161CM Heukelum","address":"Groenewal 37","city":"Heukelum","operatorName":"Allego","maxPowerKw":0,"isMegawatt":false,"status":"AVAILABLE","source":"ndw"}},{"type":"Feature","geometry":{"type":"Point","coordinates":[5.244231,51.884239]},"properties":{"type":"charge","layer":"passenger","locationId":"dbc066f6-c91f-11e9-89e6-42010a840003","name":"NLD, Palmesteynstraat 7, Deil","address":"Palmesteynstraat 7","city":"Deil","operatorName":"Allego","maxPowerKw":0,"isMegawatt":false,"status":"AVAILABLE","source":"ndw"}},{"type":"Feature","geometry":{"type":"Point","coordinates":[5.264509,51.888989]},"properties":{"type":"charge","layer":"passenger","locationId":"17ffe0fe-d4e9-11e9-b706-42010a840003","name":"NLD, Moerkensgaard 9, Tricht","address":"Moerkensgaard 9","city":"Tricht","operatorName":"Allego","maxPowerKw":0,"isMegawatt":false,"status":"AVAILABLE","source":"ndw"}},{"type":"Feature","geometry":{"type":"Point","coordinates":[5.296903,51.878759]},"properties":{"type":"charge","layer":"passenger","locationId":"77908ef8-20c1-11ec-ad78-42010a840003","name":"NL, Van Hogendorpstraat 41, 4191 HE Geldermalsen","address":"Van Hogendorpstraat 41","city":"Geldermalsen","operatorName":"Allego","maxPowerKw":0,"isMegawatt":false,"status":"AVAILABLE","source":"ndw"}},{"type":"Feature","geometry":{"type":"Point","coordinates":[5.177658,51.824622]},"properties":{"type":"charge","layer":"passenger","locationId":"9188959e-4f3c-11e8-98db-42010a840002","name":"NLD, Neerrijnen, Karel Doormanstraat 2","address":"Karel Doormanstraat 2","city":"Neerrijnen","operatorName":"Allego","maxPowerKw":0,"isMegawatt":false,"status":"AVAILABLE","source":"ndw"}},{"type":"Feature","geometry":{"type":"Point","coordinates":[5.187314,51.825775]},"properties":{"type":"charge","layer":"passenger","locationId":"61b210cf9f48383b2aeed78a","name":"Vossenjacht","address":"Waalbandijk 145","city":"Hellouw","operatorName":"E-Flux by Road","maxPowerKw":22,"isMegawatt":false,"status":"AVAILABLE","source":"ndw","priceKwh":0.55}},{"type":"Feature","geometry":{"type":"Point","coordinates":[5.293918,51.879584]},"properties":{"type":"charge","layer":"passenger","locationId":"0f85e94a-0fe1-11ea-a053-42010a840003","name":"NLD, Koningsweg 18, Geldermalsen","address":"Koningsweg 18","city":"Geldermalsen","operatorName":"Allego","maxPowerKw":0,"isMegawatt":false,"status":"AVAILABLE","source":"ndw"}},{"type":"Feature","geometry":{"type":"Point","coordinates":[5.280508,51.8573]},"properties":{"type":"charge","layer":"passenger","locationId":"6751c6ceef02bf167e6da5f8","name":"3 Zussen Meteren B.V","address":"Rijksstraatweg 80","city":"Meteren","operatorName":"Pluq","maxPowerKw":17,"isMegawatt":false,"status":"AVAILABLE","source":"ndw","priceKwh":0.35}},{"type":"Feature","geometry":{"type":"Point","coordinates":[5.290212,51.880177]},"properties":{"type":"charge","layer":"passenger","locationId":"4758558","name":"Laadnet Regentessestraat 5","address":"Regentessestraat 5","city":"Geldermalsen","operatorName":"Laadnet","maxPowerKw":22,"isMegawatt":false,"status":"AVAILABLE","source":"ndw"}},{"type":"Feature","geometry":{"type":"Point","coordinates":[5.270317,51.888986]},"properties":{"type":"charge","layer":"passenger","locationId":"6056232a-cc6b-11ea-a51b-42010a840003","name":"NL, Kerkstraat 5, 4196 AA, Tricht","address":"Kerkstraat 5","city":"Tricht","operatorName":"Allego","maxPowerKw":0,"isMegawatt":false,"status":"AVAILABLE","source":"ndw"}},{"type":"Feature","geometry":{"type":"Point","coordinates":[5.237914,51.884048]},"properties":{"type":"charge","layer":"passenger","locationId":"67546658-3d75-11ea-b9c3-42010a840003","name":"NL, Gerestein 2a, 4158GC, Deil","address":"Gerestein 2a","city":"Deil","operatorName":"Allego","maxPowerKw":0,"isMegawatt":false,"status":"AVAILABLE","source":"ndw"}},{"type":"Feature","geometry":{"type":"Point","coordinates":[5.296671,51.828469]},"properties":{"type":"charge","layer":"passenger","locationId":"8700079c-4f3c-11e8-9a07-42010a840002","name":"NLD, Neerijnen, Polingstraat 1","address":"Polingstraat 1","city":"Neerijnen","operatorName":"Allego","maxPowerKw":0,"isMegawatt":false,"status":"AVAILABLE","source":"ndw"}},{"type":"Feature","geometry":{"type":"Point","coordinates":[5.296078,51.8852]},"properties":{"type":"charge","layer":"passenger","locationId":"9c86af90-88c2-11eb-b9ed-42010a840003","name":"NL, Lekstraat 2, 4191 BT Geldermalsen","address":"Lekstraat 2","city":"Geldermalsen","operatorName":"Allego","maxPowerKw":0,"isMegawatt":false,"status":"AVAILABLE","source":"ndw"}},{"type":"Feature","geometry":{"type":"Point","coordinates":[5.105909,51.882338]},"properties":{"type":"charge","layer":"passenger","locationId":"eaf4b608-88c7-11ec-8f23-42010a840003","name":"NL, Eikenlaan 23, 4147 GL Asperen","address":"Eikenlaan 23","city":"Asperen","operatorName":"Allego","maxPowerKw":0,"isMegawatt":false,"status":"CHARGING","source":"ndw"}},{"type":"Feature","geometry":{"type":"Point","coordinates":[5.299009,51.827799]},"properties":{"type":"charge","layer":"passenger","locationId":"fd7c8f5e-4d2c-11ea-8c4f-42010a840003","name":"NL, Burgemeester B. den Oudenstraat 13, 4184CL, Opijnen","address":"Burgemeester B. den Oudenstraat 13","city":"Opijnen","operatorName":"Allego","maxPowerKw":0,"isMegawatt":false,"status":"AVAILABLE","source":"ndw"}},{"type":"Feature","geometry":{"type":"Point","coordinates":[5.068694,51.87095]},"properties":{"type":"charge","layer":"passenger","locationId":"NLLOC019903","name":"NL, Ringovenlaan 54, 4161 BS Heukelum","address":"Ringovenlaan 54","city":"Heukelum","operatorName":"Allego","maxPowerKw":0,"isMegawatt":false,"status":"AVAILABLE","source":"ndw","priceKwh":0.3488}},{"type":"Feature","geometry":{"type":"Point","coordinates":[5.151875,51.888864]},"properties":{"type":"charge","layer":"passenger","locationId":"113548cc-d613-11eb-9c87-42010a840003","name":"NL, Haarakker 22, 4152DD, Rhenoy","address":"Haarakker 22","city":"Rhenoy","operatorName":"Allego","maxPowerKw":0,"isMegawatt":false,"status":"AVAILABLE","source":"ndw"}},{"type":"Feature","geometry":{"type":"Point","coordinates":[5.348346,51.813422]},"properties":{"type":"charge","layer":"passenger","locationId":"49ac14c5-ec63-44cb-ad10-e0174db9cc16","name":"Gerestraat","address":"Gerestraat 62","city":"Heesselt","operatorName":"Vattenfall InCharge","maxPowerKw":11,"isMegawatt":false,"status":"AVAILABLE","source":"ndw"}},{"type":"Feature","geometry":{"type":"Point","coordinates":[5.126853,51.828145]},"properties":{"type":"charge","layer":"passenger","locationId":"05774e2c-a15b-11ec-a15f-42010a840003","name":"NL, Zworrelstraat 33, 4171 AH Herwijnen","address":"Zworrelstraat 33","city":"Herwijnen","operatorName":"Allego","maxPowerKw":0,"isMegawatt":false,"status":"AVAILABLE","source":"ndw"}},{"type":"Feature","geometry":{"type":"Point","coordinates":[5.29078,51.876746]},"properties":{"type":"charge","layer":"passenger","locationId":"5d63c864-c6eb-11ea-b3e4-42010a840003","name":"NL, Van Utenhoveweg 12, 4191 MA, Geldermalsen","address":"Van Utenhoveweg 12","city":"Geldermalsen","operatorName":"Allego","maxPowerKw":0,"isMegawatt":false,"status":"AVAILABLE","source":"ndw"}},{"type":"Feature","geometry":{"type":"Point","coordinates":[5.264961,51.831651]},"properties":{"type":"charge","layer":"passenger","locationId":"603ccb84-c7b4-11ea-bb7f-42010a840003","name":"NL, G.E.H. Tutein Noltheniuslaan 7, 4181 AS Waardenburg","address":"G.E.H. Tutein Noltheniuslaan 7","city":"Waardenburg","operatorName":"Allego","maxPowerKw":0,"isMegawatt":false,"status":"AVAILABLE","source":"ndw"}},{"type":"Feature","geometry":{"type":"Point","coordinates":[5.29211,51.870048]},"properties":{"type":"charge","layer":"passenger","locationId":"65c2d214-0cbc-11ea-8227-42010a840003","name":"NLD, Schoolhof 1, Meteren","address":"Schoolhof 1","city":"Meteren","operatorName":"Allego","maxPowerKw":0,"isMegawatt":false,"status":"AVAILABLE","source":"ndw"}},{"type":"Feature","geometry":{"type":"Point","coordinates":[5.272486,51.884592]},"properties":{"type":"charge","layer":"passenger","locationId":"b7ec76f8-ad9e-11e9-b59f-42010a840003","name":"NLD, Geldermalsen, Ossengang 52","address":"Ossengang 52","city":"Geldermalsen","operatorName":"Allego","maxPowerKw":0,"isMegawatt":false,"status":"AVAILABLE","source":"ndw"}},{"type":"Feature","geometry":{"type":"Point","coordinates":[5.115087,51.878921]},"properties":{"type":"charge","layer":"passenger","locationId":"3c6ed1c4-8ba9-11ec-a005-42010a840003","name":"NL, Voorstraat 73A, 4147 CB, Asperen","address":"Voorstraat 73A","city":"Asperen","operatorName":"Allego","maxPowerKw":0,"isMegawatt":false,"status":"AVAILABLE","source":"ndw"}},{"type":"Feature","geometry":{"type":"Point","coordinates":[5.113275,51.881777]},"properties":{"type":"charge","layer":"passenger","locationId":"64b7a062-3856-11ec-96b1-42010a840003","name":"NL, Nieuwstraat 17, 4147 AL Asperen","address":"Nieuwstraat 17","city":"Asperen","operatorName":"Allego","maxPowerKw":0,"isMegawatt":false,"status":"AVAILABLE","source":"ndw"}},{"type":"Feature","geometry":{"type":"Point","coordinates":[5.285772,51.870724]},"properties":{"type":"charge","layer":"passenger","locationId":"65395e8a-0cbc-11ea-86b0-42010a840003","name":"NLD, S. Abrahamsestraat 61, Meteren","address":"S. Abrahamsestraat 61","city":"Meteren","operatorName":"Allego","maxPowerKw":0,"isMegawatt":false,"status":"AVAILABLE","source":"ndw"}},{"type":"Feature","geometry":{"type":"Point","coordinates":[5.130944,51.82318]},"properties":{"type":"charge","layer":"passenger","locationId":"9c94b5b8-88c2-11eb-96d4-42010a840003","name":"NL, Meerenburg 42, 4171 BV, Herwijnen","address":"Meerenburg 42","city":"Herwijnen","operatorName":"Allego","maxPowerKw":0,"isMegawatt":false,"status":"AVAILABLE","source":"ndw"}},{"type":"Feature","geometry":{"type":"Point","coordinates":[5.292482,51.891306]},"properties":{"type":"charge","layer":"passenger","locationId":"2f2278a0-f6b3-11e9-a530-42010a840003","name":"NLD, Jacob de Ridderstraat 12, Buurmalsen","address":"Jacob de Ridderstraat 12","city":"Buurmalsen","operatorName":"Allego","maxPowerKw":0,"isMegawatt":false,"status":"AVAILABLE","source":"ndw"}},{"type":"Feature","geometry":{"type":"Point","coordinates":[5.081255,51.874695]},"properties":{"type":"charge","layer":"passenger","locationId":"cd7dae36-628f-11eb-9f2d-42010a840003","name":"NL, Gragtdijk 6, 4161 AB, Heukelum","address":"Gragtdijk 6","city":"Heukelum","operatorName":"Allego","maxPowerKw":0,"isMegawatt":false,"status":"AVAILABLE","source":"ndw"}},{"type":"Feature","geometry":{"type":"Point","coordinates":[5.129064,51.829043]},"properties":{"type":"charge","layer":"passenger","locationId":"eb225568-dacb-11eb-8d8e-42010a840003","name":"NL, Parallelweg 26, 4171AG, Herwijnen","address":"Parallelweg 26","city":"Herwijnen","operatorName":"Allego","maxPowerKw":0,"isMegawatt":false,"status":"AVAILABLE","source":"ndw"}},{"type":"Feature","geometry":{"type":"Point","coordinates":[5.213504,51.884823]},"properties":{"type":"charge","layer":"passenger","locationId":"b31308bc42809e15c6ed6bd9990e53c7","name":"Maasstraat 27","address":"Maasstraat 27","city":"Enspijk","operatorName":"Vattenfall InCharge","maxPowerKw":11,"isMegawatt":false,"status":"AVAILABLE","source":"ndw"}},{"type":"Feature","geometry":{"type":"Point","coordinates":[5.212001,51.820402]},"properties":{"type":"charge","layer":"passenger","locationId":"ae1a0a5a-a4d1-11ec-a267-42010a840003","name":"NL, Dutry van Haeftenstraat 18, 4175EL, Haaften","address":"Dutry van Haeftenstraat 18","city":"Haaften","operatorName":"Allego","maxPowerKw":0,"isMegawatt":false,"status":"AVAILABLE","source":"ndw"}},{"type":"Feature","geometry":{"type":"Point","coordinates":[5.278055,51.86996]},"properties":{"type":"charge","layer":"passenger","locationId":"d89ebe82-2c8c-11ec-b4d7-42010a840003","name":"NL, F.A. Wonninkstraat 46, 4194VT, Meteren","address":"F.A. Wonninkstraat 46","city":"Meteren","operatorName":"Allego","maxPowerKw":0,"isMegawatt":false,"status":"AVAILABLE","source":"ndw"}},{"type":"Feature","geometry":{"type":"Point","coordinates":[5.244817,51.823803]},"properties":{"type":"charge","layer":"passenger","locationId":"7a791364-db32-11e9-977c-42010a840003","name":"NLD, Tuilseveldweg 2, Tuil","address":"Tuilseveldweg 2","city":"Tuil","operatorName":"Allego","maxPowerKw":0,"isMegawatt":false,"status":"AVAILABLE","source":"ndw"}},{"type":"Feature","geometry":{"type":"Point","coordinates":[5.249517,51.886707]},"properties":{"type":"charge","layer":"passenger","locationId":"922647","name":"DAE-NL-2000106 P3","address":"Steenoven 2-6","city":"Tricht","operatorName":"DAEN Mobility","maxPowerKw":22,"isMegawatt":false,"status":"AVAILABLE","source":"ndw","priceKwh":0.29}},{"type":"Feature","geometry":{"type":"Point","coordinates":[5.308092,51.885031]},"properties":{"type":"charge","layer":"passenger","locationId":"64739400-d748-4673-96d7-d93733046ebb","name":"Coreanna 36","address":"Coreanna 36","city":"Geldermalsen","operatorName":"Vattenfall InCharge","maxPowerKw":11,"isMegawatt":false,"status":"AVAILABLE","source":"ndw"}},{"type":"Feature","geometry":{"type":"Point","coordinates":[5.281012,51.870318]},"properties":{"type":"charge","layer":"passenger","locationId":"9724e140-dbfb-11e9-ae08-42010a840003","name":"NLD, J.H.L. van Herwaardenstraat 77, Meteren","address":"J.H.L. van Herwaardenstraat 77","city":"Meteren","operatorName":"Allego","maxPowerKw":0,"isMegawatt":false,"status":"CHARGING","source":"ndw"}},{"type":"Feature","geometry":{"type":"Point","coordinates":[5.301439,51.886129]},"properties":{"type":"charge","layer":"passenger","locationId":"7ad31087dbdb71c581a8192e8277b0df","name":"Johan van Oldenbarneveldtstraat 24","address":"Johan van Oldenbarneveldtstraat 24","city":"Geldermalsen","operatorName":"Vattenfall InCharge","maxPowerKw":11,"isMegawatt":false,"status":"AVAILABLE","source":"ndw"}},{"type":"Feature","geometry":{"type":"Point","coordinates":[5.250975,51.827421]},"properties":{"type":"charge","layer":"passenger","locationId":"3160958","name":"Laadnet Schildersbedrijf de Jongh BV","address":"Steenweg 17A","city":"Waardenburg","operatorName":"Laadnet","maxPowerKw":22,"isMegawatt":false,"status":"AVAILABLE","source":"ndw"}},{"type":"Feature","geometry":{"type":"Point","coordinates":[5.288029,51.879591]},"properties":{"type":"charge","layer":"passenger","locationId":"2df877dc-267b-11ec-9995-42010a840003","name":"NL, Prinsenhof 46, 4191 ER Geldermalsen","address":"Prinsenhof 46","city":"Geldermalsen","operatorName":"Allego","maxPowerKw":0,"isMegawatt":false,"status":"AVAILABLE","source":"ndw"}},{"type":"Feature","geometry":{"type":"Point","coordinates":[5.290803,51.869386]},"properties":{"type":"charge","layer":"passenger","locationId":"6d42fac8-b552-11ec-8724-42010a840003","name":"NL, Josinahof 2, 4194 AD Meteren","address":"Josinahof 2","city":"Meteren","operatorName":"Allego","maxPowerKw":0,"isMegawatt":false,"status":"AVAILABLE","source":"ndw"}},{"type":"Feature","geometry":{"type":"Point","coordinates":[5.27558,51.883598]},"properties":{"type":"charge","layer":"passenger","locationId":"8809f470-f8db-11ec-a69a-42010aa40fc0","name":"NL, Burgemeester von Geusauweg 13, 4191KV Geldermalsen","address":"Burgemeester von Geusauweg 13","city":"Geldermalsen","operatorName":"Allego","maxPowerKw":0,"isMegawatt":false,"status":"AVAILABLE","source":"ndw"}},{"type":"Feature","geometry":{"type":"Point","coordinates":[5.090715,51.83866]},"properties":{"type":"charge","layer":"passenger","locationId":"610d301e-4f3c-11e8-b1a4-42010a840002","name":"Allego - Restaurant Goudreinet Vuren A15","address":"Zeiving 21","city":"Vuren","operatorName":"Allego","maxPowerKw":0,"isMegawatt":false,"status":"AVAILABLE","source":"ndw"}},{"type":"Feature","geometry":{"type":"Point","coordinates":[5.273117,51.885423]},"properties":{"type":"charge","layer":"passenger","locationId":"7ba643aa-7089-11ea-ac48-42010a840003","name":"NL, Ossengang 26, 4191LR, Geldermalsen","address":"Ossengang 26","city":"Geldermalsen","operatorName":"Allego","maxPowerKw":0,"isMegawatt":false,"status":"AVAILABLE","source":"ndw"}},{"type":"Feature","geometry":{"type":"Point","coordinates":[5.13593,51.878804]},"properties":{"type":"charge","layer":"passenger","locationId":"ad61e1b4-b7fc-11ea-a2dc-42010a840003","name":"NL, Prinses Margrietstraat 11 4151 CK Acquoy","address":"Prinses Margrietstraat 11","city":"Acquoy","operatorName":"Allego","maxPowerKw":0,"isMegawatt":false,"status":"AVAILABLE","source":"ndw"}},{"type":"Feature","geometry":{"type":"Point","coordinates":[5.13593,51.878804]},"properties":{"type":"charge","layer":"passenger","locationId":"NLLOC010951","name":"NL, Prinses Margrietstraat 11 4151 CK Acquoy","address":"Prinses Margrietstraat 11","city":"Acquoy","operatorName":"Allego","maxPowerKw":0,"isMegawatt":false,"status":"AVAILABLE","source":"ndw","priceKwh":0.3488}},{"type":"Feature","geometry":{"type":"Point","coordinates":[5.042952,51.825196]},"properties":{"type":"charge","layer":"passenger","locationId":"ab375b88-2542-4bbf-b45c-9cb3f65b6001","name":"De Wetering","address":"De Wetering 9","city":"Vuren","operatorName":"Vattenfall InCharge","maxPowerKw":11,"isMegawatt":false,"status":"CHARGING","source":"ndw"}},{"type":"Feature","geometry":{"type":"Point","coordinates":[5.196418,51.890131]},"properties":{"type":"charge","layer":"passenger","locationId":"9ac826d6-72dc-11ea-84d6-42010a840003","name":"NL, Wethouder Klerkstraat 22, 4153VK Beesd","address":"Wethouder Klerkstraat 22","city":"Beesd","operatorName":"Allego","maxPowerKw":0,"isMegawatt":false,"status":"AVAILABLE","source":"ndw"}},{"type":"Feature","geometry":{"type":"Point","coordinates":[5.272901,51.883451]},"properties":{"type":"charge","layer":"passenger","locationId":"FA4219BE-3459-4EF0-A019-699C5E837D0A","name":"Eneco eMobility Zorggroep Sirjon - De Terp 1 - Geldermalsen","address":"De Terp 1","city":"Geldermalsen","operatorName":"Eneco","maxPowerKw":11,"isMegawatt":false,"status":"AVAILABLE","source":"ndw","priceKwh":0.6}},{"type":"Feature","geometry":{"type":"Point","coordinates":[5.2521,51.829204]},"properties":{"type":"charge","layer":"passenger","locationId":"E9AF9255-C7C3-4443-BD76-239FA34862F2","name":"Eneco eMobility Blom Ecologie Waardenburg","address":"Koeweistraat 2","city":"Waardenburg","operatorName":"Eneco","maxPowerKw":22,"isMegawatt":false,"status":"AVAILABLE","source":"ndw","priceKwh":0.32}},{"type":"Feature","geometry":{"type":"Point","coordinates":[5.249517,51.886707]},"properties":{"type":"charge","layer":"passenger","locationId":"922649","name":"DAE-NL-2000100-B P9","address":"Steenoven 2-6","city":"Tricht","operatorName":"DAEN Mobility","maxPowerKw":22,"isMegawatt":false,"status":"AVAILABLE","source":"ndw","priceKwh":0.29}},{"type":"Feature","geometry":{"type":"Point","coordinates":[5.248265,51.886504]},"properties":{"type":"charge","layer":"passenger","locationId":"922759","name":"DAE_NL_2000508","address":"Steenoven 2-6","city":"Tricht","operatorName":"DAEN Mobility","maxPowerKw":22,"isMegawatt":false,"status":"AVAILABLE","source":"ndw","priceKwh":0.29}},{"type":"Feature","geometry":{"type":"Point","coordinates":[5.249517,51.886707]},"properties":{"type":"charge","layer":"passenger","locationId":"922638","name":"DAE-NL-2000115 P8","address":"Steenoven 2-6","city":"Tricht","operatorName":"DAEN Mobility","maxPowerKw":22,"isMegawatt":false,"status":"AVAILABLE","source":"ndw","priceKwh":0.29}},{"type":"Feature","geometry":{"type":"Point","coordinates":[5.29611,51.876243]},"properties":{"type":"charge","layer":"passenger","locationId":"NLLOC009646","name":"NL, Lange Akker 89 4191 JB Geldermalsen","address":"Lange Akker 89","city":"Geldermalsen","operatorName":"Allego","maxPowerKw":0,"isMegawatt":false,"status":"AVAILABLE","source":"ndw","priceKwh":0.3488}},{"type":"Feature","geometry":{"type":"Point","coordinates":[5.129064,51.829043]},"properties":{"type":"charge","layer":"passenger","locationId":"NLLOC016255","name":"NL, Parallelweg 26, 4171AG, Herwijnen","address":"Parallelweg 26","city":"Herwijnen","operatorName":"Allego","maxPowerKw":0,"isMegawatt":false,"status":"AVAILABLE","source":"ndw","priceKwh":0.3488}},{"type":"Feature","geometry":{"type":"Point","coordinates":[5.046986,51.823018]},"properties":{"type":"charge","layer":"passenger","locationId":"3b6c54e4-ee1a-4787-b882-f142639c2b4e","name":"De Rietput 117","address":"De Rietput 117","city":"Vuren","operatorName":"Vattenfall InCharge","maxPowerKw":11,"isMegawatt":false,"status":"AVAILABLE","source":"ndw"}},{"type":"Feature","geometry":{"type":"Point","coordinates":[5.249517,51.886707]},"properties":{"type":"charge","layer":"passenger","locationId":"922679","name":"DAE-NL-2000113 P17","address":"Steenoven 2-6","city":"Tricht","operatorName":"DAEN Mobility","maxPowerKw":4,"isMegawatt":false,"status":"AVAILABLE","source":"ndw","priceKwh":0.29}},{"type":"Feature","geometry":{"type":"Point","coordinates":[5.249517,51.886707]},"properties":{"type":"charge","layer":"passenger","locationId":"922680","name":"DAE-NL2000104 P18","address":"Steenoven 2-6","city":"Tricht","operatorName":"DAEN Mobility","maxPowerKw":4,"isMegawatt":false,"status":"AVAILABLE","source":"ndw","priceKwh":0.29}},{"type":"Feature","geometry":{"type":"Point","coordinates":[5.11365,51.87937]},"properties":{"type":"charge","layer":"passenger","locationId":"0b7472b5083027a0abb0973d6671dd1e","name":"Stadswal 6","address":"Stadswal 6","city":"Asperen","operatorName":"Vattenfall InCharge","maxPowerKw":11,"isMegawatt":false,"status":"AVAILABLE","source":"ndw"}},{"type":"Feature","geometry":{"type":"Point","coordinates":[5.29695,51.86767]},"properties":{"type":"charge","layer":"passenger","locationId":"2e577bbc83547a5dacf359fe352317ab","name":"Ravelijn 52","address":"Ravelijn 52","city":"Meteren","operatorName":"Vattenfall InCharge","maxPowerKw":11,"isMegawatt":false,"status":"CHARGING","source":"ndw"}},{"type":"Feature","geometry":{"type":"Point","coordinates":[5.196357,51.873453]},"properties":{"type":"charge","layer":"passenger","locationId":"8614f5d5-2da7-4d87-bd80-6737176762bb","name":"Boutensteinseweg 2B","address":"Boutensteinseweg 2B","city":"Rumpt","operatorName":"Vattenfall InCharge","maxPowerKw":11,"isMegawatt":false,"status":"AVAILABLE","source":"ndw"}},{"type":"Feature","geometry":{"type":"Point","coordinates":[5.287483,51.883596]},"properties":{"type":"charge","layer":"passenger","locationId":"1ee7b34e-f697-4006-a8f8-15fc92f8d51a","name":"Achter 't Veer","address":"Achter 't Veer 16","city":"Geldermalsen","operatorName":"Vattenfall InCharge","maxPowerKw":11,"isMegawatt":false,"status":"CHARGING","source":"ndw"}},{"type":"Feature","geometry":{"type":"Point","coordinates":[5.276563,51.886852]},"properties":{"type":"charge","layer":"passenger","locationId":"42CBAEC3-B560-4AAC-93EE-6E2643AFA6A1","name":"Eneco eMobility Trichtsevoetpad 4 Geldermalsen","address":"Trichtsevoetpad 4","city":"Geldermalsen","operatorName":"Eneco","maxPowerKw":0,"isMegawatt":false,"status":"AVAILABLE","source":"ndw","priceKwh":0.25}},{"type":"Feature","geometry":{"type":"Point","coordinates":[5.049753,51.823973]},"properties":{"type":"charge","layer":"passenger","locationId":"7354284c87852a7386224776afff4307","name":"Lindelaan 1","address":"Lindelaan 1","city":"Vuren","operatorName":"Vattenfall InCharge","maxPowerKw":11,"isMegawatt":false,"status":"AVAILABLE","source":"ndw"}},{"type":"Feature","geometry":{"type":"Point","coordinates":[5.291449,51.87543]},"properties":{"type":"charge","layer":"passenger","locationId":"8256257ca6193ad2e6138c82782295ad","name":"Van Utenhoveweg 100","address":"Van Utenhoveweg 100","city":"Geldermalsen","operatorName":"Vattenfall InCharge","maxPowerKw":11,"isMegawatt":false,"status":"AVAILABLE","source":"ndw"}},{"type":"Feature","geometry":{"type":"Point","coordinates":[5.386091,51.846591]},"properties":{"type":"charge","layer":"passenger","locationId":"e1c1ce44-abb1-4082-a95d-0ec7b2a764b9","name":"Margriet van Lijndenlaan 2","address":"Margriet van Lijndenlaan 2","city":"Overbeemt","operatorName":"Vattenfall InCharge","maxPowerKw":11,"isMegawatt":false,"status":"AVAILABLE","source":"ndw"}},{"type":"Feature","geometry":{"type":"Point","coordinates":[5.242713,51.823432]},"properties":{"type":"charge","layer":"passenger","locationId":"0ef0c933-6439-4e1f-860d-3854bebb9899","name":"Appelenburg 22","address":"Appelenburg 22","city":"Tuil","operatorName":"Vattenfall InCharge","maxPowerKw":11,"isMegawatt":false,"status":"CHARGING","source":"ndw"}},{"type":"Feature","geometry":{"type":"Point","coordinates":[5.256778,51.831464]},"properties":{"type":"charge","layer":"passenger","locationId":"NLLOC005818","name":"NLD, Dorpsstraat 2b, Waardenburg","address":"Dorpsstraat 2b","city":"Waardenburg","operatorName":"Allego","maxPowerKw":0,"isMegawatt":false,"status":"AVAILABLE","source":"ndw","priceKwh":0.3488}},{"type":"Feature","geometry":{"type":"Point","coordinates":[5.27646,51.873244]},"properties":{"type":"charge","layer":"passenger","locationId":"923532","name":"PBLR-0036368","address":"W.J. van der Hooftstraat 32","city":"Meteren","operatorName":"DAEN Mobility","maxPowerKw":11,"isMegawatt":false,"status":"AVAILABLE","source":"ndw","priceKwh":0.36}},{"type":"Feature","geometry":{"type":"Point","coordinates":[5.383983,51.846047]},"properties":{"type":"charge","layer":"passenger","locationId":"510efa8752d3327b73915e11cd487dfc","name":"Karmijnstraat 10","address":"Karmijnstraat 10","city":"Ophemert","operatorName":"Vattenfall InCharge","maxPowerKw":11,"isMegawatt":false,"status":"CHARGING","source":"ndw"}},{"type":"Feature","geometry":{"type":"Point","coordinates":[5.29616,51.82912]},"properties":{"type":"charge","layer":"passenger","locationId":"afe4e91dd22cd3b3a29dfa931156a24e","name":"Sparksstraat 1","address":"Sparksstraat 1","city":"Opijnen","operatorName":"Vattenfall InCharge","maxPowerKw":11,"isMegawatt":false,"status":"AVAILABLE","source":"ndw"}},{"type":"Feature","geometry":{"type":"Point","coordinates":[5.249517,51.886707]},"properties":{"type":"charge","layer":"passenger","locationId":"922641","name":"DAE-NL-2000099 P12","address":"Steenoven 2-6","city":"Tricht","operatorName":"DAEN Mobility","maxPowerKw":22,"isMegawatt":false,"status":"UNAVAILABLE","source":"ndw","priceKwh":0.29}},{"type":"Feature","geometry":{"type":"Point","coordinates":[5.288029,51.879591]},"properties":{"type":"charge","layer":"passenger","locationId":"NLLOC017322","name":"NL, Prinsenhof 46, 4191 ER Geldermalsen","address":"Prinsenhof 46","city":"Geldermalsen","operatorName":"Allego","maxPowerKw":0,"isMegawatt":false,"status":"AVAILABLE","source":"ndw","priceKwh":0.3488}},{"type":"Feature","geometry":{"type":"Point","coordinates":[5.126853,51.828145]},"properties":{"type":"charge","layer":"passenger","locationId":"NLLOC021209","name":"NL, Zworrelstraat 33, 4171 AH Herwijnen","address":"Zworrelstraat 33","city":"Herwijnen","operatorName":"Allego","maxPowerKw":0,"isMegawatt":false,"status":"AVAILABLE","source":"ndw","priceKwh":0.3488}},{"type":"Feature","geometry":{"type":"Point","coordinates":[5.105909,51.882338]},"properties":{"type":"charge","layer":"passenger","locationId":"NLLOC019011","name":"NL, Eikenlaan 23, 4147 GL Asperen","address":"Eikenlaan 23","city":"Asperen","operatorName":"Allego","maxPowerKw":0,"isMegawatt":false,"status":"CHARGING","source":"ndw","priceKwh":0.3488}},{"type":"Feature","geometry":{"type":"Point","coordinates":[5.009608,51.855984]},"properties":{"type":"charge","layer":"passenger","locationId":"6b31003d-9471-4218-8df0-41f9cc363005","name":"Spijkse Kweldijk 51","address":"Spijkse Kweldijk 51","city":"Spijk Gem Lingewaal","operatorName":"Vattenfall InCharge","maxPowerKw":11,"isMegawatt":false,"status":"AVAILABLE","source":"ndw"}},{"type":"Feature","geometry":{"type":"Point","coordinates":[5.072,51.871207]},"properties":{"type":"charge","layer":"passenger","locationId":"f5c5d0017fd70db39272e4016bffda2f","name":"Hoeghen Camp 37A","address":"Hoeghen Camp 37A","city":"Heukelum","operatorName":"Vattenfall InCharge","maxPowerKw":11,"isMegawatt":false,"status":"AVAILABLE","source":"ndw"}},{"type":"Feature","geometry":{"type":"Point","coordinates":[5.249517,51.886707]},"properties":{"type":"charge","layer":"passenger","locationId":"922640","name":"DAE-NL-2000098 P15","address":"Steenoven 2-6","city":"Tricht","operatorName":"DAEN Mobility","maxPowerKw":22,"isMegawatt":false,"status":"AVAILABLE","source":"ndw","priceKwh":0.29}},{"type":"Feature","geometry":{"type":"Point","coordinates":[5.249517,51.886707]},"properties":{"type":"charge","layer":"passenger","locationId":"922635","name":"DAE-NL-2000092 P16","address":"Steenoven 2-6","city":"Tricht","operatorName":"DAEN Mobility","maxPowerKw":22,"isMegawatt":false,"status":"AVAILABLE","source":"ndw","priceKwh":0.29}},{"type":"Feature","geometry":{"type":"Point","coordinates":[5.104106,51.882902]},"properties":{"type":"charge","layer":"passenger","locationId":"0ce6eae9-5778-4f2d-9e49-c2a5cca94898","name":"Laantje van Vermeer","address":"Laantje van Vermeer 11","city":"Asperen","operatorName":"Vattenfall InCharge","maxPowerKw":11,"isMegawatt":false,"status":"AVAILABLE","source":"ndw"}},{"type":"Feature","geometry":{"type":"Point","coordinates":[5.27855,51.877866]},"properties":{"type":"charge","layer":"passenger","locationId":"922650","name":"DAE-NL-2000127","address":"Oudenhof 2","city":"Geldermalsen","operatorName":"DAEN Mobility","maxPowerKw":11,"isMegawatt":false,"status":"AVAILABLE","source":"ndw","priceKwh":0.53}},{"type":"Feature","geometry":{"type":"Point","coordinates":[5.295532,51.8675]},"properties":{"type":"charge","layer":"passenger","locationId":"80681c54df7ccffcd8faf9179e428687","name":"Ravelijn 20","address":"Ravelijn 20","city":"Meteren","operatorName":"Vattenfall InCharge","maxPowerKw":11,"isMegawatt":false,"status":"AVAILABLE","source":"ndw"}},{"type":"Feature","geometry":{"type":"Point","coordinates":[5.237914,51.884048]},"properties":{"type":"charge","layer":"passenger","locationId":"NLLOC006787","name":"NL, Gerestein 2a, 4158GC, Deil","address":"Gerestein 2a","city":"Deil","operatorName":"Allego","maxPowerKw":0,"isMegawatt":false,"status":"AVAILABLE","source":"ndw","priceKwh":0.3488}},{"type":"Feature","geometry":{"type":"Point","coordinates":[5.249517,51.886707]},"properties":{"type":"charge","layer":"passenger","locationId":"922636","name":"DAE-NL-2000105 P7","address":"Steenoven 2-6","city":"Tricht","operatorName":"DAEN Mobility","maxPowerKw":22,"isMegawatt":false,"status":"UNAVAILABLE","source":"ndw","priceKwh":0.29}},{"type":"Feature","geometry":{"type":"Point","coordinates":[5.249517,51.886707]},"properties":{"type":"charge","layer":"passenger","locationId":"922642","name":"DAE-NL-2000107 P11","address":"Steenoven 2-6","city":"Tricht","operatorName":"DAEN Mobility","maxPowerKw":22,"isMegawatt":false,"status":"AVAILABLE","source":"ndw","priceKwh":0.29}},{"type":"Feature","geometry":{"type":"Point","coordinates":[5.299233,51.829653]},"properties":{"type":"charge","layer":"passenger","locationId":"463b60fb8f09f45ec53082d8ffb7694c","name":"De Cock van Opijnenstraat 34","address":"De Cock van Opijnenstraat 34","city":"Opijnen","operatorName":"Vattenfall InCharge","maxPowerKw":11,"isMegawatt":false,"status":"AVAILABLE","source":"ndw"}},{"type":"Feature","geometry":{"type":"Point","coordinates":[5.103912,51.884132]},"properties":{"type":"charge","layer":"passenger","locationId":"355ea489-3c04-4428-9dca-21ff161799f5","name":"Leerdamseweg 37","address":"Leerdamseweg 37","city":"Asperen","operatorName":"Vattenfall InCharge","maxPowerKw":11,"isMegawatt":false,"status":"AVAILABLE","source":"ndw"}},{"type":"Feature","geometry":{"type":"Point","coordinates":[5.130944,51.82318]},"properties":{"type":"charge","layer":"passenger","locationId":"NLLOC011743","name":"NL, Meerenburg 42, 4171 BV, Herwijnen","address":"Meerenburg 42","city":"Herwijnen","operatorName":"Allego","maxPowerKw":0,"isMegawatt":false,"status":"AVAILABLE","source":"ndw","priceKwh":0.3488}},{"type":"Feature","geometry":{"type":"Point","coordinates":[5.195673,51.885778]},"properties":{"type":"charge","layer":"passenger","locationId":"NLLOC004568","name":"NLD, Beesd, Middenstraat 11","address":"Middenstraat 11","city":"Beesd","operatorName":"Allego","maxPowerKw":0,"isMegawatt":false,"status":"AVAILABLE","source":"ndw","priceKwh":0.3488}},{"type":"Feature","geometry":{"type":"Point","coordinates":[5.196418,51.890131]},"properties":{"type":"charge","layer":"passenger","locationId":"NLLOC008099","name":"NL, Wethouder Klerkstraat 22, 4153VK Beesd","address":"Wethouder Klerkstraat 22","city":"Beesd","operatorName":"Allego","maxPowerKw":0,"isMegawatt":false,"status":"CHARGING","source":"ndw","priceKwh":0.3488}},{"type":"Feature","geometry":{"type":"Point","coordinates":[5.151257,51.877025]},"properties":{"type":"charge","layer":"passenger","locationId":"65e87939884de4001c052ebb","name":"Hoogendoorn","address":"Laageindseweg 12","city":"gellicum","operatorName":"E-Flux by Road","maxPowerKw":11,"isMegawatt":false,"status":"CHARGING","source":"ndw","priceKwh":0.29}},{"type":"Feature","geometry":{"type":"Point","coordinates":[5.06602,51.82892]},"properties":{"type":"charge","layer":"passenger","locationId":"e57a67f6-17aa-44fc-96d8-e0c0d5f87447","name":"De Steeg","address":"De Steeg 1","city":"Vuren","operatorName":"Vattenfall InCharge","maxPowerKw":11,"isMegawatt":false,"status":"AVAILABLE","source":"ndw"}},{"type":"Feature","geometry":{"type":"Point","coordinates":[5.317489,51.865479]},"properties":{"type":"charge","layer":"passenger","locationId":"6442324bea20480012fe66ab","name":"Family Property B.V. (All Company) - Geldermalsen","address":"De Aaldor  26","city":"Geldermalsen","operatorName":"Fleet Charge Services","maxPowerKw":22,"isMegawatt":false,"status":"AVAILABLE","source":"ndw","priceKwh":0.42}},{"type":"Feature","geometry":{"type":"Point","coordinates":[5.249517,51.886707]},"properties":{"type":"charge","layer":"passenger","locationId":"922644","name":"DAE-NL-2000094 P5","address":"Steenoven 2-6","city":"Tricht","operatorName":"DAEN Mobility","maxPowerKw":22,"isMegawatt":false,"status":"AVAILABLE","source":"ndw","priceKwh":0.29}},{"type":"Feature","geometry":{"type":"Point","coordinates":[5.244231,51.884239]},"properties":{"type":"charge","layer":"passenger","locationId":"NLLOC004666","name":"NLD, Palmesteynstraat 7, Deil","address":"Palmesteynstraat 7","city":"Deil","operatorName":"Allego","maxPowerKw":0,"isMegawatt":false,"status":"AVAILABLE","source":"ndw","priceKwh":0.3488}},{"type":"Feature","geometry":{"type":"Point","coordinates":[5.193219,51.884067]},"properties":{"type":"charge","layer":"passenger","locationId":"8fc54cf1-c715-4dbf-9c60-3052e5c26d23","name":"Voorstraat","address":"Voorstraat 69d","city":"Beesd","operatorName":"Vattenfall InCharge","maxPowerKw":11,"isMegawatt":false,"status":"AVAILABLE","source":"ndw"}},{"type":"Feature","geometry":{"type":"Point","coordinates":[5.21393,51.884954]},"properties":{"type":"charge","layer":"passenger","locationId":"8c66413d467ed87fb3a2a0814a599c62","name":"Maasstraat 10","address":"Maasstraat 10","city":"Enspijk","operatorName":"Vattenfall InCharge","maxPowerKw":11,"isMegawatt":false,"status":"CHARGING","source":"ndw"}},{"type":"Feature","geometry":{"type":"Point","coordinates":[5.130376,51.825038]},"properties":{"type":"charge","layer":"passenger","locationId":"132517fa-f775-4252-a592-261fa8eee89f","name":"Achterweg","address":"Achterweg 28","city":"Herwijnen","operatorName":"Vattenfall InCharge","maxPowerKw":11,"isMegawatt":false,"status":"AVAILABLE","source":"ndw"}},{"type":"Feature","geometry":{"type":"Point","coordinates":[5.281012,51.870318]},"properties":{"type":"charge","layer":"passenger","locationId":"NLLOC004919","name":"NLD, J.H.L. van Herwaardenstraat 77, Meteren","address":"J.H.L. van Herwaardenstraat 77","city":"Meteren","operatorName":"Allego","maxPowerKw":0,"isMegawatt":false,"status":"AVAILABLE","source":"ndw","priceKwh":0.3488}},{"type":"Feature","geometry":{"type":"Point","coordinates":[5.211899,51.822336]},"properties":{"type":"charge","layer":"passenger","locationId":"9a1643d0f9103bfa871d1125114a9558","name":"Johannisstraat 13","address":"Johannisstraat 13","city":"Haaften","operatorName":"Vattenfall InCharge","maxPowerKw":11,"isMegawatt":false,"status":"AVAILABLE","source":"ndw"}},{"type":"Feature","geometry":{"type":"Point","coordinates":[5.400144,51.848891]},"properties":{"type":"charge","layer":"passenger","locationId":"65b26009fa7012001cd9f2e0","name":"Judith van Burik 's station","address":"Molenstraat 46","city":"Ophemert","operatorName":"E-Flux by Road","maxPowerKw":11,"isMegawatt":false,"status":"AVAILABLE","source":"ndw","priceKwh":0.47}},{"type":"Feature","geometry":{"type":"Point","coordinates":[5.13362,51.826748]},"properties":{"type":"charge","layer":"passenger","locationId":"ac2bcab1-05ed-4224-9886-eda924f31c98","name":"De Strobbel 10","address":"De Strobbel 10","city":"Herwijnen","operatorName":"Vattenfall InCharge","maxPowerKw":11,"isMegawatt":false,"status":"AVAILABLE","source":"ndw"}},{"type":"Feature","geometry":{"type":"Point","coordinates":[5.092461,51.844982]},"properties":{"type":"charge","layer":"passenger","locationId":"68be91bdc3e1050df7f03cb7","name":"Openbaar Laadstation Gaanweg","address":"Gaanweg  21","city":"Vuren","operatorName":"E-Flux by Road","maxPowerKw":14,"isMegawatt":false,"status":"AVAILABLE","source":"ndw","priceKwh":0.83}},{"type":"Feature","geometry":{"type":"Point","coordinates":[5.288199,51.865236]},"properties":{"type":"charge","layer":"passenger","locationId":"4175109","name":"Laadnet Blanckestyn 27","address":"Blanckestyn 27","city":"Meteren","operatorName":"Laadnet","maxPowerKw":11,"isMegawatt":false,"status":"AVAILABLE","source":"ndw"}},{"type":"Feature","geometry":{"type":"Point","coordinates":[5.278055,51.86996]},"properties":{"type":"charge","layer":"passenger","locationId":"NLLOC018527","name":"NL, F.A. Wonninkstraat 46, 4194VT, Meteren","address":"F.A. Wonninkstraat 46","city":"Meteren","operatorName":"Allego","maxPowerKw":0,"isMegawatt":false,"status":"AVAILABLE","source":"ndw","priceKwh":0.3488}},{"type":"Feature","geometry":{"type":"Point","coordinates":[5.296078,51.8852]},"properties":{"type":"charge","layer":"passenger","locationId":"NLLOC009707","name":"NL, Lekstraat 2, 4191 BT Geldermalsen","address":"Lekstraat 2","city":"Geldermalsen","operatorName":"Allego","maxPowerKw":0,"isMegawatt":false,"status":"AVAILABLE","source":"ndw","priceKwh":0.3488}},{"type":"Feature","geometry":{"type":"Point","coordinates":[5.281939,51.872445]},"properties":{"type":"charge","layer":"passenger","locationId":"e6fa616c54a523355a439cf7ca6b64ae","name":"A.H.H. Tolhuisenstraat 39","address":"A.H.H. Tolhuisenstraat 39","city":"Meteren","operatorName":"Vattenfall InCharge","maxPowerKw":11,"isMegawatt":false,"status":"AVAILABLE","source":"ndw"}},{"type":"Feature","geometry":{"type":"Point","coordinates":[5.249517,51.886707]},"properties":{"type":"charge","layer":"passenger","locationId":"922637","name":"DAE-NL-2000108 P10","address":"Steenoven 2-6","city":"Tricht","operatorName":"DAEN Mobility","maxPowerKw":22,"isMegawatt":false,"status":"UNAVAILABLE","source":"ndw","priceKwh":0.29}},{"type":"Feature","geometry":{"type":"Point","coordinates":[5.292482,51.891306]},"properties":{"type":"charge","layer":"passenger","locationId":"NLLOC005277","name":"NLD, Jacob de Ridderstraat 12, Buurmalsen","address":"Jacob de Ridderstraat 12","city":"Buurmalsen","operatorName":"Allego","maxPowerKw":0,"isMegawatt":false,"status":"AVAILABLE","source":"ndw","priceKwh":0.3488}},{"type":"Feature","geometry":{"type":"Point","coordinates":[5.244714,51.825462]},"properties":{"type":"charge","layer":"passenger","locationId":"NLLOC009807","name":"NL, Weerklank, 10, 4176CE, Tuil","address":"Weerklank 10","city":"Tuil","operatorName":"Allego","maxPowerKw":0,"isMegawatt":false,"status":"AVAILABLE","source":"ndw","priceKwh":0.3488}},{"type":"Feature","geometry":{"type":"Point","coordinates":[5.151081,51.881429]},"properties":{"type":"charge","layer":"passenger","locationId":"4cb78292a1b8c6f38e1a613f9ce13884","name":"Kornelis van Wijnenstraat 4","address":"Kornelis van Wijnenstraat 4","city":"Rhenoy","operatorName":"Vattenfall InCharge","maxPowerKw":11,"isMegawatt":false,"status":"AVAILABLE","source":"ndw"}},{"type":"Feature","geometry":{"type":"Point","coordinates":[5.278091,51.871266]},"properties":{"type":"charge","layer":"passenger","locationId":"26016eaa46850d711b0dbe2c2687661f","name":"L. Wildschutstraat 37","address":"L. Wildschutstraat 37","city":"Meteren","operatorName":"Vattenfall InCharge","maxPowerKw":11,"isMegawatt":false,"status":"UNAVAILABLE","source":"ndw"}},{"type":"Feature","geometry":{"type":"Point","coordinates":[5.218611,51.819703]},"properties":{"type":"charge","layer":"passenger","locationId":"62f61fa8f1ab6bb6b5db9338","name":"HSB Horecaservice Beesd B.V. - Haaften","address":"Hertog Karelweg  17","city":"Haaften","operatorName":"Fleet Charge Services","maxPowerKw":22,"isMegawatt":false,"status":"AVAILABLE","source":"ndw","priceKwh":0.47}},{"type":"Feature","geometry":{"type":"Point","coordinates":[5.261032,51.871514]},"properties":{"type":"charge","layer":"passenger","locationId":"680b7c57cc08c3ec03e5a62d","name":"De Kijfakker","address":"Hooiweg 2a","city":"Deil","operatorName":"E-Flux by Road","maxPowerKw":14,"isMegawatt":false,"status":"AVAILABLE","source":"ndw","priceKwh":0.47}},{"type":"Feature","geometry":{"type":"Point","coordinates":[5.296,51.87504]},"properties":{"type":"charge","layer":"passenger","locationId":"2853a74e5064d836bb25f81e9e1a83d2","name":"Lange Akker 104","address":"Lange Akker 104","city":"Geldermalsen","operatorName":"Vattenfall InCharge","maxPowerKw":11,"isMegawatt":false,"status":"UNAVAILABLE","source":"ndw"}},{"type":"Feature","geometry":{"type":"Point","coordinates":[5.102436,51.880616]},"properties":{"type":"charge","layer":"passenger","locationId":"NLLOC017733","name":"NL, Drostlaan 50, 4147 GD Asperen","address":"Drostlaan 50","city":"Asperen","operatorName":"Allego","maxPowerKw":0,"isMegawatt":false,"status":"AVAILABLE","source":"ndw","priceKwh":0.3488}},{"type":"Feature","geometry":{"type":"Point","coordinates":[5.293388,51.883352]},"properties":{"type":"charge","layer":"passenger","locationId":"1509b6e6-15ec-4374-b734-43084addbaef","name":"Geldersestraat 76","address":"Geldersestraat 76","city":"Geldermalsen","operatorName":"Vattenfall InCharge","maxPowerKw":11,"isMegawatt":false,"status":"AVAILABLE","source":"ndw"}},{"type":"Feature","geometry":{"type":"Point","coordinates":[5.19143,51.88958]},"properties":{"type":"charge","layer":"passenger","locationId":"7764963b30b76f39cce0ca20ad826012","name":"Prins Willem-Alexandersingel 55","address":"Prins Willem-Alexandersingel 55","city":"Beesd","operatorName":"Vattenfall InCharge","maxPowerKw":11,"isMegawatt":false,"status":"AVAILABLE","source":"ndw"}},{"type":"Feature","geometry":{"type":"Point","coordinates":[5.115087,51.878921]},"properties":{"type":"charge","layer":"passenger","locationId":"NLLOC011085","name":"NL, Voorstraat 73A, 4147 CB, Asperen","address":"Voorstraat 73A","city":"Asperen","operatorName":"Allego","maxPowerKw":0,"isMegawatt":false,"status":"AVAILABLE","source":"ndw","priceKwh":0.3488}},{"type":"Feature","geometry":{"type":"Point","coordinates":[5.371104,51.823812]},"properties":{"type":"charge","layer":"passenger","locationId":"36c505fd-c870-4cf1-8815-84988a3bcb8a","name":"Doctor D.M. van Londenstraat","address":"Doctor D.M. van Londenstraat 17","city":"Varik","operatorName":"Vattenfall InCharge","maxPowerKw":11,"isMegawatt":false,"status":"UNAVAILABLE","source":"ndw"}},{"type":"Feature","geometry":{"type":"Point","coordinates":[5.081255,51.874695]},"properties":{"type":"charge","layer":"passenger","locationId":"NLLOC007045","name":"NL, Gragtdijk 6, 4161 AB, Heukelum","address":"Gragtdijk 6","city":"Heukelum","operatorName":"Allego","maxPowerKw":0,"isMegawatt":false,"status":"AVAILABLE","source":"ndw","priceKwh":0.3488}},{"type":"Feature","geometry":{"type":"Point","coordinates":[5.249517,51.886707]},"properties":{"type":"charge","layer":"passenger","locationId":"922634","name":"DAE-NL-2000111 P13","address":"Steenoven 2-6","city":"Tricht","operatorName":"DAEN Mobility","maxPowerKw":22,"isMegawatt":false,"status":"AVAILABLE","source":"ndw","priceKwh":0.29}},{"type":"Feature","geometry":{"type":"Point","coordinates":[5.307395,51.878546]},"properties":{"type":"charge","layer":"passenger","locationId":"b739947b-2d0d-4317-8c66-9c4ea8f61e14","name":"Hogeweide 1","address":"Hogeweide 1","city":"Geldermalsen","operatorName":"Vattenfall InCharge","maxPowerKw":11,"isMegawatt":false,"status":"AVAILABLE","source":"ndw"}},{"type":"Feature","geometry":{"type":"Point","coordinates":[5.113275,51.881777]},"properties":{"type":"charge","layer":"passenger","locationId":"NLLOC014503","name":"NL, Nieuwstraat 17, 4147 AL Asperen","address":"Nieuwstraat 17","city":"Asperen","operatorName":"Allego","maxPowerKw":0,"isMegawatt":false,"status":"AVAILABLE","source":"ndw","priceKwh":0.3488}},{"type":"Feature","geometry":{"type":"Point","coordinates":[5.107712,51.880971]},"properties":{"type":"charge","layer":"passenger","locationId":"NLLOC006527","name":"NL, van Langerakstraat 32, 4147 BJ, Asperen","address":"van Langerakstraat 32","city":"Asperen","operatorName":"Allego","maxPowerKw":0,"isMegawatt":false,"status":"AVAILABLE","source":"ndw","priceKwh":0.3488}},{"type":"Feature","geometry":{"type":"Point","coordinates":[5.367828,51.822539]},"properties":{"type":"charge","layer":"passenger","locationId":"aa19c397b88fd81f1a0ff1331850483c","name":"Grotestraat  27","address":"Grotestraat  27","city":"Varik","operatorName":"Vattenfall InCharge","maxPowerKw":11,"isMegawatt":false,"status":"UNAVAILABLE","source":"ndw"}},{"type":"Feature","geometry":{"type":"Point","coordinates":[5.261032,51.871514]},"properties":{"type":"charge","layer":"passenger","locationId":"680b7bdba7c1266ecabd9bf6","name":"De Kijfakker","address":"Hooiweg 2a","city":"Deil","operatorName":"E-Flux by Road","maxPowerKw":14,"isMegawatt":false,"status":"AVAILABLE","source":"ndw","priceKwh":0.47}},{"type":"Feature","geometry":{"type":"Point","coordinates":[5.27558,51.883598]},"properties":{"type":"charge","layer":"passenger","locationId":"NLLOC019126","name":"NL, Burgemeester von Geusauweg 13, 4191KV Geldermalsen","address":"Burgemeester von Geusauweg 13","city":"Geldermalsen","operatorName":"Allego","maxPowerKw":0,"isMegawatt":false,"status":"CHARGING","source":"ndw","priceKwh":0.3488}},{"type":"Feature","geometry":{"type":"Point","coordinates":[5.074154,51.873664]},"properties":{"type":"charge","layer":"passenger","locationId":"fd56a42551553358ced55c6b9c64f8ad","name":"Lingewal  9","address":"Lingewal  9","city":"Heukelum","operatorName":"Vattenfall InCharge","maxPowerKw":11,"isMegawatt":false,"status":"AVAILABLE","source":"ndw"}},{"type":"Feature","geometry":{"type":"Point","coordinates":[5.244817,51.823803]},"properties":{"type":"charge","layer":"passenger","locationId":"NLLOC004864","name":"NLD, Tuilseveldweg 2, Tuil","address":"Tuilseveldweg 2","city":"Tuil","operatorName":"Allego","maxPowerKw":0,"isMegawatt":false,"status":"AVAILABLE","source":"ndw","priceKwh":0.3488}},{"type":"Feature","geometry":{"type":"Point","coordinates":[5.105085,51.880301]},"properties":{"type":"charge","layer":"passenger","locationId":"023dc209f487b748f4c57f9eeb262bda","name":"Vroedschap 25","address":"Vroedschap 25","city":"Asperen","operatorName":"Vattenfall InCharge","maxPowerKw":11,"isMegawatt":false,"status":"AVAILABLE","source":"ndw"}},{"type":"Feature","geometry":{"type":"Point","coordinates":[5.210272,51.822815]},"properties":{"type":"charge","layer":"passenger","locationId":"NLLOC005623","name":"NLD, Stevenstraat 11, Haaften","address":"Stevenstraat 11","city":"Haaften","operatorName":"Allego","maxPowerKw":0,"isMegawatt":false,"status":"AVAILABLE","source":"ndw","priceKwh":0.3488}},{"type":"Feature","geometry":{"type":"Point","coordinates":[5.173881,51.884213]},"properties":{"type":"charge","layer":"passenger","locationId":"NLLOC004247","name":"NLD, Achtermonde 58, Rumpt","address":"Achtermonde 58","city":"Rumpt","operatorName":"Allego","maxPowerKw":0,"isMegawatt":false,"status":"AVAILABLE","source":"ndw","priceKwh":0.3488}},{"type":"Feature","geometry":{"type":"Point","coordinates":[5.376221,51.827224]},"properties":{"type":"charge","layer":"passenger","locationId":"cc2c12d3-5964-42f5-a35f-296c51626f61","name":"Buitenhof","address":"Buitenhof 23","city":"Varik","operatorName":"Vattenfall InCharge","maxPowerKw":11,"isMegawatt":false,"status":"AVAILABLE","source":"ndw"}},{"type":"Feature","geometry":{"type":"Point","coordinates":[5.299009,51.827799]},"properties":{"type":"charge","layer":"passenger","locationId":"NLLOC007568","name":"NL, Burgemeester B. den Oudenstraat 13, 4184CL, Opijnen","address":"Burgemeester B. den Oudenstraat 13","city":"Opijnen","operatorName":"Allego","maxPowerKw":0,"isMegawatt":false,"status":"CHARGING","source":"ndw","priceKwh":0.3488}},{"type":"Feature","geometry":{"type":"Point","coordinates":[5.296671,51.828469]},"properties":{"type":"charge","layer":"passenger","locationId":"NLLOC001656","name":"NLD, Neerijnen, Polingstraat 1","address":"Polingstraat 1","city":"Neerijnen","operatorName":"Allego","maxPowerKw":0,"isMegawatt":false,"status":"CHARGING","source":"ndw","priceKwh":0.511}},{"type":"Feature","geometry":{"type":"Point","coordinates":[5.245235,51.885894]},"properties":{"type":"charge","layer":"passenger","locationId":"66a8f68e977216001c8c3688","name":"Jeffrey van Oos 's station","address":"Deilsedijk 60b","city":"Deil","operatorName":"E-Flux by Road","maxPowerKw":14,"isMegawatt":false,"status":"AVAILABLE","source":"ndw","priceKwh":0.78}},{"type":"Feature","geometry":{"type":"Point","coordinates":[5.248265,51.886504]},"properties":{"type":"charge","layer":"passenger","locationId":"922765","name":"DAE_NL_2000507","address":"Steenoven 2 6","city":"Tricht","operatorName":"DAEN Mobility","maxPowerKw":22,"isMegawatt":false,"status":"AVAILABLE","source":"ndw","priceKwh":0.29}},{"type":"Feature","geometry":{"type":"Point","coordinates":[5.270317,51.888986]},"properties":{"type":"charge","layer":"passenger","locationId":"NLLOC010999","name":"NL, Kerkstraat 5, 4196 AA, Tricht","address":"Kerkstraat 5","city":"Tricht","operatorName":"Allego","maxPowerKw":0,"isMegawatt":false,"status":"AVAILABLE","source":"ndw","priceKwh":0.3488}},{"type":"Feature","geometry":{"type":"Point","coordinates":[5.280579,51.866732]},"properties":{"type":"charge","layer":"passenger","locationId":"cc96ebbb93068425702fd18dcd4d4946","name":"Wilgenlaan 33","address":"Wilgenlaan 33","city":"Meteren","operatorName":"Vattenfall InCharge","maxPowerKw":11,"isMegawatt":false,"status":"AVAILABLE","source":"ndw"}},{"type":"Feature","geometry":{"type":"Point","coordinates":[5.06174,51.869365]},"properties":{"type":"charge","layer":"passenger","locationId":"fb0a3e95def526700b2461c7d251a52a","name":"Groeneweg 8","address":"Groeneweg 8","city":"Heukelum","operatorName":"Vattenfall InCharge","maxPowerKw":11,"isMegawatt":false,"status":"AVAILABLE","source":"ndw"}},{"type":"Feature","geometry":{"type":"Point","coordinates":[5.2123,51.817456]},"properties":{"type":"charge","layer":"passenger","locationId":"27028af6f03d42ef7c787bd743078c9d","name":"Dreef  31","address":"Dreef  31","city":"Haaften","operatorName":"Vattenfall InCharge","maxPowerKw":11,"isMegawatt":false,"status":"AVAILABLE","source":"ndw"}},{"type":"Feature","geometry":{"type":"Point","coordinates":[5.191163,51.886047]},"properties":{"type":"charge","layer":"passenger","locationId":"f8bbddf57f363aad7f1037126b818960","name":"Huis te Beestlaan 8","address":"Huis te Beestlaan 8","city":"Beesd","operatorName":"Vattenfall InCharge","maxPowerKw":11,"isMegawatt":false,"status":"AVAILABLE","source":"ndw"}},{"type":"Feature","geometry":{"type":"Point","coordinates":[5.239297,51.884433]},"properties":{"type":"charge","layer":"passenger","locationId":"6da94f1d79db623c89f92df6411664c5","name":"Schoresteynstraat 44","address":"Schoresteynstraat 44","city":"Deil","operatorName":"Vattenfall InCharge","maxPowerKw":11,"isMegawatt":false,"status":"AVAILABLE","source":"ndw"}},{"type":"Feature","geometry":{"type":"Point","coordinates":[5.254092,51.89157]},"properties":{"type":"charge","layer":"passenger","locationId":"61ab364e-fa43-408e-a643-03e703f76920","name":"Middelweg","address":"Middelweg 54","city":"Tricht","operatorName":"Vattenfall InCharge","maxPowerKw":11,"isMegawatt":false,"status":"AVAILABLE","source":"ndw"}},{"type":"Feature","geometry":{"type":"Point","coordinates":[5.285772,51.870724]},"properties":{"type":"charge","layer":"passenger","locationId":"NLLOC005624","name":"NLD, S. Abrahamsestraat 61, Meteren","address":"S. Abrahamsestraat 61","city":"Meteren","operatorName":"Allego","maxPowerKw":0,"isMegawatt":false,"status":"AVAILABLE","source":"ndw","priceKwh":0.3488}},{"type":"Feature","geometry":{"type":"Point","coordinates":[5.293918,51.879584]},"properties":{"type":"charge","layer":"passenger","locationId":"NLLOC005674","name":"NLD, Koningsweg 18, Geldermalsen","address":"Koningsweg 18","city":"Geldermalsen","operatorName":"Allego","maxPowerKw":0,"isMegawatt":false,"status":"AVAILABLE","source":"ndw","priceKwh":0.3488}},{"type":"Feature","geometry":{"type":"Point","coordinates":[5.297421,51.88295]},"properties":{"type":"charge","layer":"passenger","locationId":"NLLOC015153","name":"NL, De Schakel 10, 4191XR, Geldermalsen","address":"De Schakel 10","city":"Geldermalsen","operatorName":"Allego","maxPowerKw":0,"isMegawatt":false,"status":"AVAILABLE","source":"ndw","priceKwh":0.3488}},{"type":"Feature","geometry":{"type":"Point","coordinates":[5.254749,51.835446]},"properties":{"type":"charge","layer":"passenger","locationId":"NLLOC005634","name":"NLD, Dokter Kijlstradreef 8, Waardenburg","address":"Dokter Kijlstradreef 8","city":"Waardenburg","operatorName":"Allego","maxPowerKw":0,"isMegawatt":false,"status":"CHARGING","source":"ndw","priceKwh":0.3488}},{"type":"Feature","geometry":{"type":"Point","coordinates":[5.280977,51.831873]},"properties":{"type":"charge","layer":"passenger","locationId":"3e289e0b-61e1-4ae8-a9c6-78f2aa2af845","name":"van Pallandtweg  15","address":"van Pallandtweg  15","city":"Neerijnen","operatorName":"Vattenfall InCharge","maxPowerKw":11,"isMegawatt":false,"status":"AVAILABLE","source":"ndw"}},{"type":"Feature","geometry":{"type":"Point","coordinates":[5.382065,51.846222]},"properties":{"type":"charge","layer":"passenger","locationId":"bd3baff9-d477-4119-a8ec-b3f29a11b50f","name":"Yellowstraat 14","address":"Yellowstraat 14","city":"Ophemert","operatorName":"Vattenfall InCharge","maxPowerKw":11,"isMegawatt":false,"status":"AVAILABLE","source":"ndw"}},{"type":"Feature","geometry":{"type":"Point","coordinates":[5.297108,51.868342]},"properties":{"type":"charge","layer":"passenger","locationId":"35d7775deeb4048f3b93cf87b1492c48","name":"Citadel 13","address":"Citadel 13","city":"Meteren","operatorName":"Vattenfall InCharge","maxPowerKw":11,"isMegawatt":false,"status":"CHARGING","source":"ndw"}},{"type":"Feature","geometry":{"type":"Point","coordinates":[5.277761,51.879245]},"properties":{"type":"charge","layer":"passenger","locationId":"NLLOC024015","name":"NL, Tuindorp 32, 4191 KE Geldermalsen","address":"Tuindorp 32","city":"Geldermalsen","operatorName":"Allego","maxPowerKw":0,"isMegawatt":false,"status":"AVAILABLE","source":"ndw","priceKwh":0.3488}},{"type":"Feature","geometry":{"type":"Point","coordinates":[5.312111,51.875276]},"properties":{"type":"charge","layer":"passenger","locationId":"63452ecf1ed571a2e3cb2982","name":"Bouwmensen station","address":"Poppenbouwing 3","city":"Geldermalsen","operatorName":"E-Flux by Road","maxPowerKw":22,"isMegawatt":false,"status":"AVAILABLE","source":"ndw","priceKwh":0.4}},{"type":"Feature","geometry":{"type":"Point","coordinates":[5.272486,51.884592]},"properties":{"type":"charge","layer":"passenger","locationId":"NLLOC004525","name":"NLD, Geldermalsen, Ossengang 52","address":"Ossengang 52","city":"Geldermalsen","operatorName":"Allego","maxPowerKw":0,"isMegawatt":false,"status":"AVAILABLE","source":"ndw","priceKwh":0.3488}},{"type":"Feature","geometry":{"type":"Point","coordinates":[5.293757,51.869485]},"properties":{"type":"charge","layer":"passenger","locationId":"eef45b1e-a6d1-4ec3-971c-4b4614fb921a","name":"Weergang 3","address":"Weergang 3","city":"Meteren","operatorName":"Vattenfall InCharge","maxPowerKw":11,"isMegawatt":false,"status":"AVAILABLE","source":"ndw"}},{"type":"Feature","geometry":{"type":"Point","coordinates":[5.243934,51.824755]},"properties":{"type":"charge","layer":"passenger","locationId":"49033c2753346d2f38a4397016ca7de1","name":"Havenstraat 12","address":"Havenstraat 12","city":"Tuil","operatorName":"Vattenfall InCharge","maxPowerKw":11,"isMegawatt":false,"status":"AVAILABLE","source":"ndw"}},{"type":"Feature","geometry":{"type":"Point","coordinates":[5.306407,51.882346]},"properties":{"type":"charge","layer":"passenger","locationId":"b4049a29-36df-4e4e-9507-1e2000b5979e","name":"Bloemee","address":"Bloemee 19","city":"Geldermalsen","operatorName":"Vattenfall InCharge","maxPowerKw":11,"isMegawatt":false,"status":"AVAILABLE","source":"ndw"}},{"type":"Feature","geometry":{"type":"Point","coordinates":[5.177658,51.824622]},"properties":{"type":"charge","layer":"passenger","locationId":"NLLOC001421","name":"NLD, Neerrijnen, Karel Doormanstraat 2","address":"Karel Doormanstraat 2","city":"Neerrijnen","operatorName":"Allego","maxPowerKw":0,"isMegawatt":false,"status":"AVAILABLE","source":"ndw","priceKwh":0.511}},{"type":"Feature","geometry":{"type":"Point","coordinates":[5.129661,51.825886]},"properties":{"type":"charge","layer":"passenger","locationId":"692dabcd77079e8993f937c4","name":"Jeroen van Straaten - L-830-DR","address":"Nieuwe Steeg 13","city":"HERWIJNEN","operatorName":"E-Flux by Road","maxPowerKw":22,"isMegawatt":false,"status":"CHARGING","source":"ndw","priceKwh":0.99}},{"type":"Feature","geometry":{"type":"Point","coordinates":[5.191941,51.889859]},"properties":{"type":"charge","layer":"passenger","locationId":"934d3141-08ee-4aab-9f53-93119d75f7a3","name":"Prins Willem-Alexandersingel","address":"Prins Willem-Alexandersingel 35","city":"Beesd","operatorName":"Vattenfall InCharge","maxPowerKw":11,"isMegawatt":false,"status":"AVAILABLE","source":"ndw"}},{"type":"Feature","geometry":{"type":"Point","coordinates":[5.21199,51.827884]},"properties":{"type":"charge","layer":"passenger","locationId":"c1973652-a858-4fe4-ada4-9ab91ab90d25","name":"Enggraaf","address":"Enggraaf 33","city":"Haaften","operatorName":"Vattenfall InCharge","maxPowerKw":11,"isMegawatt":false,"status":"AVAILABLE","source":"ndw"}},{"type":"Feature","geometry":{"type":"Point","coordinates":[5.151875,51.888864]},"properties":{"type":"charge","layer":"passenger","locationId":"NLLOC018600","name":"NL, Haarakker 22, 4152DD, Rhenoy","address":"Haarakker 22","city":"Rhenoy","operatorName":"Allego","maxPowerKw":0,"isMegawatt":false,"status":"AVAILABLE","source":"ndw","priceKwh":0.3488}},{"type":"Feature","geometry":{"type":"Point","coordinates":[5.306258,51.872849]},"properties":{"type":"charge","layer":"passenger","locationId":"EBF010A3-2F4B-4DFD-AD6E-6B79D4FE7E99","name":"Eneco eMobility DC Geldermalsen - Randweg 2 - Geldermalsen","address":"Randweg 2","city":"Geldermalsen","operatorName":"Eneco","maxPowerKw":11,"isMegawatt":false,"status":"AVAILABLE","source":"ndw","priceKwh":0.3}},{"type":"Feature","geometry":{"type":"Point","coordinates":[5.21457,51.819857]},"properties":{"type":"charge","layer":"passenger","locationId":"0a678a63721fbc3e0073317e1215c000","name":"Stadsland 19","address":"Stadsland 19","city":"Haaften","operatorName":"Vattenfall InCharge","maxPowerKw":11,"isMegawatt":false,"status":"AVAILABLE","source":"ndw"}},{"type":"Feature","geometry":{"type":"Point","coordinates":[5.100108,51.882037]},"properties":{"type":"charge","layer":"passenger","locationId":"9e233332c9d44f80eddb5ebbcaa805e3","name":"Kersendreef 15","address":"Kersendreef 15","city":"Asperen","operatorName":"Vattenfall InCharge","maxPowerKw":11,"isMegawatt":false,"status":"AVAILABLE","source":"ndw"}},{"type":"Feature","geometry":{"type":"Point","coordinates":[5.134493,51.880653]},"properties":{"type":"charge","layer":"passenger","locationId":"f5341f855b58a77b3c8ca4719d99afa5","name":"Prinses Beatrixstraat 1","address":"Prinses Beatrixstraat 1","city":"Acquoy","operatorName":"Vattenfall InCharge","maxPowerKw":11,"isMegawatt":false,"status":"AVAILABLE","source":"ndw"}},{"type":"Feature","geometry":{"type":"Point","coordinates":[5.299942,51.829975]},"properties":{"type":"charge","layer":"passenger","locationId":"e9128cd5-e9af-411c-95a4-8b58a55fc1d1","name":"De Richtershof 1","address":"De Richtershof 1","city":"Opijnen","operatorName":"Vattenfall InCharge","maxPowerKw":11,"isMegawatt":false,"status":"AVAILABLE","source":"ndw"}},{"type":"Feature","geometry":{"type":"Point","coordinates":[5.278437,51.863846]},"properties":{"type":"charge","layer":"passenger","locationId":"d6acf4038afaec0d421e864d7761ab4b","name":"Achtersteweg 33","address":"Achtersteweg 33","city":"Meteren","operatorName":"Vattenfall InCharge","maxPowerKw":11,"isMegawatt":false,"status":"AVAILABLE","source":"ndw"}},{"type":"Feature","geometry":{"type":"Point","coordinates":[5.267677,51.892888]},"properties":{"type":"charge","layer":"passenger","locationId":"65e4b1b1fbbe7703fa8e2d7cc48318e4","name":"Johannes Wigeliusstraat 48","address":"Johannes Wigeliusstraat 48","city":"Tricht","operatorName":"Vattenfall InCharge","maxPowerKw":11,"isMegawatt":false,"status":"AVAILABLE","source":"ndw"}},{"type":"Feature","geometry":{"type":"Point","coordinates":[5.357706,51.819872]},"properties":{"type":"charge","layer":"passenger","locationId":"48d284cd-f557-4ebd-a1ce-149e16686a06","name":"Gerestraat","address":"Gerestraat 4 a","city":"Heesselt","operatorName":"Vattenfall InCharge","maxPowerKw":11,"isMegawatt":false,"status":"AVAILABLE","source":"ndw"}},{"type":"Feature","geometry":{"type":"Point","coordinates":[5.212001,51.820402]},"properties":{"type":"charge","layer":"passenger","locationId":"NLLOC019110","name":"NL, Dutry van Haeftenstraat 18, 4175EL, Haaften","address":"Dutry van Haeftenstraat 18","city":"Haaften","operatorName":"Allego","maxPowerKw":0,"isMegawatt":false,"status":"AVAILABLE","source":"ndw","priceKwh":0.3488}},{"type":"Feature","geometry":{"type":"Point","coordinates":[5.290146,51.869771]},"properties":{"type":"charge","layer":"passenger","locationId":"30c06dc77d32f9b7f5b005812331e7a2","name":"Dingshof 14","address":"Dingshof 14","city":"Meteren","operatorName":"Vattenfall InCharge","maxPowerKw":11,"isMegawatt":false,"status":"AVAILABLE","source":"ndw"}},{"type":"Feature","geometry":{"type":"Point","coordinates":[5.290803,51.869386]},"properties":{"type":"charge","layer":"passenger","locationId":"NLLOC015932","name":"NL, Josinahof 2, 4194 AD Meteren","address":"Josinahof 2","city":"Meteren","operatorName":"Allego","maxPowerKw":0,"isMegawatt":false,"status":"AVAILABLE","source":"ndw","priceKwh":0.3488}},{"type":"Feature","geometry":{"type":"Point","coordinates":[5.070799,51.870367]},"properties":{"type":"charge","layer":"passenger","locationId":"ca382bd1-b646-4519-a857-ba6047b603a7","name":"Opsnijder","address":"Opsnijder 1","city":"Heukelum","operatorName":"Vattenfall InCharge","maxPowerKw":11,"isMegawatt":false,"status":"AVAILABLE","source":"ndw"}},{"type":"Feature","geometry":{"type":"Point","coordinates":[5.119086,51.826489]},"properties":{"type":"charge","layer":"passenger","locationId":"9556c26aea471e55db9b13bbd436d51f","name":"Rij- en Uitweg 24","address":"Rij- en Uitweg 24","city":"Herwijnen","operatorName":"Vattenfall InCharge","maxPowerKw":11,"isMegawatt":false,"status":"AVAILABLE","source":"ndw"}},{"type":"Feature","geometry":{"type":"Point","coordinates":[5.383337,51.845816]},"properties":{"type":"charge","layer":"passenger","locationId":"0e47ce856d9fc3308b84a6128610e3e7","name":"Karmijnstraat 1","address":"Karmijnstraat 1","city":"Ophemert","operatorName":"Vattenfall InCharge","maxPowerKw":11,"isMegawatt":false,"status":"AVAILABLE","source":"ndw"}},{"type":"Feature","geometry":{"type":"Point","coordinates":[5.187165,51.889068]},"properties":{"type":"charge","layer":"passenger","locationId":"866a53ed639ef0626230607331f75a87","name":"Prins Constantijnstraat 34","address":"Prins Constantijnstraat 34","city":"Beesd","operatorName":"Vattenfall InCharge","maxPowerKw":11,"isMegawatt":false,"status":"AVAILABLE","source":"ndw"}},{"type":"Feature","geometry":{"type":"Point","coordinates":[5.37173,51.82451]},"properties":{"type":"charge","layer":"passenger","locationId":"5b8c1a94a8ec66ee48a9f0471a5126fe","name":"Dr. D.M. van Londenstraat 41","address":"Dr. D.M. van Londenstraat 41","city":"Varik","operatorName":"Vattenfall InCharge","maxPowerKw":11,"isMegawatt":false,"status":"AVAILABLE","source":"ndw"}},{"type":"Feature","geometry":{"type":"Point","coordinates":[5.29542,51.867361]},"properties":{"type":"charge","layer":"passenger","locationId":"bc0c3b997ebb087e650d34d4ef5a7d00","name":"De Kantelen 65","address":"De Kantelen 65","city":"Meteren","operatorName":"Vattenfall InCharge","maxPowerKw":11,"isMegawatt":false,"status":"AVAILABLE","source":"ndw"}},{"type":"Feature","geometry":{"type":"Point","coordinates":[5.180818,51.882658]},"properties":{"type":"charge","layer":"passenger","locationId":"4f68fc1e-805e-482a-abd2-06bd6bf873da","name":"R.M. van Gellicumstraat  1 a","address":"R.M. van Gellicumstraat  1 a","city":"Rumpt","operatorName":"Vattenfall InCharge","maxPowerKw":11,"isMegawatt":false,"status":"CHARGING","source":"ndw"}},{"type":"Feature","geometry":{"type":"Point","coordinates":[5.044837,51.824592]},"properties":{"type":"charge","layer":"passenger","locationId":"a9d2bd080c6bcfc64118fed3740cb2d7","name":"Mildijk 12","address":"Mildijk 12","city":"Vuren","operatorName":"Vattenfall InCharge","maxPowerKw":11,"isMegawatt":false,"status":"AVAILABLE","source":"ndw"}},{"type":"Feature","geometry":{"type":"Point","coordinates":[5.242255,51.885255]},"properties":{"type":"charge","layer":"passenger","locationId":"4db31d48-d2b9-4936-96a0-e22a4382a7df","name":"Duyfhuisstraat 4","address":"Duyfhuisstraat 4","city":"Deil","operatorName":"Vattenfall InCharge","maxPowerKw":11,"isMegawatt":false,"status":"CHARGING","source":"ndw"}},{"type":"Feature","geometry":{"type":"Point","coordinates":[5.246427,51.824988]},"properties":{"type":"charge","layer":"passenger","locationId":"57abf2b3-9e8b-45be-8239-d4b1b3e1d6b1","name":"Kuilenburgsekade 15","address":"Kuilenburgsekade 15","city":"Tuil","operatorName":"Vattenfall InCharge","maxPowerKw":11,"isMegawatt":false,"status":"CHARGING","source":"ndw"}},{"type":"Feature","geometry":{"type":"Point","coordinates":[5.18107,51.829226]},"properties":{"type":"charge","layer":"passenger","locationId":"765bbef9-289f-4e3e-b0b5-85d480d5edfd","name":"De Hoenderkampen 1","address":"De Hoenderkampen 1","city":"Hellouw","operatorName":"Vattenfall InCharge","maxPowerKw":11,"isMegawatt":false,"status":"AVAILABLE","source":"ndw"}},{"type":"Feature","geometry":{"type":"Point","coordinates":[5.047545,51.825599]},"properties":{"type":"charge","layer":"passenger","locationId":"e2ece90f07ac278da2590cdbd36eeedd","name":"Seringenlaan 24","address":"Seringenlaan 24","city":"Vuren","operatorName":"Vattenfall InCharge","maxPowerKw":11,"isMegawatt":false,"status":"AVAILABLE","source":"ndw"}},{"type":"Feature","geometry":{"type":"Point","coordinates":[5.10145,51.88147]},"properties":{"type":"charge","layer":"passenger","locationId":"d3761a82c85384e7620dbf370b4fcbcf","name":"Notendreef 1","address":"Notendreef 1","city":"Asperen","operatorName":"Vattenfall InCharge","maxPowerKw":11,"isMegawatt":false,"status":"AVAILABLE","source":"ndw"}},{"type":"Feature","geometry":{"type":"Point","coordinates":[5.04401,51.82335]},"properties":{"type":"charge","layer":"passenger","locationId":"5a7c3ac95eb4c6601c2fabb7b61d5672","name":"De Rietput 28","address":"De Rietput 28","city":"Vuren","operatorName":"Vattenfall InCharge","maxPowerKw":11,"isMegawatt":false,"status":"AVAILABLE","source":"ndw"}},{"type":"Feature","geometry":{"type":"Point","coordinates":[5.242093,51.885744]},"properties":{"type":"charge","layer":"passenger","locationId":"0caf6a76f0a335b4c6e22cacc98a7118","name":"Benedeneindseweg 1","address":"Benedeneindseweg 1","city":"Deil","operatorName":"Vattenfall InCharge","maxPowerKw":11,"isMegawatt":false,"status":"AVAILABLE","source":"ndw"}},{"type":"Feature","geometry":{"type":"Point","coordinates":[5.307173,51.829316]},"properties":{"type":"charge","layer":"passenger","locationId":"50585907-d401-4309-8397-f8529e48355e","name":"Zandstraat","address":"Zandstraat 24","city":"Opijnen","operatorName":"Vattenfall InCharge","maxPowerKw":11,"isMegawatt":false,"status":"AVAILABLE","source":"ndw"}},{"type":"Feature","geometry":{"type":"Point","coordinates":[5.103427,51.881937]},"properties":{"type":"charge","layer":"passenger","locationId":"48c509bf02d0d75054b863b55acd794d","name":"Schepenlaan  12","address":"Schepenlaan  12","city":"Asperen","operatorName":"Vattenfall InCharge","maxPowerKw":11,"isMegawatt":false,"status":"AVAILABLE","source":"ndw"}},{"type":"Feature","geometry":{"type":"Point","coordinates":[5.305423,51.884803]},"properties":{"type":"charge","layer":"passenger","locationId":"83bbb2499bfd635a8ec849245a9d6001","name":"Bellefleur 24","address":"Bellefleur 24","city":"Geldermalsen","operatorName":"Vattenfall InCharge","maxPowerKw":11,"isMegawatt":false,"status":"AVAILABLE","source":"ndw"}},{"type":"Feature","geometry":{"type":"Point","coordinates":[5.212612,51.88272]},"properties":{"type":"charge","layer":"passenger","locationId":"69403d5bc310a8f4b864355f","name":"Chapeau Kinderwerk","address":"netstraat 1","city":"Enspijk","operatorName":"E-Flux by Road","maxPowerKw":11,"isMegawatt":false,"status":"AVAILABLE","source":"ndw","priceKwh":0.78}},{"type":"Feature","geometry":{"type":"Point","coordinates":[5.296903,51.878759]},"properties":{"type":"charge","layer":"passenger","locationId":"NLLOC017329","name":"NL, Van Hogendorpstraat 41, 4191 HE Geldermalsen","address":"Van Hogendorpstraat 41","city":"Geldermalsen","operatorName":"Allego","maxPowerKw":0,"isMegawatt":false,"status":"AVAILABLE","source":"ndw","priceKwh":0.3488}},{"type":"Feature","geometry":{"type":"Point","coordinates":[5.290214,51.868643]},"properties":{"type":"charge","layer":"passenger","locationId":"6adbc6a5-889a-4f01-8be5-664d0b94405b","name":"Bentinckshof","address":"Bentinckshof 22","city":"Meteren","operatorName":"Vattenfall InCharge","maxPowerKw":11,"isMegawatt":false,"status":"AVAILABLE","source":"ndw"}},{"type":"Feature","geometry":{"type":"Point","coordinates":[5.369437,51.823577]},"properties":{"type":"charge","layer":"passenger","locationId":"961338d7e2e7a62433ce57ad5ac81698","name":"Dominee Hulstijnstraat 7","address":"Dominee Hulstijnstraat 7","city":"Varik","operatorName":"Vattenfall InCharge","maxPowerKw":11,"isMegawatt":false,"status":"AVAILABLE","source":"ndw"}},{"type":"Feature","geometry":{"type":"Point","coordinates":[5.296989,51.881942]},"properties":{"type":"charge","layer":"passenger","locationId":"8e2375da1dc2b23ba29253b048d2b582","name":"Oranje Nassaustraat 60","address":"Oranje Nassaustraat 60","city":"Geldermalsen","operatorName":"Vattenfall InCharge","maxPowerKw":11,"isMegawatt":false,"status":"AVAILABLE","source":"ndw"}},{"type":"Feature","geometry":{"type":"Point","coordinates":[5.116956,51.883584]},"properties":{"type":"charge","layer":"passenger","locationId":"d12ad323260c3fd750aded58bb024820","name":"Molenwal 30","address":"Molenwal 30","city":"Asperen","operatorName":"Vattenfall InCharge","maxPowerKw":11,"isMegawatt":false,"status":"AVAILABLE","source":"ndw"}},{"type":"Feature","geometry":{"type":"Point","coordinates":[5.273744,51.884305]},