{"type":"FeatureCollection","metadata":{"gemeente":"Westerkwartier","slug":"westerkwartier","code":"GM1969","generated_at":"2026-06-07T19:22:09.578Z","total_passenger":294,"total_freight":1,"bounds":[6.175234569970484,53.087151195753805,6.5114435457371265,53.341026588484425],"operators":["Allego","Alva Charging Services","DAEN Mobility","E-Flux by Road","EQUANS","Eneco","Fastned","IONITY","Laadnet","Pluq"]},"features":[{"type":"Feature","geometry":{"type":"Point","coordinates":[6.27314,53.211959]},"properties":{"type":"charge","layer":"passenger","locationId":"91145461","name":"Equans Groningen Drenthe Appelhof 1","address":"Appelhof 1","city":"Grootegast","operatorName":"EQUANS","maxPowerKw":0,"isMegawatt":false,"status":"AVAILABLE","source":"ndw"}},{"type":"Feature","geometry":{"type":"Point","coordinates":[6.25255,53.11539]},"properties":{"type":"charge","layer":"passenger","locationId":"91211527","name":"Equans Groningen Drenthe Oudemolenweg 1a","address":"Oudemolenweg 1 a","city":"De Wilp","operatorName":"EQUANS","maxPowerKw":0,"isMegawatt":false,"status":"AVAILABLE","source":"ndw"}},{"type":"Feature","geometry":{"type":"Point","coordinates":[6.340375,53.218876]},"properties":{"type":"charge","layer":"passenger","locationId":"683de5b009ff5f7196f923e7","name":"Willem Vogelzang 's station","address":"Molenstraat  3","city":"Oldekerk","operatorName":"E-Flux by Road","maxPowerKw":11,"isMegawatt":false,"status":"AVAILABLE","source":"ndw","priceKwh":0.45}},{"type":"Feature","geometry":{"type":"Point","coordinates":[6.298725,53.128552]},"properties":{"type":"charge","layer":"passenger","locationId":"NLLOC013431","name":"NL, Jonkersvaart 49, 9366 TA Jonkersvaart","address":"Jonkersvaart 49","city":"Jonkersvaart","operatorName":"Allego","maxPowerKw":0,"isMegawatt":false,"status":"AVAILABLE","source":"ndw","priceKwh":0.374}},{"type":"Feature","geometry":{"type":"Point","coordinates":[6.368963,53.145075]},"properties":{"type":"charge","layer":"passenger","locationId":"91145214","name":"Equans Groningen Drenthe Populier 16","address":"Populier 16","city":"Leek","operatorName":"EQUANS","maxPowerKw":0,"isMegawatt":false,"status":"AVAILABLE","source":"ndw"}},{"type":"Feature","geometry":{"type":"Point","coordinates":[6.372071,53.16366]},"properties":{"type":"charge","layer":"passenger","locationId":"NLLOC026954","name":"NL, De Grouw 85, 9351 LN Leek","address":"De Grouw 85","city":"Leek","operatorName":"Allego","maxPowerKw":0,"isMegawatt":false,"status":"AVAILABLE","source":"ndw","priceKwh":0.374}},{"type":"Feature","geometry":{"type":"Point","coordinates":[6.361358,53.163596]},"properties":{"type":"charge","layer":"passenger","locationId":"NLLOC022106","name":"NL, Oude Hof 18, 9356 GA Tolbert","address":"Oude Hof 18","city":"Tolbert","operatorName":"Allego","maxPowerKw":0,"isMegawatt":false,"status":"AVAILABLE","source":"ndw","priceKwh":0.374}},{"type":"Feature","geometry":{"type":"Point","coordinates":[6.39099,53.16419]},"properties":{"type":"charge","layer":"passenger","locationId":"91145012","name":"Equans Groningen Drenthe Tolberterstraat 40A","address":"Tolberterstraat 40A","city":"Leek","operatorName":"EQUANS","maxPowerKw":0,"isMegawatt":false,"status":"AVAILABLE","source":"ndw"}},{"type":"Feature","geometry":{"type":"Point","coordinates":[6.376015,53.164477]},"properties":{"type":"charge","layer":"passenger","locationId":"7a4eb80e-fc35-11ec-badb-42010aa4001d","name":"Eneco eMobility Industriepark 17-19 Leek","address":"Industriepark 17-19","city":"Leek","operatorName":"Eneco","maxPowerKw":11,"isMegawatt":false,"status":"AVAILABLE","source":"ndw","priceKwh":0.71}},{"type":"Feature","geometry":{"type":"Point","coordinates":[6.256286,53.139824]},"properties":{"type":"charge","layer":"passenger","locationId":"4421591","name":"Laadnet De koppel paarden 2","address":"De Koppel paarden 2","city":"Marum","operatorName":"Laadnet","maxPowerKw":22,"isMegawatt":false,"status":"CHARGING","source":"ndw"}},{"type":"Feature","geometry":{"type":"Point","coordinates":[6.32354,53.286288]},"properties":{"type":"charge","layer":"passenger","locationId":"4dc2be1c-2ac6-11eb-aa74-42010a840003","name":"NL, Dorpsstraat 25, 9881 PA Kommerzijl","address":"Dorpsstraat 25","city":"Kommerzijl","operatorName":"Allego","maxPowerKw":0,"isMegawatt":false,"status":"AVAILABLE","source":"ndw"}},{"type":"Feature","geometry":{"type":"Point","coordinates":[6.248428,53.200133]},"properties":{"type":"charge","layer":"passenger","locationId":"6c0df042-0805-11ea-8398-42010a840003","name":"NLD, Doezum, Kerkplein 13","address":"Kerkplein 13","city":"Doezum","operatorName":"Allego","maxPowerKw":0,"isMegawatt":false,"status":"AVAILABLE","source":"ndw"}},{"type":"Feature","geometry":{"type":"Point","coordinates":[6.345627,53.116641]},"properties":{"type":"charge","layer":"passenger","locationId":"1720608","name":"Laadnet Hummel","address":"Oudestreek 24","city":"Zevenhuizen","operatorName":"Laadnet","maxPowerKw":22,"isMegawatt":false,"status":"UNAVAILABLE","source":"ndw"}},{"type":"Feature","geometry":{"type":"Point","coordinates":[6.428106,53.272981]},"properties":{"type":"charge","layer":"passenger","locationId":"NLLOC014721","name":"NL, Dominee Koppiusweg 2, 9833 PD Den Ham","address":"Dominee Koppiusweg 2","city":"Den Ham","operatorName":"Allego","maxPowerKw":0,"isMegawatt":false,"status":"AVAILABLE","source":"ndw","priceKwh":0.374}},{"type":"Feature","geometry":{"type":"Point","coordinates":[6.442405,53.309932]},"properties":{"type":"charge","layer":"passenger","locationId":"0562b912-0aeb-11ee-8138-42010aa40fc0","name":"NL, Schoorsterweg 2, 9891AR Ezinge","address":"Schoorsterweg 2","city":"Ezinge","operatorName":"Allego","maxPowerKw":0,"isMegawatt":false,"status":"AVAILABLE","source":"ndw"}},{"type":"Feature","geometry":{"type":"Point","coordinates":[6.368561,53.164743]},"properties":{"type":"charge","layer":"passenger","locationId":"76bda9c4-cf35-11ed-9095-42010aa40fc0","name":"NL, Wethouder Iwe Hutstraat 53, 9351 RB Leek","address":"Wethouder Iwe Hutstraat 53","city":"Leek","operatorName":"Allego","maxPowerKw":0,"isMegawatt":false,"status":"AVAILABLE","source":"ndw"}},{"type":"Feature","geometry":{"type":"Point","coordinates":[6.24342,53.181814]},"properties":{"type":"charge","layer":"passenger","locationId":"806c72a2-1134-11ee-bb46-42010aa40fc0","name":"NL, Kerkweide 33, 9864 PH Kornhorn","address":"Kerkweide 33","city":"Kornhorn","operatorName":"Allego","maxPowerKw":0,"isMegawatt":false,"status":"AVAILABLE","source":"ndw"}},{"type":"Feature","geometry":{"type":"Point","coordinates":[6.311641,53.167391]},"properties":{"type":"charge","layer":"passenger","locationId":"50680","name":"Fastned Oude Riet","address":"Rijksweg A7","city":"Niebert","operatorName":"Fastned","maxPowerKw":300,"isMegawatt":false,"status":"AVAILABLE","source":"ndw","priceKwh":0.6364}},{"type":"Feature","geometry":{"type":"Point","coordinates":[6.457414,53.258361]},"properties":{"type":"charge","layer":"passenger","locationId":"633a991a8e4941ff6c9d195e","name":"Onder de Linden","address":"Burgermeester van Barneveldweg 3","city":"Aduard","operatorName":"E-Flux by Road","maxPowerKw":11,"isMegawatt":false,"status":"AVAILABLE","source":"ndw","priceKwh":0.78}},{"type":"Feature","geometry":{"type":"Point","coordinates":[6.257447,53.143516]},"properties":{"type":"charge","layer":"passenger","locationId":"91145306","name":"Equans Groningen Drenthe Kamperfoelielaan 1","address":"Kamperfoelielaan 1","city":"Marum","operatorName":"EQUANS","maxPowerKw":0,"isMegawatt":false,"status":"AVAILABLE","source":"ndw"}},{"type":"Feature","geometry":{"type":"Point","coordinates":[6.27365,53.150591]},"properties":{"type":"charge","layer":"passenger","locationId":"663105828da2bc001c2fce6e","name":"Retailfit","address":"De Bres 2a","city":"Marum","operatorName":"E-Flux by Road","maxPowerKw":10,"isMegawatt":false,"status":"AVAILABLE","source":"ndw","priceKwh":0.48}},{"type":"Feature","geometry":{"type":"Point","coordinates":[6.315308,53.261964]},"properties":{"type":"charge","layer":"passenger","locationId":"91145348","name":"Equans Groningen Drenthe De Vereeniging 23","address":"De Vereeniging 23","city":"Grijpskerk","operatorName":"EQUANS","maxPowerKw":0,"isMegawatt":false,"status":"AVAILABLE","source":"ndw"}},{"type":"Feature","geometry":{"type":"Point","coordinates":[6.256104,53.16966]},"properties":{"type":"charge","layer":"passenger","locationId":"NLLOC014273","name":"NL, Westerweg 12, 9824 PH, Noordwijk","address":"Westerweg 12","city":"Noordwijk","operatorName":"Allego","maxPowerKw":0,"isMegawatt":false,"status":"AVAILABLE","source":"ndw","priceKwh":0.374}},{"type":"Feature","geometry":{"type":"Point","coordinates":[6.271178,53.15233]},"properties":{"type":"charge","layer":"passenger","locationId":"6a0c5afb125382665c0e3ad8","name":"A7 afrit Marum","address":"Noorderringweg 2","city":"Marum","operatorName":"E-Flux by Road","maxPowerKw":17,"isMegawatt":false,"status":"UNAVAILABLE","source":"ndw","priceKwh":0.4}},{"type":"Feature","geometry":{"type":"Point","coordinates":[6.397506,53.303022]},"properties":{"type":"charge","layer":"passenger","locationId":"609f76a0-afd2-11ec-944e-42010a840003","name":"NL, De Omloop 10, 9883 PW Oldehove","address":"De Omloop 10","city":"Oldehove","operatorName":"Allego","maxPowerKw":0,"isMegawatt":false,"status":"AVAILABLE","source":"ndw"}},{"type":"Feature","geometry":{"type":"Point","coordinates":[6.276629,53.213522]},"properties":{"type":"charge","layer":"passenger","locationId":"6b015ee0-162a-11ea-93e2-42010a840003","name":"NLD, Grootegast, Hoofdstraat 109","address":"Hoofdstraat 109","city":"Grootegast","operatorName":"Allego","maxPowerKw":0,"isMegawatt":false,"status":"AVAILABLE","source":"ndw"}},{"type":"Feature","geometry":{"type":"Point","coordinates":[6.428106,53.272981]},"properties":{"type":"charge","layer":"passenger","locationId":"98d77052-275f-11ef-ba9f-42010aa400b8","name":"NL, Dominee Koppiusweg 2, 9833 PD Den Ham","address":"Dominee Koppiusweg 2","city":"Den Ham","operatorName":"Allego","maxPowerKw":0,"isMegawatt":false,"status":"AVAILABLE","source":"ndw"}},{"type":"Feature","geometry":{"type":"Point","coordinates":[6.293619,53.161609]},"properties":{"type":"charge","layer":"passenger","locationId":"31108","name":"Fastned Mienscheer","address":"Mienscheer A7","city":"Nuis","operatorName":"Fastned","maxPowerKw":300,"isMegawatt":false,"status":"AVAILABLE","source":"ndw","priceKwh":0.6364}},{"type":"Feature","geometry":{"type":"Point","coordinates":[6.374532,53.145277]},"properties":{"type":"charge","layer":"passenger","locationId":"NLLOC011808","name":"NL, de Knip 2, 9351XZ, Leek","address":"De Knip 2","city":"Leek","operatorName":"Allego","maxPowerKw":0,"isMegawatt":false,"status":"AVAILABLE","source":"ndw","priceKwh":0.374}},{"type":"Feature","geometry":{"type":"Point","coordinates":[6.293619,53.161609]},"properties":{"type":"charge","layer":"passenger","locationId":"a5f9da6a-4d93-11e8-85fa-42010a840002","name":"Fastned Mienscheer","address":"Mienscheer A7","city":"Nuis","operatorName":"Fastned","maxPowerKw":300,"isMegawatt":false,"status":"CHARGING","source":"ndw"}},{"type":"Feature","geometry":{"type":"Point","coordinates":[6.361832,53.158124]},"properties":{"type":"charge","layer":"passenger","locationId":"NLLOC024079","name":"NL, Veenderij 48, 9356 DH Tolbert","address":"Veenderij 48","city":"Tolbert","operatorName":"Allego","maxPowerKw":0,"isMegawatt":false,"status":"AVAILABLE","source":"ndw","priceKwh":0.374}},{"type":"Feature","geometry":{"type":"Point","coordinates":[6.361716,53.159723]},"properties":{"type":"charge","layer":"passenger","locationId":"91145528","name":"Equans Groningen Drenthe De Hooizolder 35","address":"De Hooizolder 35","city":"Tolbert","operatorName":"EQUANS","maxPowerKw":0,"isMegawatt":false,"status":"AVAILABLE","source":"ndw"}},{"type":"Feature","geometry":{"type":"Point","coordinates":[6.382181,53.166564]},"properties":{"type":"charge","layer":"passenger","locationId":"4281594","name":"Laadnet Hunnersen","address":"Tolberterstraat 97","city":"Leek","operatorName":"Laadnet","maxPowerKw":11,"isMegawatt":false,"status":"AVAILABLE","source":"ndw"}},{"type":"Feature","geometry":{"type":"Point","coordinates":[6.398826,53.248396]},"properties":{"type":"charge","layer":"passenger","locationId":"91145265","name":"Equans Groningen Drenthe Thorbeckestraat 7","address":"Thorbeckestraat 7","city":"Zuidhorn","operatorName":"EQUANS","maxPowerKw":0,"isMegawatt":false,"status":"AVAILABLE","source":"ndw"}},{"type":"Feature","geometry":{"type":"Point","coordinates":[6.284003,53.213887]},"properties":{"type":"charge","layer":"passenger","locationId":"2249981","name":"Laadnet Hazenberg Dier & Tuin","address":"Rondweg 5","city":"Grootegast","operatorName":"Laadnet","maxPowerKw":22,"isMegawatt":false,"status":"UNAVAILABLE","source":"ndw"}},{"type":"Feature","geometry":{"type":"Point","coordinates":[6.36565,53.169314]},"properties":{"type":"charge","layer":"passenger","locationId":"874fa430-a7ea-11ed-bb49-42010aa40fc0","name":"NL, Wissingehof 25, 9351 RR Leek","address":"Wissingehof 25","city":"Leek","operatorName":"Allego","maxPowerKw":0,"isMegawatt":false,"status":"AVAILABLE","source":"ndw"}},{"type":"Feature","geometry":{"type":"Point","coordinates":[6.379995,53.184825]},"properties":{"type":"charge","layer":"passenger","locationId":"9fd1e16c-a1a0-11ed-a920-42010aa40fc0","name":"P+R Carpool Midwolde Leek A7, Rijksweg A7, Netherlands","address":"Rijksweg A7","city":"Midwolde","operatorName":"Allego","maxPowerKw":0,"isMegawatt":false,"status":"AVAILABLE","source":"ndw"}},{"type":"Feature","geometry":{"type":"Point","coordinates":[6.410238,53.248394]},"properties":{"type":"charge","layer":"passenger","locationId":"ab4860f2-1e35-11eb-8a06-42010a840003","name":"NL, Cursastraat 1, 9801VD Zuidhorn","address":"Cursastraat 1","city":"Zuidhorn","operatorName":"Allego","maxPowerKw":0,"isMegawatt":false,"status":"CHARGING","source":"ndw"}},{"type":"Feature","geometry":{"type":"Point","coordinates":[6.460432,53.254136]},"properties":{"type":"charge","layer":"passenger","locationId":"e3ff2e34-1e05-11ea-8f26-42010a840003","name":"NLD, Aduard, Burgemeester Seinenstraat 4","address":"Burgemeester Seinenstraat 4","city":"Aduard","operatorName":"Allego","maxPowerKw":0,"isMegawatt":false,"status":"UNAVAILABLE","source":"ndw"}},{"type":"Feature","geometry":{"type":"Point","coordinates":[6.273657,53.145071]},"properties":{"type":"charge","layer":"passenger","locationId":"ffecc27c-b156-11ed-8aba-42010aa40fc0","name":"NL, Buurlandt 17, 9363 AW Marum","address":"Buurlandt 17","city":"Marum","operatorName":"Allego","maxPowerKw":0,"isMegawatt":false,"status":"AVAILABLE","source":"ndw"}},{"type":"Feature","geometry":{"type":"Point","coordinates":[6.411342,53.19064]},"properties":{"type":"charge","layer":"passenger","locationId":"NLLOC016339","name":"NL, Hoofdstraat 180, 9827 PC Lettelbert","address":"Hoofdstraat 180","city":"Lettelberg","operatorName":"Allego","maxPowerKw":0,"isMegawatt":false,"status":"AVAILABLE","source":"ndw","priceKwh":0.374}},{"type":"Feature","geometry":{"type":"Point","coordinates":[6.411342,53.19064]},"properties":{"type":"charge","layer":"passenger","locationId":"620c52f0-a16f-11eb-a8b3-42010a840003","name":"NL, Hoofdstraat 180, 9827 PC Lettelbert","address":"Hoofdstraat 180","city":"Lettelberg","operatorName":"Allego","maxPowerKw":0,"isMegawatt":false,"status":"AVAILABLE","source":"ndw"}},{"type":"Feature","geometry":{"type":"Point","coordinates":[6.409278,53.252005]},"properties":{"type":"charge","layer":"passenger","locationId":"4d243c92-9993-11eb-9fc6-42010a840003","name":"NL, Anserstraat 11, 9801 WN Zuidhorn","address":"Anserstraat 11","city":"Zuidhorn","operatorName":"Allego","maxPowerKw":0,"isMegawatt":false,"status":"CHARGING","source":"ndw"}},{"type":"Feature","geometry":{"type":"Point","coordinates":[6.457264,53.255646]},"properties":{"type":"charge","layer":"passenger","locationId":"bab3bf88-1753-11ec-aac9-42010a840003","name":"NL, Snikweg 48, 9831PR, Aduard","address":"Snikweg 48","city":"Aduard","operatorName":"Allego","maxPowerKw":0,"isMegawatt":false,"status":"AVAILABLE","source":"ndw"}},{"type":"Feature","geometry":{"type":"Point","coordinates":[6.338723,53.266861]},"properties":{"type":"charge","layer":"passenger","locationId":"61cd06dc-40fb-11ec-8a7b-42010a840003","name":"NL, Hoofdstraat 92, 9842 PJ Niezijl","address":"Hoofdstraat 92","city":"Niezijl","operatorName":"Allego","maxPowerKw":0,"isMegawatt":false,"status":"AVAILABLE","source":"ndw"}},{"type":"Feature","geometry":{"type":"Point","coordinates":[6.396912,53.304559]},"properties":{"type":"charge","layer":"passenger","locationId":"5256e130-4163-11ea-9df3-42010a840003","name":"NL, Englumstraat 10, 9883PE, Oldehove","address":"Englumstraat 10","city":"Oldehove","operatorName":"Allego","maxPowerKw":0,"isMegawatt":false,"status":"AVAILABLE","source":"ndw"}},{"type":"Feature","geometry":{"type":"Point","coordinates":[6.198937,53.172739]},"properties":{"type":"charge","layer":"passenger","locationId":"91145264","name":"Equans Groningen Drenthe Drachtsterweg 9a","address":"Drachtsterweg 9a","city":"Opende","operatorName":"EQUANS","maxPowerKw":0,"isMegawatt":false,"status":"AVAILABLE","source":"ndw"}},{"type":"Feature","geometry":{"type":"Point","coordinates":[6.306883,53.264531]},"properties":{"type":"charge","layer":"passenger","locationId":"720358","name":"Laadnet Koninklijke Oosterhof Holman","address":"Kievitsweg 13","city":"Grijpskerk","operatorName":"Laadnet","maxPowerKw":22,"isMegawatt":false,"status":"AVAILABLE","source":"ndw"}},{"type":"Feature","geometry":{"type":"Point","coordinates":[6.30355,53.266516]},"properties":{"type":"charge","layer":"passenger","locationId":"3966652","name":"Laadnet Concordia Grijpskerk","address":"De Riet 7","city":"Grijpskerk","operatorName":"Laadnet","maxPowerKw":22,"isMegawatt":false,"status":"AVAILABLE","source":"ndw"}},{"type":"Feature","geometry":{"type":"Point","coordinates":[6.19891,53.176313]},"properties":{"type":"charge","layer":"passenger","locationId":"91145543","name":"Equans Groningen Drenthe Verbindingsweg 5","address":"Verbindingsweg 5","city":"Opende","operatorName":"EQUANS","maxPowerKw":0,"isMegawatt":false,"status":"AVAILABLE","source":"ndw"}},{"type":"Feature","geometry":{"type":"Point","coordinates":[6.311641,53.167391]},"properties":{"type":"charge","layer":"passenger","locationId":"89422910-a152-11ec-a506-42010a840fc2","name":"Fastned Oude Riet","address":"Rijksweg A7","city":"Niebert","operatorName":"Fastned","maxPowerKw":300,"isMegawatt":false,"status":"AVAILABLE","source":"ndw"}},{"type":"Feature","geometry":{"type":"Point","coordinates":[6.331511,53.172542]},"properties":{"type":"charge","layer":"passenger","locationId":"4227378","name":"Laadnet Niebert","address":"Grasweg 1b","city":"Niebert","operatorName":"Laadnet","maxPowerKw":11,"isMegawatt":false,"status":"CHARGING","source":"ndw"}},{"type":"Feature","geometry":{"type":"Point","coordinates":[6.296644,53.311269]},"properties":{"type":"charge","layer":"passenger","locationId":"NLLOC013430","name":"NL, Stadsweg 29, 9885 PA Lauwerzijl","address":"Stadsweg 29","city":"Lauwerzijl","operatorName":"Allego","maxPowerKw":0,"isMegawatt":false,"status":"AVAILABLE","source":"ndw","priceKwh":0.374}},{"type":"Feature","geometry":{"type":"Point","coordinates":[6.37557,53.16018]},"properties":{"type":"charge","layer":"passenger","locationId":"232cfcd4-38bf-11ef-b006-42010aa400b8","name":"Equans Groningen Drenthe Oranjerie 45","address":"Oranjerie 45","city":"Leek","operatorName":"EQUANS","maxPowerKw":0,"isMegawatt":false,"status":"AVAILABLE","source":"ndw","priceKwh":0.35}},{"type":"Feature","geometry":{"type":"Point","coordinates":[6.41407,53.248929]},"properties":{"type":"charge","layer":"passenger","locationId":"eb7d6db8-89e0-11f0-8635-42010aa400b8","name":"Equans Groningen Drenthe Kumastraat 17","address":"Kumastraat 17","city":"Zuidhorn","operatorName":"EQUANS","maxPowerKw":0,"isMegawatt":false,"status":"AVAILABLE","source":"ndw","priceKwh":0.35}},{"type":"Feature","geometry":{"type":"Point","coordinates":[6.44685,53.31039]},"properties":{"type":"charge","layer":"passenger","locationId":"4462dd5a-dd57-11ef-9e43-42010aa400b8","name":"Equans Groningen Drenthe Van Giffenstraat 50","address":"Van Giffenstraat 50","city":"Ezinge","operatorName":"EQUANS","maxPowerKw":0,"isMegawatt":false,"status":"AVAILABLE","source":"ndw","priceKwh":0.35}},{"type":"Feature","geometry":{"type":"Point","coordinates":[6.469126,53.317584]},"properties":{"type":"charge","layer":"passenger","locationId":"507f521e-7247-11eb-93f1-42010a840033","name":"NL, Zijlsterweg 7, 9892 TE Feerwerd","address":"Zijlsterweg 7","city":"Feerwerd","operatorName":"Allego","maxPowerKw":0,"isMegawatt":false,"status":"AVAILABLE","source":"ndw"}},{"type":"Feature","geometry":{"type":"Point","coordinates":[6.400869,53.247027]},"properties":{"type":"charge","layer":"passenger","locationId":"7fc7920a-f357-11ed-9b0a-42010aa40fc0","name":"NL, Het Steenhuis 2, 9801HT Zuidhorn","address":"Het Steenhuis 2","city":"Zuidhorn","operatorName":"Allego","maxPowerKw":0,"isMegawatt":false,"status":"AVAILABLE","source":"ndw"}},{"type":"Feature","geometry":{"type":"Point","coordinates":[6.374581,53.156304]},"properties":{"type":"charge","layer":"passenger","locationId":"8996b550-ad6a-11ed-97b0-42010aa40fc0","name":"NL, Borgstee 19, 9351 SV Leek","address":"Borgstee 19","city":"Leek","operatorName":"Allego","maxPowerKw":0,"isMegawatt":false,"status":"AVAILABLE","source":"ndw"}},{"type":"Feature","geometry":{"type":"Point","coordinates":[6.269975,53.28097]},"properties":{"type":"charge","layer":"passenger","locationId":"cba49bc2-ca4c-11eb-984b-42010a840003","name":"NL, Schoolstraat 4, 9844 PE Pieterzijl","address":"Schoolstraat 4","city":"Pieterzijl","operatorName":"Allego","maxPowerKw":0,"isMegawatt":false,"status":"AVAILABLE","source":"ndw"}},{"type":"Feature","geometry":{"type":"Point","coordinates":[6.28327,53.215406]},"properties":{"type":"charge","layer":"passenger","locationId":"4748881","name":"Laadnet stichting Quadraten","address":"Hoofdstraat 44","city":"Grootegast","operatorName":"Laadnet","maxPowerKw":22,"isMegawatt":false,"status":"AVAILABLE","source":"ndw"}},{"type":"Feature","geometry":{"type":"Point","coordinates":[6.376015,53.164477]},"properties":{"type":"charge","layer":"passenger","locationId":"0C429875-51B2-4414-B2EB-2DC4498F2EBF","name":"Eneco eMobility Industriepark 17-19 Leek","address":"Industriepark 17-19","city":"Leek","operatorName":"Eneco","maxPowerKw":11,"isMegawatt":false,"status":"AVAILABLE","source":"ndw","priceKwh":0.55}},{"type":"Feature","geometry":{"type":"Point","coordinates":[6.377514,53.159265]},"properties":{"type":"charge","layer":"passenger","locationId":"0812a0a4-abd8-11ed-b6f7-42010aa40fc0","name":"NL, Nijenoertweg 91, 9351 HP Leek","address":"Nijenoertweg 91","city":"Leek","operatorName":"Allego","maxPowerKw":0,"isMegawatt":false,"status":"AVAILABLE","source":"ndw"}},{"type":"Feature","geometry":{"type":"Point","coordinates":[6.34488,53.221535]},"properties":{"type":"charge","layer":"passenger","locationId":"36e49774-cf03-11eb-af24-42010a840003","name":"NL, Eekebuursterweg 1, 9821 PA Oldekerk","address":"Eekebuursterweg 1","city":"Oldekerk","operatorName":"Allego","maxPowerKw":0,"isMegawatt":false,"status":"AVAILABLE","source":"ndw"}},{"type":"Feature","geometry":{"type":"Point","coordinates":[6.261551,53.142586]},"properties":{"type":"charge","layer":"passenger","locationId":"3cdfb636-b2eb-11ed-ab46-42010aa40fc0","name":"NL, Willem Dreeslaan 13, 9363 EL Marum","address":"Willem Dreeslaan 13","city":"Marum","operatorName":"Allego","maxPowerKw":0,"isMegawatt":false,"status":"AVAILABLE","source":"ndw"}},{"type":"Feature","geometry":{"type":"Point","coordinates":[6.396154,53.241667]},"properties":{"type":"charge","layer":"passenger","locationId":"488d9a94-d5b2-11e9-bcdc-42010a840003","name":"NLD, Zuidhorn, Valeriaan 2","address":"Valeriaan 2","city":"Zuidhorn","operatorName":"Allego","maxPowerKw":0,"isMegawatt":false,"status":"AVAILABLE","source":"ndw"}},{"type":"Feature","geometry":{"type":"Point","coordinates":[6.406554,53.215428]},"properties":{"type":"charge","layer":"passenger","locationId":"d2a068ea-65b4-11eb-b112-42010a840003","name":"NL, Dorpsstraat 33, 9811 PA Enumatil","address":"Dorpsstraat 33","city":"Enumatil","operatorName":"Allego","maxPowerKw":0,"isMegawatt":false,"status":"AVAILABLE","source":"ndw"}},{"type":"Feature","geometry":{"type":"Point","coordinates":[6.296644,53.311269]},"properties":{"type":"charge","layer":"passenger","locationId":"559139ee-3439-11eb-a04d-42010a840003","name":"NL, Stadsweg 29, 9885 PA Lauwerzijl","address":"Stadsweg 29","city":"Lauwerzijl","operatorName":"Allego","maxPowerKw":0,"isMegawatt":false,"status":"AVAILABLE","source":"ndw"}},{"type":"Feature","geometry":{"type":"Point","coordinates":[6.361832,53.158124]},"properties":{"type":"charge","layer":"passenger","locationId":"67de9b98-dee9-11ed-8daf-42010aa40fc0","name":"NL, Veenderij 48, 9356 DH Tolbert","address":"Veenderij 48","city":"Tolbert","operatorName":"Allego","maxPowerKw":0,"isMegawatt":false,"status":"AVAILABLE","source":"ndw"}},{"type":"Feature","geometry":{"type":"Point","coordinates":[6.395062,53.265952]},"properties":{"type":"charge","layer":"passenger","locationId":"d46793e4-3f07-11ea-8dc6-42010a840003","name":"NL, Noorderweg 61C, 9804RL, Noordhorn","address":"Noorderweg 61C","city":"Noordhorn","operatorName":"Allego","maxPowerKw":0,"isMegawatt":false,"status":"AVAILABLE","source":"ndw"}},{"type":"Feature","geometry":{"type":"Point","coordinates":[6.360459,53.171958]},"properties":{"type":"charge","layer":"passenger","locationId":"e755e894-6a6b-11eb-8c0f-42010a840003","name":"NL, Het Spoor 8, 9356BW, Tolbert","address":"Het Spoor 8","city":"Tolbert","operatorName":"Allego","maxPowerKw":0,"isMegawatt":false,"status":"AVAILABLE","source":"ndw"}},{"type":"Feature","geometry":{"type":"Point","coordinates":[6.198937,53.172739]},"properties":{"type":"charge","layer":"passenger","locationId":"01bc0396-f94a-11ef-a1d9-42010aa400b8","name":"Equans Groningen Drenthe Drachtsterweg 9a","address":"Drachtsterweg 9a","city":"Opende","operatorName":"EQUANS","maxPowerKw":0,"isMegawatt":false,"status":"AVAILABLE","source":"ndw","priceKwh":0.35}},{"type":"Feature","geometry":{"type":"Point","coordinates":[6.3912,53.30212]},"properties":{"type":"charge","layer":"passenger","locationId":"2ddde034-f851-11ee-8850-42010aa400b8","name":"Equans Groningen Drenthe Buitensingel 57","address":"Buitensingel 57","city":"Oldehove","operatorName":"EQUANS","maxPowerKw":0,"isMegawatt":false,"status":"AVAILABLE","source":"ndw","priceKwh":0.35}},{"type":"Feature","geometry":{"type":"Point","coordinates":[6.399432,53.241846]},"properties":{"type":"charge","layer":"passenger","locationId":"85b37538-f947-11ef-8021-42010aa400b8","name":"Equans Groningen Drenthe Evertsenstraat 17","address":"Evertsenstraat 17","city":"Zuidhorn","operatorName":"EQUANS","maxPowerKw":0,"isMegawatt":false,"status":"AVAILABLE","source":"ndw","priceKwh":0.35}},{"type":"Feature","geometry":{"type":"Point","coordinates":[6.444363,53.309448]},"properties":{"type":"charge","layer":"passenger","locationId":"dbe54e82-0e81-11f0-a326-42010aa400b8","name":"Equans Groningen Drenthe Terpstraat 2","address":"Terpstraat 2","city":"Ezinge","operatorName":"EQUANS","maxPowerKw":0,"isMegawatt":false,"status":"AVAILABLE","source":"ndw","priceKwh":0.35}},{"type":"Feature","geometry":{"type":"Point","coordinates":[6.396782,53.243851]},"properties":{"type":"charge","layer":"passenger","locationId":"23edf020-f133-11e9-a312-42010a840003","name":"NLD, Zuidhorn, Admiraal Helfrichstraat 9","address":"Admiraal Helfrichstraat 9","city":"Zuidhorn","operatorName":"Allego","maxPowerKw":0,"isMegawatt":false,"status":"AVAILABLE","source":"ndw"}},{"type":"Feature","geometry":{"type":"Point","coordinates":[6.259671,53.234588]},"properties":{"type":"charge","layer":"passenger","locationId":"a7e75d32-df82-11eb-ad1d-42010a840003","name":"NL, Kompasstraat 1-A, 9866 AP Lutjegast","address":"Kompasstraat 1-A","city":"Lutjegast","operatorName":"Allego","maxPowerKw":0,"isMegawatt":false,"status":"AVAILABLE","source":"ndw"}},{"type":"Feature","geometry":{"type":"Point","coordinates":[6.309585,53.220197]},"properties":{"type":"charge","layer":"passenger","locationId":"b8b4db78-d54e-11eb-893c-42010a840003","name":"NL, Kerkweg 1, 9862 TH Sebaldeburen","address":"Kerkweg 1","city":"Sebaldeburen","operatorName":"Allego","maxPowerKw":0,"isMegawatt":false,"status":"AVAILABLE","source":"ndw"}},{"type":"Feature","geometry":{"type":"Point","coordinates":[6.40852,53.247989]},"properties":{"type":"charge","layer":"passenger","locationId":"c3f43120-dbed-11ee-9c6d-42010aa400b8","name":"NLD, Zuidhorn, Hooiweg 9","address":"Hooiweg 9","city":"Zuidhorn","operatorName":"Allego","maxPowerKw":0,"isMegawatt":false,"status":"AVAILABLE","source":"ndw"}},{"type":"Feature","geometry":{"type":"Point","coordinates":[6.362841,53.167626]},"properties":{"type":"charge","layer":"passenger","locationId":"c59c8f1c-b6d8-11ed-abd8-42010aa40fc0","name":"NL, Hofstede 44, 9356BP, Tolbert","address":"Hofstede 44","city":"Tolbert","operatorName":"Allego","maxPowerKw":0,"isMegawatt":false,"status":"AVAILABLE","source":"ndw"}},{"type":"Feature","geometry":{"type":"Point","coordinates":[6.36565,53.169314]},"properties":{"type":"charge","layer":"passenger","locationId":"NLLOC026020","name":"NL, Wissingehof 25, 9351 RR Leek","address":"Wissingehof 25","city":"Leek","operatorName":"Allego","maxPowerKw":0,"isMegawatt":false,"status":"AVAILABLE","source":"ndw","priceKwh":0.374}},{"type":"Feature","geometry":{"type":"Point","coordinates":[6.334212,53.166411]},"properties":{"type":"charge","layer":"passenger","locationId":"4175090","name":"Laadnet Art Revisited","address":"De Holm 34","city":"Tolbert","operatorName":"Laadnet","maxPowerKw":22,"isMegawatt":false,"status":"AVAILABLE","source":"ndw"}},{"type":"Feature","geometry":{"type":"Point","coordinates":[6.372071,53.16366]},"properties":{"type":"charge","layer":"passenger","locationId":"9d06642c-a721-11ed-ba8e-42010aa40fc0","name":"NL, De Grouw 85, 9351 LN Leek","address":"De Grouw 85","city":"Leek","operatorName":"Allego","maxPowerKw":0,"isMegawatt":false,"status":"AVAILABLE","source":"ndw"}},{"type":"Feature","geometry":{"type":"Point","coordinates":[6.465202,53.305567]},"properties":{"type":"charge","layer":"passenger","locationId":"b629ac22-578f-11eb-be7a-42010a840003","name":"NL, Mentaweg 1, 9892 TA Feerwerd","address":"Mentaweg 1","city":"Feerwerd","operatorName":"Allego","maxPowerKw":0,"isMegawatt":false,"status":"AVAILABLE","source":"ndw"}},{"type":"Feature","geometry":{"type":"Point","coordinates":[6.253912,53.11668]},"properties":{"type":"charge","layer":"passenger","locationId":"1d69369a-1561-11ea-b95e-42010a840003","name":"NLD, De Wilp, Schoolstraat 19","address":"Schoolstraat 19","city":"De Wilp","operatorName":"Allego","maxPowerKw":0,"isMegawatt":false,"status":"AVAILABLE","source":"ndw"}},{"type":"Feature","geometry":{"type":"Point","coordinates":[6.392953,53.255584]},"properties":{"type":"charge","layer":"passenger","locationId":"2700107","name":"Laadnet VGPO Noorderbasis","address":"Industrieweg 22","city":"Noordhorn","operatorName":"Laadnet","maxPowerKw":22,"isMegawatt":false,"status":"AVAILABLE","source":"ndw"}},{"type":"Feature","geometry":{"type":"Point","coordinates":[6.198394,53.175003]},"properties":{"type":"charge","layer":"passenger","locationId":"654f2d84-d3ba-11eb-98b7-42010a840003","name":"NL, Verbindingsweg 4, 9865 TE Opende","address":"Verbindingsweg 4","city":"Opende","operatorName":"Allego","maxPowerKw":0,"isMegawatt":false,"status":"AVAILABLE","source":"ndw"}},{"type":"Feature","geometry":{"type":"Point","coordinates":[6.377867,53.150003]},"properties":{"type":"charge","layer":"passenger","locationId":"8d9bb35e-cda3-11ed-8cda-42010aa40fc0","name":"NL, Sleutelbloem 90, 9351 WM Leek","address":"Sleutelbloem 90","city":"Leek","operatorName":"Allego","maxPowerKw":0,"isMegawatt":false,"status":"AVAILABLE","source":"ndw"}},{"type":"Feature","geometry":{"type":"Point","coordinates":[6.379065,53.155597]},"properties":{"type":"charge","layer":"passenger","locationId":"b87c2e20-110a-11ec-8367-42010a840003","name":"NL, Hoge Borgh, 56, 9351TS, Leek","address":"Hoge Borgh 56","city":"Leek","operatorName":"Allego","maxPowerKw":0,"isMegawatt":false,"status":"AVAILABLE","source":"ndw"}},{"type":"Feature","geometry":{"type":"Point","coordinates":[6.276273,53.21395]},"properties":{"type":"charge","layer":"passenger","locationId":"56d9333c-0633-11ee-9276-42010aa40fc0","name":"NL, Abel Tasmanplein 1, 9861JB Grootegast","address":"Abel Tasmanplein 1","city":"Grootegast","operatorName":"Allego","maxPowerKw":0,"isMegawatt":false,"status":"AVAILABLE","source":"ndw"}},{"type":"Feature","geometry":{"type":"Point","coordinates":[6.353077,53.224193]},"properties":{"type":"charge","layer":"passenger","locationId":"a26cbec4-fb72-11e9-acf6-42010a840003","name":"NLD, Niekerk, Aldringastraat 13A","address":"Aldringastraat 13A","city":"Niekerk","operatorName":"Allego","maxPowerKw":0,"isMegawatt":false,"status":"AVAILABLE","source":"ndw"}},{"type":"Feature","geometry":{"type":"Point","coordinates":[6.36555,53.1572]},"properties":{"type":"charge","layer":"passenger","locationId":"9298c96c-f6c1-11ee-8964-42010aa400b8","name":"Equans Groningen Drenthe 't Kaarnhuus 38","address":"'t Kaarnhuus 38","city":"Tolbert","operatorName":"EQUANS","maxPowerKw":0,"isMegawatt":false,"status":"AVAILABLE","source":"ndw","priceKwh":0.35}},{"type":"Feature","geometry":{"type":"Point","coordinates":[6.39099,53.16419]},"properties":{"type":"charge","layer":"passenger","locationId":"43366e2e-f851-11ee-b381-42010aa400b8","name":"Equans Groningen Drenthe Tolberterstraat 40A","address":"Tolberterstraat 40A","city":"Leek","operatorName":"EQUANS","maxPowerKw":0,"isMegawatt":false,"status":"AVAILABLE","source":"ndw","priceKwh":0.35}},{"type":"Feature","geometry":{"type":"Point","coordinates":[6.395929,53.166255]},"properties":{"type":"charge","layer":"passenger","locationId":"7c246efc-a721-11ed-bde0-42010aa40fc0","name":"NL, Nienoord 20, 9351 AC Leek","address":"Nienoord 20","city":"Leek","operatorName":"Allego","maxPowerKw":0,"isMegawatt":false,"status":"AVAILABLE","source":"ndw"}},{"type":"Feature","geometry":{"type":"Point","coordinates":[6.365547,53.166043]},"properties":{"type":"charge","layer":"passenger","locationId":"804833d4-b839-11eb-984a-42010a840003","name":"NL, Beelen 2, 9356 CA, Tolbert","address":"Beelen 2","city":"Tolbert","operatorName":"Allego","maxPowerKw":0,"isMegawatt":false,"status":"AVAILABLE","source":"ndw"}},{"type":"Feature","geometry":{"type":"Point","coordinates":[6.277092,53.146056]},"properties":{"type":"charge","layer":"passenger","locationId":"943cb052-c33a-11eb-abf6-42010a840003","name":"NL, Swanenburg, 10, 9363KL, Marum","address":"Swanenburg 10","city":"Marum","operatorName":"Allego","maxPowerKw":0,"isMegawatt":false,"status":"AVAILABLE","source":"ndw"}},{"type":"Feature","geometry":{"type":"Point","coordinates":[6.33887,53.222969]},"properties":{"type":"charge","layer":"passenger","locationId":"29a4870c-31df-11f0-b141-42010aa400b8","name":"Equans Groningen Drenthe Oldekerkermeer 41","address":"Oldekerkermeer 41","city":"Leek","operatorName":"EQUANS","maxPowerKw":0,"isMegawatt":false,"status":"AVAILABLE","source":"ndw","priceKwh":0.35}},{"type":"Feature","geometry":{"type":"Point","coordinates":[6.3746,53.15626]},"properties":{"type":"charge","layer":"passenger","locationId":"8996b550-ad6a-11ed-97b0-42010aa40fc0","name":"Equans Groningen Drenthe Borgstee 19","address":"Borgstee 19","city":"Leek","operatorName":"EQUANS","maxPowerKw":0,"isMegawatt":false,"status":"AVAILABLE","source":"ndw","priceKwh":0.35}},{"type":"Feature","geometry":{"type":"Point","coordinates":[6.25255,53.11539]},"properties":{"type":"charge","layer":"passenger","locationId":"9d607788-b05f-11f0-8efe-42010aa400b8","name":"Equans Groningen Drenthe Oudemolenweg 1a","address":"Oudemolenweg 1 a","city":"De Wilp","operatorName":"EQUANS","maxPowerKw":0,"isMegawatt":false,"status":"AVAILABLE","source":"ndw","priceKwh":0.35}},{"type":"Feature","geometry":{"type":"Point","coordinates":[6.311671,53.262514]},"properties":{"type":"charge","layer":"passenger","locationId":"336b1fea-ddb5-11ea-9de4-42010a840003","name":"NL, Oosterkade 1, 9843 AG, Grijpskerk","address":"Oosterkade 1","city":"Grijpskerk","operatorName":"Allego","maxPowerKw":0,"isMegawatt":false,"status":"AVAILABLE","source":"ndw"}},{"type":"Feature","geometry":{"type":"Point","coordinates":[6.389802,53.162315]},"properties":{"type":"charge","layer":"passenger","locationId":"b723cc2a-bbea-11ea-b787-42010a840003","name":"NL, Samuel Leviestraat 7, 9351 BM, Leek","address":"Samuel Leviestraat 7","city":"Leek","operatorName":"Allego","maxPowerKw":0,"isMegawatt":false,"status":"AVAILABLE","source":"ndw"}},{"type":"Feature","geometry":{"type":"Point","coordinates":[6.26883,53.1445]},"properties":{"type":"charge","layer":"passenger","locationId":"4e6ffa98-a068-11ea-b375-42010a840003","name":"NL, De Wending 67, 9363AZ, Marum","address":"De Wending 67","city":"Marum","operatorName":"Allego","maxPowerKw":0,"isMegawatt":false,"status":"AVAILABLE","source":"ndw"}},{"type":"Feature","geometry":{"type":"Point","coordinates":[6.361358,53.163596]},"properties":{"type":"charge","layer":"passenger","locationId":"6ab5a45c-afd2-11ec-8c64-42010a840003","name":"NL, Oude Hof 18, 9356 GA Tolbert","address":"Oude Hof 18","city":"Tolbert","operatorName":"Allego","maxPowerKw":0,"isMegawatt":false,"status":"AVAILABLE","source":"ndw"}},{"type":"Feature","geometry":{"type":"Point","coordinates":[6.309825,53.256055]},"properties":{"type":"charge","layer":"passenger","locationId":"aced4800-1305-11ea-a017-42010a840003","name":"NLD, Grijpskerk, Stationsstraat 30","address":"Stationsstraat 30","city":"Grijpskerk","operatorName":"Allego","maxPowerKw":0,"isMegawatt":false,"status":"AVAILABLE","source":"ndw"}},{"type":"Feature","geometry":{"type":"Point","coordinates":[6.27314,53.211959]},"properties":{"type":"charge","layer":"passenger","locationId":"99e65830-40c9-11f0-b3b3-42010aa400b8","name":"Equans Groningen Drenthe Appelhof 1","address":"Appelhof 1","city":"Grootegast","operatorName":"EQUANS","maxPowerKw":0,"isMegawatt":false,"status":"AVAILABLE","source":"ndw","priceKwh":0.35}},{"type":"Feature","geometry":{"type":"Point","coordinates":[6.402429,53.303007]},"properties":{"type":"charge","layer":"passenger","locationId":"e22dbbc2-31df-11f0-8061-42010aa400b8","name":"Equans Groningen Drenthe Schipvaart 60","address":"Schipvaart 60","city":"Oldehove","operatorName":"EQUANS","maxPowerKw":0,"isMegawatt":false,"status":"AVAILABLE","source":"ndw","priceKwh":0.35}},{"type":"Feature","geometry":{"type":"Point","coordinates":[6.493665,53.304337]},"properties":{"type":"charge","layer":"passenger","locationId":"5c732fe4-3d75-11ea-bf4b-42010a840003","name":"NL, Krassumerstraat, 36, 9893PK, Garnwerd","address":"Krassumerstraat 36","city":"Garnwerd","operatorName":"Allego","maxPowerKw":0,"isMegawatt":false,"status":"AVAILABLE","source":"ndw"}},{"type":"Feature","geometry":{"type":"Point","coordinates":[6.439122,53.200005]},"properties":{"type":"charge","layer":"passenger","locationId":"7aaa0b70-0271-11ef-b313-42010aa400b8","name":"NL, De Kalverweide 2, 9828 PD Oostwold Gem Leek","address":"De Kalverweide 2","city":"Oostwold Gem Leek","operatorName":"Allego","maxPowerKw":0,"isMegawatt":false,"status":"AVAILABLE","source":"ndw"}},{"type":"Feature","geometry":{"type":"Point","coordinates":[6.393604,53.163604]},"properties":{"type":"charge","layer":"passenger","locationId":"eaabea3a-3e9f-11ec-8fd3-42010a840003","name":"NL, Bosweg 13, 9351 AB Leek","address":"Bosweg 13","city":"Leek","operatorName":"Allego","maxPowerKw":0,"isMegawatt":false,"status":"AVAILABLE","source":"ndw"}},{"type":"Feature","geometry":{"type":"Point","coordinates":[6.368316,53.156139]},"properties":{"type":"charge","layer":"passenger","locationId":"1825a06c-feca-11ef-809d-42010aa400b8","name":"Equans Groningen Drenthe De Schelp 35 2","address":"De Schelp 35 2","city":"Leek","operatorName":"EQUANS","maxPowerKw":0,"isMegawatt":false,"status":"AVAILABLE","source":"ndw","priceKwh":0.35}},{"type":"Feature","geometry":{"type":"Point","coordinates":[6.19891,53.176313]},"properties":{"type":"charge","layer":"passenger","locationId":"bf1d9b2c-5dde-11f0-8074-42010aa400b8","name":"Equans Groningen Drenthe Verbindingsweg 5","address":"Verbindingsweg 5","city":"Opende","operatorName":"EQUANS","maxPowerKw":0,"isMegawatt":false,"status":"AVAILABLE","source":"ndw","priceKwh":0.35}},{"type":"Feature","geometry":{"type":"Point","coordinates":[6.370713,53.186462]},"properties":{"type":"charge","layer":"passenger","locationId":"cb1db514-8e90-11f0-8d70-42010aa400b8","name":"Equans Groningen Drenthe Traan 1","address":"Traan 1","city":"Leek","operatorName":"EQUANS","maxPowerKw":0,"isMegawatt":false,"status":"AVAILABLE","source":"ndw","priceKwh":0.35}},{"type":"Feature","geometry":{"type":"Point","coordinates":[6.373688,53.14147]},"properties":{"type":"charge","layer":"passenger","locationId":"f77c8a90-09ca-11f0-8408-42010aa400b8","name":"Equans Groningen Drenthe Hondsdraf 2","address":"Hondsdraf 2","city":"Leek","operatorName":"EQUANS","maxPowerKw":0,"isMegawatt":false,"status":"AVAILABLE","source":"ndw","priceKwh":0.35}},{"type":"Feature","geometry":{"type":"Point","coordinates":[6.393331,53.24937]},"properties":{"type":"charge","layer":"passenger","locationId":"34649880-6105-11f0-9acf-42010aa400b8","name":"Equans Groningen Drenthe Sportlaan 1 b","address":"Sportlaan 1 b","city":"Zuidhorn","operatorName":"EQUANS","maxPowerKw":0,"isMegawatt":false,"status":"AVAILABLE","source":"ndw","priceKwh":0.35}},{"type":"Feature","geometry":{"type":"Point","coordinates":[6.366423,53.167177]},"properties":{"type":"charge","layer":"passenger","locationId":"4a50dcd0-f94a-11ef-8728-42010aa400b8","name":"Equans Groningen Drenthe Geert Valckeshof 13","address":"Geert Valckeshof 13","city":"Leek","operatorName":"EQUANS","maxPowerKw":0,"isMegawatt":false,"status":"AVAILABLE","source":"ndw","priceKwh":0.35}},{"type":"Feature","geometry":{"type":"Point","coordinates":[6.46288,53.25529]},"properties":{"type":"charge","layer":"passenger","locationId":"5fbc5294-a303-11f0-aae8-42010aa400b8","name":"Equans Groningen Drenthe Wessel Gansfortstraat 40","address":"Wessel Gansfortstraat 40","city":"Aduard","operatorName":"EQUANS","maxPowerKw":0,"isMegawatt":false,"status":"AVAILABLE","source":"ndw","priceKwh":0.35}},{"type":"Feature","geometry":{"type":"Point","coordinates":[6.2508,53.26645]},"properties":{"type":"charge","layer":"passenger","locationId":"db4fe4ea-38c2-11ef-928a-42010aa400b8","name":"Equans Groningen Drenthe Heirweg 11","address":"Heirweg 11","city":"Visvliet","operatorName":"EQUANS","maxPowerKw":0,"isMegawatt":false,"status":"AVAILABLE","source":"ndw","priceKwh":0.35}},{"type":"Feature","geometry":{"type":"Point","coordinates":[6.39073,53.16072]},"properties":{"type":"charge","layer":"passenger","locationId":"f72164d8-38c1-11ef-88e6-42010aa400b8","name":"Equans Groningen Drenthe De Schans 3","address":"De Schans 3","city":"Leek","operatorName":"EQUANS","maxPowerKw":0,"isMegawatt":false,"status":"AVAILABLE","source":"ndw","priceKwh":0.35}},{"type":"Feature","geometry":{"type":"Point","coordinates":[6.368316,53.156139]},"properties":{"type":"charge","layer":"passenger","locationId":"91145283","name":"Equans Groningen Drenthe De Schelp 35 2","address":"De Schelp 35 2","city":"Leek","operatorName":"EQUANS","maxPowerKw":0,"isMegawatt":false,"status":"AVAILABLE","source":"ndw"}},{"type":"Feature","geometry":{"type":"Point","coordinates":[6.403705,53.24418]},"properties":{"type":"charge","layer":"passenger","locationId":"24f5f3ee-267b-11ec-a2b2-42010a840003","name":"NL, Thomas van de Dijkweg 2, 9801EL, Zuidhorn","address":"Thomas van de Dijkweg 2","city":"Zuidhorn","operatorName":"Allego","maxPowerKw":0,"isMegawatt":false,"status":"AVAILABLE","source":"ndw"}},{"type":"Feature","geometry":{"type":"Point","coordinates":[6.261551,53.142586]},"properties":{"type":"charge","layer":"passenger","locationId":"NLLOC026536","name":"NL, Willem Dreeslaan 13, 9363 EL Marum","address":"Willem Dreeslaan 13","city":"Marum","operatorName":"Allego","maxPowerKw":0,"isMegawatt":false,"status":"AVAILABLE","source":"ndw","priceKwh":0.374}},{"type":"Feature","geometry":{"type":"Point","coordinates":[6.388119,53.164569]},"properties":{"type":"charge","layer":"passenger","locationId":"407c7314-e152-11ea-a91b-42010a840003","name":"NL, Tolberterstraat 41, 9351BC, Leek","address":"Tolberterstraat 41","city":"Leek","operatorName":"Allego","maxPowerKw":0,"isMegawatt":false,"status":"CHARGING","source":"ndw"}},{"type":"Feature","geometry":{"type":"Point","coordinates":[6.392089,53.179803]},"properties":{"type":"charge","layer":"passenger","locationId":"5b3adf22-a238-11eb-9e60-42010a840003","name":"NL, Hoofdstraat 132, 9355 TD Midwolde","address":"Hoofdstraat 132","city":"Midwolde","operatorName":"Allego","maxPowerKw":0,"isMegawatt":false,"status":"AVAILABLE","source":"ndw"}},{"type":"Feature","geometry":{"type":"Point","coordinates":[6.345035,53.122852]},"properties":{"type":"charge","layer":"passenger","locationId":"d22ed23a-0a60-11ea-80d9-42010a840003","name":"NLD, Zevenhuizen, Molenweg 12","address":"Molenweg 12","city":"Zevenhuizen","operatorName":"Allego","maxPowerKw":0,"isMegawatt":false,"status":"AVAILABLE","source":"ndw"}},{"type":"Feature","geometry":{"type":"Point","coordinates":[6.371792,53.159858]},"properties":{"type":"charge","layer":"passenger","locationId":"e2dcbdee-13ed-11eb-b80b-42010a840033","name":"NL, Jonkerslaan 94, 9351 JN Leek","address":"Jonkerslaan 94","city":"Leek","operatorName":"Allego","maxPowerKw":0,"isMegawatt":false,"status":"CHARGING","source":"ndw"}},{"type":"Feature","geometry":{"type":"Point","coordinates":[6.298725,53.128552]},"properties":{"type":"charge","layer":"passenger","locationId":"5afe03f4-d613-11eb-a61e-42010a840003","name":"NL, Jonkersvaart 49, 9366 TA Jonkersvaart","address":"Jonkersvaart 49","city":"Jonkersvaart","operatorName":"Allego","maxPowerKw":0,"isMegawatt":false,"status":"AVAILABLE","source":"ndw"}},{"type":"Feature","geometry":{"type":"Point","coordinates":[6.395312,53.244889]},"properties":{"type":"charge","layer":"passenger","locationId":"5febf942-dd56-11ed-bb1f-42010aa40fc0","name":"NL, Pieter Bindervoetlaan 24, 9801 ND Zuidhorn","address":"Pieter Bindervoetlaan 24","city":"Zuidhorn","operatorName":"Allego","maxPowerKw":0,"isMegawatt":false,"status":"AVAILABLE","source":"ndw"}},{"type":"Feature","geometry":{"type":"Point","coordinates":[6.327406,53.186886]},"properties":{"type":"charge","layer":"passenger","locationId":"7e95cdfe-b2bb-11eb-9549-42010a840003","name":"NL, De Olde Ee 10, 9362 RC Boerakker","address":"De Olde Ee 10","city":"Boerakker","operatorName":"Allego","maxPowerKw":0,"isMegawatt":false,"status":"AVAILABLE","source":"ndw"}},{"type":"Feature","geometry":{"type":"Point","coordinates":[6.256104,53.16966]},"properties":{"type":"charge","layer":"passenger","locationId":"8d5c39de-8e91-11eb-b33c-42010a840003","name":"NL, Westerweg 12, 9824 PH, Noordwijk","address":"Westerweg 12","city":"Noordwijk","operatorName":"Allego","maxPowerKw":0,"isMegawatt":false,"status":"UNAVAILABLE","source":"ndw"}},{"type":"Feature","geometry":{"type":"Point","coordinates":[6.374532,53.145277]},"properties":{"type":"charge","layer":"passenger","locationId":"9fc84858-247c-11eb-b197-42010a840003","name":"NL, de Knip 2, 9351XZ, Leek","address":"De Knip 2","city":"Leek","operatorName":"Allego","maxPowerKw":0,"isMegawatt":false,"status":"AVAILABLE","source":"ndw"}},{"type":"Feature","geometry":{"type":"Point","coordinates":[6.381122,53.163113]},"properties":{"type":"charge","layer":"passenger","locationId":"a4712b42-ccd9-11ed-9a01-42010aa40fc0","name":"NL, Euroweg 29, 9351 EP Leek","address":"Euroweg 29","city":"Leek","operatorName":"Allego","maxPowerKw":0,"isMegawatt":false,"status":"AVAILABLE","source":"ndw"}},{"type":"Feature","geometry":{"type":"Point","coordinates":[6.367749,53.158291]},"properties":{"type":"charge","layer":"passenger","locationId":"c8160e58-b6d8-11ed-bb88-42010aa40fc0","name":"NL, 't Emmerrik 9, 9356EG Tolbert","address":"'t Emmerrik 38","city":"Tolbert","operatorName":"Allego","maxPowerKw":0,"isMegawatt":false,"status":"AVAILABLE","source":"ndw"}},{"type":"Feature","geometry":{"type":"Point","coordinates":[6.30847,53.263089]},"properties":{"type":"charge","layer":"passenger","locationId":"3bf1e2bc-feca-11ef-af37-42010aa400b8","name":"Equans Groningen Drenthe Nicolaas Grijpstraat 1","address":"Nicolaas Grijpstraat 1","city":"Grijpskerk","operatorName":"EQUANS","maxPowerKw":0,"isMegawatt":false,"status":"AVAILABLE","source":"ndw","priceKwh":0.35}},{"type":"Feature","geometry":{"type":"Point","coordinates":[6.265714,53.144235]},"properties":{"type":"charge","layer":"passenger","locationId":"5005db4a-69a6-11f0-82b9-42010aa400b8","name":"Equans Groningen Drenthe Wendtsteinweg 79","address":"Wendtsteinweg 79","city":"Marum","operatorName":"EQUANS","maxPowerKw":0,"isMegawatt":false,"status":"AVAILABLE","source":"ndw","priceKwh":0.35}},{"type":"Feature","geometry":{"type":"Point","coordinates":[6.40403,53.24423]},"properties":{"type":"charge","layer":"passenger","locationId":"ab6f0b64-b064-11f0-ab44-42010aa400b8","name":"Equans Groningen Drenthe Thomas van de Dijkweg 2","address":"Thomas van de Dijkweg 2","city":"Zuidhorn","operatorName":"EQUANS","maxPowerKw":0,"isMegawatt":false,"status":"AVAILABLE","source":"ndw","priceKwh":0.35}},{"type":"Feature","geometry":{"type":"Point","coordinates":[6.395804,53.243446]},"properties":{"type":"charge","layer":"passenger","locationId":"cb760cbe-8e90-11f0-902e-42010aa400b8","name":"Equans Groningen Drenthe Admiraal Helfrichstraat 37","address":"Admiraal Helfrichstraat 37","city":"Zuidhorn","operatorName":"EQUANS","maxPowerKw":0,"isMegawatt":false,"status":"AVAILABLE","source":"ndw","priceKwh":0.35}},{"type":"Feature","geometry":{"type":"Point","coordinates":[6.30926,53.22044]},"properties":{"type":"charge","layer":"passenger","locationId":"941b8f8e-da06-11f0-858c-42010aa400b8","name":"Equans Groningen Drenthe Provincialeweg 44","address":"Provincialeweg 44","city":"Sebaldeburen","operatorName":"EQUANS","maxPowerKw":0,"isMegawatt":false,"status":"AVAILABLE","source":"ndw","priceKwh":0.35}},{"type":"Feature","geometry":{"type":"Point","coordinates":[6.362441,53.171282]},"properties":{"type":"charge","layer":"passenger","locationId":"c6513c1a-2d27-11f0-946e-42010aa400b8","name":"Equans Groningen Drenthe Meester Boonstraplantsoen 2","address":"Meester Boonstraplantsoen 2","city":"Tolbert","operatorName":"EQUANS","maxPowerKw":0,"isMegawatt":false,"status":"AVAILABLE","source":"ndw","priceKwh":0.35}},{"type":"Feature","geometry":{"type":"Point","coordinates":[6.374303,53.142235]},"properties":{"type":"charge","layer":"passenger","locationId":"cee26880-d685-11ee-a84a-42010aa40fc0","name":"Equans Groningen Drenthe Appelboom 34","address":"Appelboom 34","city":"Leek","operatorName":"EQUANS","maxPowerKw":0,"isMegawatt":false,"status":"AVAILABLE","source":"ndw","priceKwh":0.35}},{"type":"Feature","geometry":{"type":"Point","coordinates":[6.370677,53.157931]},"properties":{"type":"charge","layer":"passenger","locationId":"09684a1a-674e-11f0-8b87-42010aa400b8","name":"Equans Groningen Drenthe Beetke van Rasquertstraat 63","address":"Beetke van Rasquertstraat 63","city":"Leek","operatorName":"EQUANS","maxPowerKw":0,"isMegawatt":false,"status":"AVAILABLE","source":"ndw","priceKwh":0.35}},{"type":"Feature","geometry":{"type":"Point","coordinates":[6.38186,53.15713]},"properties":{"type":"charge","layer":"passenger","locationId":"46b8bec0-a7ea-11ed-bc52-42010aa40fc0","name":"NL, Het Veer 39, 9351 DG Leek","address":"Het Veer 39","city":"Leek","operatorName":"Allego","maxPowerKw":0,"isMegawatt":false,"status":"AVAILABLE","source":"ndw"}},{"type":"Feature","geometry":{"type":"Point","coordinates":[6.396351,53.261088]},"properties":{"type":"charge","layer":"passenger","locationId":"d7103cd2-61ce-11f0-8bbc-42010aa400b8","name":"Equans Groningen Drenthe Oosterweg 32","address":"Oosterweg 32","city":"Noordhorn","operatorName":"EQUANS","maxPowerKw":0,"isMegawatt":false,"status":"AVAILABLE","source":"ndw","priceKwh":0.35}},{"type":"Feature","geometry":{"type":"Point","coordinates":[6.385827,53.159926]},"properties":{"type":"charge","layer":"passenger","locationId":"200f2d30-17f1-11f0-9462-42010aa400b8","name":"Equans Groningen Drenthe Van Panhuyslaan 121","address":"Van Panhuyslaan 121","city":"Leek","operatorName":"EQUANS","maxPowerKw":0,"isMegawatt":false,"status":"AVAILABLE","source":"ndw","priceKwh":0.35}},{"type":"Feature","geometry":{"type":"Point","coordinates":[6.241468,53.182874]},"properties":{"type":"charge","layer":"passenger","locationId":"2b3a0680-f3ca-11ef-8e92-42010aa400b8","name":"Equans Groningen Drenthe Klaverweide 8","address":"Klaverweide 8","city":"Kornhorn","operatorName":"EQUANS","maxPowerKw":0,"isMegawatt":false,"status":"AVAILABLE","source":"ndw","priceKwh":0.35}},{"type":"Feature","geometry":{"type":"Point","coordinates":[6.271192,53.142534]},"properties":{"type":"charge","layer":"passenger","locationId":"4d0d7b9e-17f0-11f0-a72b-42010aa400b8","name":"Equans Groningen Drenthe Rewerdaheerd 4","address":"Rewerdaheerd 4","city":"Marum","operatorName":"EQUANS","maxPowerKw":0,"isMegawatt":false,"status":"AVAILABLE","source":"ndw","priceKwh":0.35}},{"type":"Feature","geometry":{"type":"Point","coordinates":[6.36827,53.16345]},"properties":{"type":"charge","layer":"passenger","locationId":"f05f472a-38bf-11ef-a0f9-42010aa400b8","name":"Equans Groningen Drenthe 't Zuden 72","address":"'t Zuden 72","city":"Leek","operatorName":"EQUANS","maxPowerKw":0,"isMegawatt":false,"status":"AVAILABLE","source":"ndw","priceKwh":0.35}},{"type":"Feature","geometry":{"type":"Point","coordinates":[6.37364,53.17026]},"properties":{"type":"charge","layer":"passenger","locationId":"25adc5c4-277b-11ef-95d8-42010aa400b8","name":"Equans Groningen Drenthe Rodenburg 1","address":"Rodenburg 1","city":"Leek","operatorName":"EQUANS","maxPowerKw":0,"isMegawatt":false,"status":"AVAILABLE","source":"ndw","priceKwh":0.35}},{"type":"Feature","geometry":{"type":"Point","coordinates":[6.418942,53.313021]},"properties":{"type":"charge","layer":"passenger","locationId":"7f6f6b80-b839-11eb-9efd-42010a840003","name":"NL, Eiso Jagesstraat 2A, 9886PB, Saaksum","address":"Eiso Jagesstraat 2A","city":"Saaksum","operatorName":"Allego","maxPowerKw":0,"isMegawatt":false,"status":"AVAILABLE","source":"ndw"}},{"type":"Feature","geometry":{"type":"Point","coordinates":[6.39593,53.247538]},"properties":{"type":"charge","layer":"passenger","locationId":"d85cdd24-35fa-11ec-b053-42010a840003","name":"NL, Thorbeckestraat 49, 9801 KB Zuidhorn","address":"Thorbeckestraat 49","city":"Zuidhorn","operatorName":"Allego","maxPowerKw":0,"isMegawatt":false,"status":"AVAILABLE","source":"ndw"}},{"type":"Feature","geometry":{"type":"Point","coordinates":[6.348565,53.126485]},"properties":{"type":"charge","layer":"passenger","locationId":"852f6b0e-ef14-11ef-9174-42010aa400b8","name":"Equans Groningen Drenthe Bosplantsoen 1","address":"Bosplantsoen 1","city":"Zevenhuizen","operatorName":"EQUANS","maxPowerKw":0,"isMegawatt":false,"status":"AVAILABLE","source":"ndw","priceKwh":0.35}},{"type":"Feature","geometry":{"type":"Point","coordinates":[6.259091,53.142588]},"properties":{"type":"charge","layer":"passenger","locationId":"ccbbd9e6-09ca-11f0-96ba-42010aa400b8","name":"Equans Groningen Drenthe Hoornweg 9","address":"Hoornweg 9","city":"Marum","operatorName":"EQUANS","maxPowerKw":0,"isMegawatt":false,"status":"AVAILABLE","source":"ndw","priceKwh":0.35}},{"type":"Feature","geometry":{"type":"Point","coordinates":[6.3023,53.151563]},"properties":{"type":"charge","layer":"passenger","locationId":"47da8b32-7c7f-11eb-9a15-42010a840003","name":"NL, Nieuweweg 80, 9364 PE Nuis","address":"Nieuweweg 80","city":"Nuis","operatorName":"Allego","maxPowerKw":0,"isMegawatt":false,"status":"AVAILABLE","source":"ndw"}},{"type":"Feature","geometry":{"type":"Point","coordinates":[6.30535,53.25913]},"properties":{"type":"charge","layer":"passenger","locationId":"7a00148c-f6c1-11ee-8f49-42010aa400b8","name":"Equans Groningen Drenthe Burmanniastraat 56","address":"Burmanniastraat 56","city":"Grijpskerk","operatorName":"EQUANS","maxPowerKw":0,"isMegawatt":false,"status":"AVAILABLE","source":"ndw","priceKwh":0.35}},{"type":"Feature","geometry":{"type":"Point","coordinates":[6.368963,53.145075]},"properties":{"type":"charge","layer":"passenger","locationId":"8e7619b0-2d26-11f0-a683-42010aa400b8","name":"Equans Groningen Drenthe Populier 16","address":"Populier 16","city":"Leek","operatorName":"EQUANS","maxPowerKw":0,"isMegawatt":false,"status":"AVAILABLE","source":"ndw","priceKwh":0.35}},{"type":"Feature","geometry":{"type":"Point","coordinates":[6.338205,53.22071]},"properties":{"type":"charge","layer":"passenger","locationId":"b862b162-14c5-11f0-b69a-42010aa400b8","name":"Equans Groningen Drenthe Ykesloot 4","address":"Ykesloot 4","city":"Oldekerk","operatorName":"EQUANS","maxPowerKw":0,"isMegawatt":false,"status":"AVAILABLE","source":"ndw","priceKwh":0.35}},{"type":"Feature","geometry":{"type":"Point","coordinates":[6.34554,53.12277]},"properties":{"type":"charge","layer":"passenger","locationId":"b501fa20-c404-11f0-9ba8-42010aa400b8","name":"Equans Groningen Drenthe Molenweg 7","address":"Molenweg 7","city":"Zevenhuizen","operatorName":"EQUANS","maxPowerKw":0,"isMegawatt":false,"status":"AVAILABLE","source":"ndw","priceKwh":0.35}},{"type":"Feature","geometry":{"type":"Point","coordinates":[6.380131,53.162927]},"properties":{"type":"charge","layer":"passenger","locationId":"697ee32e-aca1-11ed-a6e8-42010aa40fc0","name":"NL, Waezenburglaan 33, 9351 HB Leek","address":"Waezenburglaan 33","city":"Leek","operatorName":"Allego","maxPowerKw":0,"isMegawatt":false,"status":"AVAILABLE","source":"ndw"}},{"type":"Feature","geometry":{"type":"Point","coordinates":[6.370784,53.143487]},"properties":{"type":"charge","layer":"passenger","locationId":"870f92c6-b383-11f0-be49-42010aa400b8","name":"Equans Groningen Drenthe Dobbe 16","address":"Dobbe 16","city":"Leek","operatorName":"EQUANS","maxPowerKw":0,"isMegawatt":false,"status":"AVAILABLE","source":"ndw","priceKwh":0.35}},{"type":"Feature","geometry":{"type":"Point","coordinates":[6.308961,53.257339]},"properties":{"type":"charge","layer":"passenger","locationId":"0c7569f6-0e82-11f0-bcb0-42010aa400b8","name":"Equans Groningen Drenthe Sportlaan 8","address":"Sportlaan 8","city":"Grijpskerk","operatorName":"EQUANS","maxPowerKw":0,"isMegawatt":false,"status":"AVAILABLE","source":"ndw","priceKwh":0.35}},{"type":"Feature","geometry":{"type":"Point","coordinates":[6.410154,53.250078]},"properties":{"type":"charge","layer":"passenger","locationId":"ed0f99e8-8996-11f0-a73e-42010aa400b8","name":"Equans Groningen Drenthe Noorderlicht 2","address":"Noorderlicht 2","city":"Zuidhorn","operatorName":"EQUANS","maxPowerKw":0,"isMegawatt":false,"status":"AVAILABLE","source":"ndw","priceKwh":0.35}},{"type":"Feature","geometry":{"type":"Point","coordinates":[6.410984,53.24734]},"properties":{"type":"charge","layer":"passenger","locationId":"431aec60-fba4-11ef-8808-42010aa400b8","name":"Equans Groningen Drenthe Gemmastraat 7","address":"Gemmastraat 7","city":"Zuidhorn","operatorName":"EQUANS","maxPowerKw":0,"isMegawatt":false,"status":"CHARGING","source":"ndw","priceKwh":0.35}},{"type":"Feature","geometry":{"type":"Point","coordinates":[6.40852,53.25304]},"properties":{"type":"charge","layer":"passenger","locationId":"b4d44d78-c404-11f0-9d03-42010aa400b8","name":"Equans Groningen Drenthe Holtven 22","address":"Holtven 22","city":"Zuidhorn","operatorName":"EQUANS","maxPowerKw":0,"isMegawatt":false,"status":"AVAILABLE","source":"ndw","priceKwh":0.35}},{"type":"Feature","geometry":{"type":"Point","coordinates":[6.41359,53.25004]},"properties":{"type":"charge","layer":"passenger","locationId":"d8a327e8-38c2-11ef-99f8-42010aa400b8","name":"Equans Groningen Drenthe Kumastraat 29","address":"Kumastraat 29","city":"Zuidhorn","operatorName":"EQUANS","maxPowerKw":0,"isMegawatt":false,"status":"AVAILABLE","source":"ndw","priceKwh":0.35}},{"type":"Feature","geometry":{"type":"Point","coordinates":[6.315308,53.261964]},"properties":{"type":"charge","layer":"passenger","locationId":"79c670c8-0e81-11f0-a418-42010aa400b8","name":"Equans Groningen Drenthe De Vereeniging 23","address":"De Vereeniging 23","city":"Grijpskerk","operatorName":"EQUANS","maxPowerKw":0,"isMegawatt":false,"status":"AVAILABLE","source":"ndw","priceKwh":0.35}},{"type":"Feature","geometry":{"type":"Point","coordinates":[6.398826,53.248396]},"properties":{"type":"charge","layer":"passenger","locationId":"4688217e-f947-11ef-b768-42010aa400b8","name":"Equans Groningen Drenthe Thorbeckestraat 7","address":"Thorbeckestraat 7","city":"Zuidhorn","operatorName":"EQUANS","maxPowerKw":0,"isMegawatt":false,"status":"AVAILABLE","source":"ndw","priceKwh":0.35}},{"type":"Feature","geometry":{"type":"Point","coordinates":[6.404646,53.243228]},"properties":{"type":"charge","layer":"passenger","locationId":"91fa2352-50fc-11f0-ae84-42010aa400b8","name":"Equans Groningen Drenthe Jellemaweg 31","address":"Jellemaweg 31","city":"Zuidhorn","operatorName":"EQUANS","maxPowerKw":0,"isMegawatt":false,"status":"AVAILABLE","source":"ndw","priceKwh":0.35}},{"type":"Feature","geometry":{"type":"Point","coordinates":[6.438933,53.225457]},"properties":{"type":"charge","layer":"passenger","locationId":"facbc31e-2d24-11f0-b130-42010aa400b8","name":"Equans Groningen Drenthe Dorpsstraat 68","address":"Dorpsstraat 68","city":"Den Horn","operatorName":"EQUANS","maxPowerKw":0,"isMegawatt":false,"status":"AVAILABLE","source":"ndw","priceKwh":0.35}},{"type":"Feature","geometry":{"type":"Point","coordinates":[6.257447,53.143516]},"properties":{"type":"charge","layer":"passenger","locationId":"dbd4c298-e27f-11ef-8c81-42010aa400b8","name":"Equans Groningen Drenthe Kamperfoelielaan 1","address":"Kamperfoelielaan 1","city":"Marum","operatorName":"EQUANS","maxPowerKw":0,"isMegawatt":false,"status":"AVAILABLE","source":"ndw","priceKwh":0.35}},{"type":"Feature","geometry":{"type":"Point","coordinates":[6.3023,53.151563]},"properties":{"type":"charge","layer":"passenger","locationId":"NLLOC014731","name":"NL, Nieuweweg 80, 9364 PE Nuis","address":"Nieuweweg 80","city":"Nuis","operatorName":"Allego","maxPowerKw":0,"isMegawatt":false,"status":"AVAILABLE","source":"ndw","priceKwh":0.374}},{"type":"Feature","geometry":{"type":"Point","coordinates":[6.251386,53.141852]},"properties":{"type":"charge","layer":"passenger","locationId":"cb6c90da-e27e-11ef-b599-42010aa400b8","name":"Equans Groningen Drenthe Hoornweg 100","address":"Hoornweg 100","city":"Marum","operatorName":"EQUANS","maxPowerKw":0,"isMegawatt":false,"status":"AVAILABLE","source":"ndw","priceKwh":0.35}},{"type":"Feature","geometry":{"type":"Point","coordinates":[6.377514,53.159265]},"properties":{"type":"charge","layer":"passenger","locationId":"NLLOC025257","name":"NL, Nijenoertweg 91, 9351 HP Leek","address":"Nijenoertweg 91","city":"Leek","operatorName":"Allego","maxPowerKw":0,"isMegawatt":false,"status":"AVAILABLE","source":"ndw","priceKwh":0.374}},{"type":"Feature","geometry":{"type":"Point","coordinates":[6.379995,53.184825]},"properties":{"type":"charge","layer":"passenger","locationId":"NLLOC027737","name":"P+R Carpool Midwolde Leek A7, Rijksweg A7, Netherlands","address":"Rijksweg A7","city":"Midwolde","operatorName":"Allego","maxPowerKw":0,"isMegawatt":false,"status":"AVAILABLE","source":"ndw","priceKwh":0.374}},{"type":"Feature","geometry":{"type":"Point","coordinates":[6.395804,53.243446]},"properties":{"type":"charge","layer":"passenger","locationId":"91154025","name":"Equans Groningen Drenthe Admiraal Helfrichstraat 37","address":"Admiraal Helfrichstraat 37","city":"Zuidhorn","operatorName":"EQUANS","maxPowerKw":0,"isMegawatt":false,"status":"AVAILABLE","source":"ndw"}},{"type":"Feature","geometry":{"type":"Point","coordinates":[6.337276,53.158656]},"properties":{"type":"charge","layer":"passenger","locationId":"691b2e2f9a1daed4013a8e5b","name":"Boomkwerkerij en hoveniersbedrijf Westerkwartier","address":"Halbe Wiersemaweg 2B","city":"Niebert","operatorName":"E-Flux by Road","maxPowerKw":22,"isMegawatt":false,"status":"AVAILABLE","source":"ndw","priceKwh":0.43}},{"type":"Feature","geometry":{"type":"Point","coordinates":[6.442405,53.309932]},"properties":{"type":"charge","layer":"passenger","locationId":"NLLOC021790","name":"NL, Schoorsterweg 2, 9891AR Ezinge","address":"Schoorsterweg 2","city":"Ezinge","operatorName":"Allego","maxPowerKw":0,"isMegawatt":false,"status":"AVAILABLE","source":"ndw","priceKwh":0.374}},{"type":"Feature","geometry":{"type":"Point","coordinates":[6.389802,53.162315]},"properties":{"type":"charge","layer":"passenger","locationId":"NLLOC006630","name":"NL, Samuel Leviestraat 7, 9351 BM, Leek","address":"Samuel Leviestraat 7","city":"Leek","operatorName":"Allego","maxPowerKw":0,"isMegawatt":false,"status":"AVAILABLE","source":"ndw","priceKwh":0.374}},{"type":"Feature","geometry":{"type":"Point","coordinates":[6.198394,53.175003]},"properties":{"type":"charge","layer":"passenger","locationId":"NLLOC013437","name":"NL, Verbindingsweg 4, 9865 TE Opende","address":"Verbindingsweg 4","city":"Opende","operatorName":"Allego","maxPowerKw":0,"isMegawatt":false,"status":"AVAILABLE","source":"ndw","priceKwh":0.374}},{"type":"Feature","geometry":{"type":"Point","coordinates":[6.380141,53.176332]},"properties":{"type":"charge","layer":"passenger","locationId":"66e410ef349acd001cda9865","name":"Wim van de Griend 's station","address":"Midwolderweg 72","city":"Leek","operatorName":"E-Flux by Road","maxPowerKw":11,"isMegawatt":false,"status":"CHARGING","source":"ndw","priceKwh":0.58}},{"type":"Feature","geometry":{"type":"Point","coordinates":[6.410582,53.243454]},"properties":{"type":"charge","layer":"passenger","locationId":"3b013b6e-852a-11f0-8efc-42010aa400b8","name":"Equans Groningen Drenthe Emmalaan 40","address":"Emmalaan 40","city":"Zuidhorn","operatorName":"EQUANS","maxPowerKw":0,"isMegawatt":false,"status":"AVAILABLE","source":"ndw","priceKwh":0.35}},{"type":"Feature","geometry":{"type":"Point","coordinates":[6.267949,53.206593]},"properties":{"type":"charge","layer":"passenger","locationId":"a30ee37c-8e90-11f0-a664-42010aa400b8","name":"Equans Groningen Drenthe Bovenweg 56","address":"Bovenweg 56","city":"Grootegast","operatorName":"EQUANS","maxPowerKw":0,"isMegawatt":false,"status":"AVAILABLE","source":"ndw","priceKwh":0.35}},{"type":"Feature","geometry":{"type":"Point","coordinates":[6.345988,53.224341]},"properties":{"type":"charge","layer":"passenger","locationId":"64de72ae-ea5b-11ef-9692-42010aa400b8","name":"Equans Groningen Drenthe Biezejager 8","address":"Biezejager 8","city":"Niekerk","operatorName":"EQUANS","maxPowerKw":0,"isMegawatt":false,"status":"AVAILABLE","source":"ndw","priceKwh":0.35}},{"type":"Feature","geometry":{"type":"Point","coordinates":[6.463186,53.260119]},"properties":{"type":"charge","layer":"passenger","locationId":"801c58fa-17ed-11f0-8cb5-42010aa400b8","name":"Equans Groningen Drenthe Albert Harkemaweg 60","address":"Albert Harkemaweg 60","city":"Aduard","operatorName":"EQUANS","maxPowerKw":0,"isMegawatt":false,"status":"AVAILABLE","source":"ndw","priceKwh":0.35}},{"type":"Feature","geometry":{"type":"Point","coordinates":[6.352473,53.226325]},"properties":{"type":"charge","layer":"passenger","locationId":"d92e1d42-f6c0-11ee-9c04-42010aa400b8","name":"Equans Groningen Drenthe Menso Fockemalaan 37","address":"Menso Fockemalaan 37","city":"Niekerk","operatorName":"EQUANS","maxPowerKw":0,"isMegawatt":false,"status":"AVAILABLE","source":"ndw","priceKwh":0.35}},{"type":"Feature","geometry":{"type":"Point","coordinates":[6.410154,53.250078]},"properties":{"type":"charge","layer":"passenger","locationId":"91154026","name":"Equans Groningen Drenthe Noorderlicht 2","address":"Noorderlicht 2","city":"Zuidhorn","operatorName":"EQUANS","maxPowerKw":0,"isMegawatt":false,"status":"AVAILABLE","source":"ndw"}},{"type":"Feature","geometry":{"type":"Point","coordinates":[6.268815,53.2145]},"properties":{"type":"charge","layer":"passenger","locationId":"642e77c784a9770012b6ed23","name":"Kerssens Kozijnen","address":"Legolaan 8F","city":"Grootegast","operatorName":"Alva Charging Services","maxPowerKw":22,"isMegawatt":false,"status":"AVAILABLE","source":"ndw","priceKwh":0.73}},{"type":"Feature","geometry":{"type":"Point","coordinates":[6.345035,53.122852]},"properties":{"type":"charge","layer":"passenger","locationId":"NLLOC005590","name":"NLD, Zevenhuizen, Molenweg 12","address":"Molenweg 12","city":"Zevenhuizen","operatorName":"Allego","maxPowerKw":0,"isMegawatt":false,"status":"CHARGING","source":"ndw","priceKwh":0.374}},{"type":"Feature","geometry":{"type":"Point","coordinates":[6.374888,53.16067]},"properties":{"type":"charge","layer":"passenger","locationId":"4a41d0aa-d687-11ee-8ed0-42010aa40fc0","name":"Equans Groningen Drenthe Oldenoert 32","address":"Oldenoert 32","city":"Leek","operatorName":"EQUANS","maxPowerKw":0,"isMegawatt":false,"status":"AVAILABLE","source":"ndw","priceKwh":0.35}},{"type":"Feature","geometry":{"type":"Point","coordinates":[6.276629,53.213522]},"properties":{"type":"charge","layer":"passenger","locationId":"NLLOC005795","name":"NLD, Grootegast, Hoofdstraat 109","address":"Hoofdstraat 109","city":"Grootegast","operatorName":"Allego","maxPowerKw":0,"isMegawatt":false,"status":"AVAILABLE","source":"ndw","priceKwh":0.374}},{"type":"Feature","geometry":{"type":"Point","coordinates":[6.370713,53.186462]},"properties":{"type":"charge","layer":"passenger","locationId":"91154023","name":"Equans Groningen Drenthe Traan 1","address":"Traan 1","city":"Leek","operatorName":"EQUANS","maxPowerKw":0,"isMegawatt":false,"status":"AVAILABLE","source":"ndw"}},{"type":"Feature","geometry":{"type":"Point","coordinates":[6.418942,53.313021]},"properties":{"type":"charge","layer":"passenger","locationId":"NLLOC014188","name":"NL, Eiso Jagesstraat 2A, 9886PB, Saaksum","address":"Eiso Jagesstraat 2A","city":"Saaksum","operatorName":"Allego","maxPowerKw":0,"isMegawatt":false,"status":"AVAILABLE","source":"ndw","priceKwh":0.374}},{"type":"Feature","geometry":{"type":"Point","coordinates":[6.388119,53.164569]},"properties":{"type":"charge","layer":"passenger","locationId":"NLLOC006573","name":"NL, Tolberterstraat 41, 9351BC, Leek","address":"Tolberterstraat 41","city":"Leek","operatorName":"Allego","maxPowerKw":0,"isMegawatt":false,"status":"AVAILABLE","source":"ndw","priceKwh":0.374}},{"type":"Feature","geometry":{"type":"Point","coordinates":[6.395062,53.265952]},"properties":{"type":"charge","layer":"passenger","locationId":"NLLOC007602","name":"NL, Noorderweg 61C, 9804RL, Noordhorn","address":"Noorderweg 61C","city":"Noordhorn","operatorName":"Allego","maxPowerKw":0,"isMegawatt":false,"status":"AVAILABLE","source":"ndw","priceKwh":0.374}},{"type":"Feature","geometry":{"type":"Point","coordinates":[6.309825,53.256055]},"properties":{"type":"charge","layer":"passenger","locationId":"NLLOC005761","name":"NLD, Grijpskerk, Stationsstraat 30","address":"Stationsstraat 30","city":"Grijpskerk","operatorName":"Allego","maxPowerKw":0,"isMegawatt":false,"status":"AVAILABLE","source":"ndw","priceKwh":0.374}},{"type":"Feature","geometry":{"type":"Point","coordinates":[6.41185,53.25279]},"properties":{"type":"charge","layer":"passenger","locationId":"91401068","name":"Equans Groningen Drenthe Electrastraat 27","address":"Electrastraat 27","city":"Zuidhorn","operatorName":"EQUANS","maxPowerKw":0,"isMegawatt":false,"status":"AVAILABLE","source":"ndw"}},{"type":"Feature","geometry":{"type":"Point","coordinates":[6.493665,53.304337]},"properties":{"type":"charge","layer":"passenger","locationId":"NLLOC010819","name":"NL, Krassumerstraat, 36, 9893PK, Garnwerd","address":"Krassumerstraat 36","city":"Garnwerd","operatorName":"Allego","maxPowerKw":0,"isMegawatt":false,"status":"AVAILABLE","source":"ndw","priceKwh":0.374}},{"type":"Feature","geometry":{"type":"Point","coordinates":[6.397506,53.303022]},"properties":{"type":"charge","layer":"passenger","locationId":"NLLOC022386","name":"NL, De Omloop 10, 9883 PW Oldehove","address":"De Omloop 10","city":"Oldehove","operatorName":"Allego","maxPowerKw":0,"isMegawatt":false,"status":"AVAILABLE","source":"ndw","priceKwh":0.374}},{"type":"Feature","geometry":{"type":"Point","coordinates":[6.406554,53.215428]},"properties":{"type":"charge","layer":"passenger","locationId":"NLLOC014591","name":"NL, Dorpsstraat 33, 9811 PA Enumatil","address":"Dorpsstraat 33","city":"Enumatil","operatorName":"Allego","maxPowerKw":0,"isMegawatt":false,"status":"AVAILABLE","source":"ndw","priceKwh":0.374}},{"type":"Feature","geometry":{"type":"Point","coordinates":[6.259671,53.234588]},"properties":{"type":"charge","layer":"passenger","locationId":"NLLOC012869","name":"NL, Kompasstraat 1-A, 9866 AP Lutjegast","address":"Kompasstraat 1-A","city":"Lutjegast","operatorName":"Allego","maxPowerKw":0,"isMegawatt":false,"status":"AVAILABLE","source":"ndw","priceKwh":0.374}},{"type":"Feature","geometry":{"type":"Point","coordinates":[6.338205,53.22071]},"properties":{"type":"charge","layer":"passenger","locationId":"91145215","name":"Equans Groningen Drenthe Ykesloot 4","address":"Ykesloot 4","city":"Oldekerk","operatorName":"EQUANS","maxPowerKw":0,"isMegawatt":false,"status":"AVAILABLE","source":"ndw"}},{"type":"Feature","geometry":{"type":"Point","coordinates":[6.327406,53.186886]},"properties":{"type":"charge","layer":"passenger","locationId":"NLLOC013505","name":"NL, De Olde Ee 10, 9362 RC Boerakker","address":"De Olde Ee 10","city":"Boerakker","operatorName":"Allego","maxPowerKw":0,"isMegawatt":false,"status":"UNAVAILABLE","source":"ndw","priceKwh":0.374}},{"type":"Feature","geometry":{"type":"Point","coordinates":[6.40403,53.24423]},"properties":{"type":"charge","layer":"passenger","locationId":"91220485","name":"Equans Groningen Drenthe Thomas van de Dijkweg 2","address":"Thomas van de Dijkweg 2","city":"Zuidhorn","operatorName":"EQUANS","maxPowerKw":0,"isMegawatt":false,"status":"AVAILABLE","source":"ndw"}},{"type":"Feature","geometry":{"type":"Point","coordinates":[6.277092,53.146056]},"properties":{"type":"charge","layer":"passenger","locationId":"NLLOC014802","name":"NL, Swanenburg, 10, 9363KL, Marum","address":"Swanenburg 10","city":"Marum","operatorName":"Allego","maxPowerKw":0,"isMegawatt":false,"status":"AVAILABLE","source":"ndw","priceKwh":0.374}},{"type":"Feature","geometry":{"type":"Point","coordinates":[6.36555,53.1572]},"properties":{"type":"charge","layer":"passenger","locationId":"91145077","name":"Equans Groningen Drenthe 't Kaarnhuus 38","address":"'t Kaarnhuus 38","city":"Tolbert","operatorName":"EQUANS","maxPowerKw":0,"isMegawatt":false,"status":"AVAILABLE","source":"ndw"}},{"type":"Feature","geometry":{"type":"Point","coordinates":[6.40852,53.247989]},"properties":{"type":"charge","layer":"passenger","locationId":"NLLOC005716","name":"NLD, Zuidhorn, Hooiweg 9","address":"Hooiweg 9","city":"Zuidhorn","operatorName":"Allego","maxPowerKw":0,"isMegawatt":false,"status":"AVAILABLE","source":"ndw","priceKwh":0.374}},{"type":"Feature","geometry":{"type":"Point","coordinates":[6.395929,53.166255]},"properties":{"type":"charge","layer":"passenger","locationId":"NLLOC024754","name":"NL, Nienoord 20, 9351 AC Leek","address":"Nienoord 20","city":"Leek","operatorName":"Allego","maxPowerKw":0,"isMegawatt":false,"status":"AVAILABLE","source":"ndw","priceKwh":0.374}},{"type":"Feature","geometry":{"type":"Point","coordinates":[6.3746,53.15626]},"properties":{"type":"charge","layer":"passenger","locationId":"91145130","name":"Equans Groningen Drenthe Borgstee 19","address":"Borgstee 19","city":"Leek","operatorName":"EQUANS","maxPowerKw":0,"isMegawatt":false,"status":"AVAILABLE","source":"ndw"}},{"type":"Feature","geometry":{"type":"Point","coordinates":[6.273657,53.145071]},"properties":{"type":"charge","layer":"passenger","locationId":"NLLOC024472","name":"NL, Buurlandt 17, 9363 AW Marum","address":"Buurlandt 17","city":"Marum","operatorName":"Allego","maxPowerKw":0,"isMegawatt":false,"status":"AVAILABLE","source":"ndw","priceKwh":0.374}},{"type":"Feature","geometry":{"type":"Point","coordinates":[6.30847,53.263089]},"properties":{"type":"charge","layer":"passenger","locationId":"91145352","name":"Equans Groningen Drenthe Nicolaas Grijpstraat 1","address":"Nicolaas Grijpstraat 1","city":"Grijpskerk","operatorName":"EQUANS","maxPowerKw":0,"isMegawatt":false,"status":"AVAILABLE","source":"ndw"}},{"type":"Feature","geometry":{"type":"Point","coordinates":[6.25756,53.23296]},"properties":{"type":"charge","layer":"passenger","locationId":"91435117","name":"Equans Groningen Drenthe De Wieren 25","address":"De Wieren 25","city":"Lutjegast","operatorName":"EQUANS","maxPowerKw":0,"isMegawatt":false,"status":"AVAILABLE","source":"ndw"}},{"type":"Feature","geometry":{"type":"Point","coordinates":[6.444363,53.309448]},"properties":{"type":"charge","layer":"passenger","locationId":"91145248","name":"Equans Groningen Drenthe Terpstraat 2","address":"Terpstraat 2","city":"Ezinge","operatorName":"EQUANS","maxPowerKw":0,"isMegawatt":false,"status":"AVAILABLE","source":"ndw"}},{"type":"Feature","geometry":{"type":"Point","coordinates":[6.361716,53.159723]},"properties":{"type":"charge","layer":"passenger","locationId":"818812c8-5ddf-11f0-a89d-42010aa400b8","name":"Equans Groningen Drenthe De Hooizolder 35","address":"De Hooizolder 35","city":"Tolbert","operatorName":"EQUANS","maxPowerKw":0,"isMegawatt":false,"status":"AVAILABLE","source":"ndw","priceKwh":0.35}},{"type":"Feature","geometry":{"type":"Point","coordinates":[6.370784,53.143487]},"properties":{"type":"charge","layer":"passenger","locationId":"91220497","name":"Equans Groningen Drenthe Dobbe 16","address":"Dobbe 16","city":"Leek","operatorName":"EQUANS","maxPowerKw":0,"isMegawatt":false,"status":"AVAILABLE","source":"ndw"}},{"type":"Feature","geometry":{"type":"Point","coordinates":[6.377867,53.150003]},"properties":{"type":"charge","layer":"passenger","locationId":"NLLOC018290","name":"NL, Sleutelbloem 90, 9351 WM Leek","address":"Sleutelbloem 90","city":"Leek","operatorName":"Allego","maxPowerKw":0,"isMegawatt":false,"status":"AVAILABLE","source":"ndw","priceKwh":0.374}},{"type":"Feature","geometry":{"type":"Point","coordinates":[6.34488,53.221535]},"properties":{"type":"charge","layer":"passenger","locationId":"NLLOC013435","name":"NL, Eekebuursterweg 1, 9821 PA Oldekerk","address":"Eekebuursterweg 1","city":"Oldekerk","operatorName":"Allego","maxPowerKw":0,"isMegawatt":false,"status":"AVAILABLE","source":"ndw","priceKwh":0.374}},{"type":"Feature","geometry":{"type":"Point","coordinates":[6.46288,53.25529]},"properties":{"type":"charge","layer":"passenger","locationId":"91193210","name":"Equans Groningen Drenthe Wessel Gansfortstraat 40","address":"Wessel Gansfortstraat 40","city":"Aduard","operatorName":"EQUANS","maxPowerKw":0,"isMegawatt":false,"status":"AVAILABLE","source":"ndw"}},{"type":"Feature","geometry":{"type":"Point","coordinates":[6.253912,53.11668]},"properties":{"type":"charge","layer":"passenger","locationId":"NLLOC005784","name":"NLD, De Wilp, Schoolstraat 19","address":"Schoolstraat 19","city":"De Wilp","operatorName":"Allego","maxPowerKw":0,"isMegawatt":false,"status":"AVAILABLE","source":"ndw","priceKwh":0.374}},{"type":"Feature","geometry":{"type":"Point","coordinates":[6.39073,53.16072]},"properties":{"type":"charge","layer":"passenger","locationId":"91145132","name":"Equans Groningen Drenthe De Schans 3","address":"De Schans 3","city":"Leek","operatorName":"EQUANS","maxPowerKw":0,"isMegawatt":false,"status":"AVAILABLE","source":"ndw"}},{"type":"Feature","geometry":{"type":"Point","coordinates":[6.396782,53.243851]},"properties":{"type":"charge","layer":"passenger","locationId":"NLLOC005214","name":"NLD, Zuidhorn, Admiraal Helfrichstraat 9","address":"Admiraal Helfrichstraat 9","city":"Zuidhorn","operatorName":"Allego","maxPowerKw":0,"isMegawatt":false,"status":"AVAILABLE","source":"ndw","priceKwh":0.374}},{"type":"Feature","geometry":{"type":"Point","coordinates":[6.30926,53.22044]},"properties":{"type":"charge","layer":"passenger","locationId":"91298205","name":"Equans Groningen Drenthe Provincialeweg 44","address":"Provincialeweg 44","city":"Sebaldeburen","operatorName":"EQUANS","maxPowerKw":0,"isMegawatt":false,"status":"AVAILABLE","source":"ndw"}},{"type":"Feature","geometry":{"type":"Point","coordinates":[6.409278,53.252005]},"properties":{"type":"charge","layer":"passenger","locationId":"NLLOC008176","name":"NL, Anserstraat 11, 9801 WN Zuidhorn","address":"Anserstraat 11","city":"Zuidhorn","operatorName":"Allego","maxPowerKw":0,"isMegawatt":false,"status":"AVAILABLE","source":"ndw","priceKwh":0.374}},{"type":"Feature","geometry":{"type":"Point","coordinates":[6.366423,53.167177]},"properties":{"type":"charge","layer":"passenger","locationId":"91145221","name":"Equans Groningen Drenthe Geert Valckeshof 13","address":"Geert Valckeshof 13","city":"Leek","operatorName":"EQUANS","maxPowerKw":0,"isMegawatt":false,"status":"AVAILABLE","source":"ndw"}},{"type":"Feature","geometry":{"type":"Point","coordinates":[6.309585,53.220197]},"properties":{"type":"charge","layer":"passenger","locationId":"NLLOC013427","name":"NL, Kerkweg 1, 9862 TH Sebaldeburen","address":"Kerkweg 1","city":"Sebaldeburen","operatorName":"Allego","maxPowerKw":0,"isMegawatt":false,"status":"AVAILABLE","source":"ndw","priceKwh":0.374}},{"type":"Feature","geometry":{"type":"Point","coordinates":[6.269975,53.28097]},"properties":{"type":"charge","layer":"passenger","locationId":"NLLOC013364","name":"NL, Schoolstraat 4, 9844 PE Pieterzijl","address":"Schoolstraat 4","city":"Pieterzijl","operatorName":"Allego","maxPowerKw":0,"isMegawatt":false,"status":"AVAILABLE","source":"ndw","priceKwh":0.374}},{"type":"Feature","geometry":{"type":"Point","coordinates":[6.400869,53.247027]},"properties":{"type":"charge","layer":"passenger","locationId":"NLLOC027003","name":"NL, Het Steenhuis 2, 9801HT Zuidhorn","address":"Het Steenhuis 2","city":"Zuidhorn","operatorName":"Allego","maxPowerKw":0,"isMegawatt":false,"status":"AVAILABLE","source":"ndw","priceKwh":0.374}},{"type":"Feature","geometry":{"type":"Point","coordinates":[6.2508,53.26645]},"properties":{"type":"charge","layer":"passenger","locationId":"91145131","name":"Equans Groningen Drenthe Heirweg 11","address":"Heirweg 11","city":"Visvliet","operatorName":"EQUANS","maxPowerKw":0,"isMegawatt":false,"status":"AVAILABLE","source":"ndw"}},{"type":"Feature","geometry":{"type":"Point","coordinates":[6.438933,53.225457]},"properties":{"type":"charge","layer":"passenger","locationId":"91145341","name":"Equans Groningen Drenthe Dorpsstraat 68","address":"Dorpsstraat 68","city":"Den Horn","operatorName":"EQUANS","maxPowerKw":0,"isMegawatt":false,"status":"AVAILABLE","source":"ndw"}},{"type":"Feature","geometry":{"type":"Point","coordinates":[6.395312,53.244889]},"properties":{"type":"charge","layer":"passenger","locationId":"NLLOC024578","name":"NL, Pieter Bindervoetlaan 24, 9801 ND Zuidhorn","address":"Pieter Bindervoetlaan 24","city":"Zuidhorn","operatorName":"Allego","maxPowerKw":0,"isMegawatt":false,"status":"AVAILABLE","source":"ndw","priceKwh":0.374}},{"type":"Feature","geometry":{"type":"Point","coordinates":[6.360459,53.171958]},"properties":{"type":"charge","layer":"passenger","locationId":"NLLOC013723","name":"NL, Het Spoor 8, 9356BW, Tolbert","address":"Het Spoor 8","city":"Tolbert","operatorName":"Allego","maxPowerKw":0,"isMegawatt":false,"status":"AVAILABLE","source":"ndw","priceKwh":0.374}},{"type":"Feature","geometry":{"type":"Point","coordinates":[6.259091,53.142588]},"properties":{"type":"charge","layer":"passenger","locationId":"91145349","name":"Equans Groningen Drenthe Hoornweg 9","address":"Hoornweg 9","city":"Marum","operatorName":"EQUANS","maxPowerKw":0,"isMegawatt":false,"status":"AVAILABLE","source":"ndw"}},{"type":"Feature","geometry":{"type":"Point","coordinates":[6.370677,53.157931]},"properties":{"type":"charge","layer":"passenger","locationId":"91145427","name":"Equans Groningen Drenthe Beetke van Rasquertstraat 63","address":"Beetke van Rasquertstraat 63","city":"Leek","operatorName":"EQUANS","maxPowerKw":0,"isMegawatt":false,"status":"AVAILABLE","source":"ndw"}},{"type":"Feature","geometry":{"type":"Point","coordinates":[6.393604,53.163604]},"properties":{"type":"charge","layer":"passenger","locationId":"NLLOC017665","name":"NL, Bosweg 13, 9351 AB Leek","address":"Bosweg 13","city":"Leek","operatorName":"Allego","maxPowerKw":0,"isMegawatt":false,"status":"AVAILABLE","source":"ndw","priceKwh":0.374}},{"type":"Feature","geometry":{"type":"Point","coordinates":[6.33887,53.222969]},"properties":{"type":"charge","layer":"passenger","locationId":"91145212","name":"Equans Groningen Drenthe Oldekerkermeer 41","address":"Oldekerkermeer 41","city":"Leek","operatorName":"EQUANS","maxPowerKw":0,"isMegawatt":false,"status":"CHARGING","source":"ndw"}},{"type":"Feature","geometry":{"type":"Point","coordinates":[6.365547,53.166043]},"properties":{"type":"charge","layer":"passenger","locationId":"NLLOC008258","name":"NL, Beelen 2, 9356 CA, Tolbert","address":"Beelen 2","city":"Tolbert","operatorName":"Allego","maxPowerKw":0,"isMegawatt":false,"status":"AVAILABLE","source":"ndw","priceKwh":0.374}},{"type":"Feature","geometry":{"type":"Point","coordinates":[6.37557,53.16018]},"properties":{"type":"charge","layer":"passenger","locationId":"91145129","name":"Equans Groningen Drenthe Oranjerie 45","address":"Oranjerie 45","city":"Leek","operatorName":"EQUANS","maxPowerKw":0,"isMegawatt":false,"status":"AVAILABLE","source":"ndw"}},{"type":"Feature","geometry":{"type":"Point","coordinates":[6.404646,53.243228]},"properties":{"type":"charge","layer":"passenger","locationId":"91145506","name":"Equans Groningen Drenthe Jellemaweg 31","address":"Jellemaweg 31","city":"Zuidhorn","operatorName":"EQUANS","maxPowerKw":0,"isMegawatt":false,"status":"AVAILABLE","source":"ndw"}},{"type":"Feature","geometry":{"type":"Point","coordinates":[6.368561,53.164743]},"properties":{"type":"charge","layer":"passenger","locationId":"NLLOC027588","name":"NL, Wethouder Iwe Hutstraat 53, 9351 RB Leek","address":"Wethouder Iwe Hutstraat 53","city":"Leek","operatorName":"Allego","maxPowerKw":0,"isMegawatt":false,"status":"AVAILABLE","source":"ndw","priceKwh":0.374}},{"type":"Feature","geometry":{"type":"Point","coordinates":[6.348565,53.126485]},"properties":{"type":"charge","layer":"passenger","locationId":"91145351","name":"Equans Groningen Drenthe Bosplantsoen 1","address":"Bosplantsoen 1","city":"Zevenhuizen","operatorName":"EQUANS","maxPowerKw":0,"isMegawatt":false,"status":"AVAILABLE","source":"ndw"}},{"type":"Feature","geometry":{"type":"Point","coordinates":[6.248428,53.200133]},"properties":{"type":"charge","layer":"passenger","locationId":"NLLOC005568","name":"NLD, Doezum, Kerkplein 13","address":"Kerkplein 13","city":"Doezum","operatorName":"Allego","maxPowerKw":0,"isMegawatt":false,"status":"AVAILABLE","source":"ndw","priceKwh":0.374}},{"type":"Feature","geometry":{"type":"Point","coordinates":[6.379065,53.155597]},"properties":{"type":"charge","layer":"passenger","locationId":"NLLOC014683","name":"NL, Hoge Borgh, 56, 9351TS, Leek","address":"Hoge Borgh 56","city":"Leek","operatorName":"Allego","maxPowerKw":0,"isMegawatt":false,"status":"AVAILABLE","source":"ndw","priceKwh":0.374}},{"type":"Feature","geometry":{"type":"Point","coordinates":[6.460432,53.254136]},"properties":{"type":"charge","layer":"passenger","locationId":"NLLOC005909","name":"NLD, Aduard, Burgemeester Seinenstraat 4","address":"Burgemeester Seinenstraat 4","city":"Aduard","operatorName":"Allego","maxPowerKw":0,"isMegawatt":false,"status":"CHARGING","source":"ndw","priceKwh":0.374}},{"type":"Feature","geometry":{"type":"Point","coordinates":[6.410238,53.248394]},"properties":{"type":"charge","layer":"passenger","locationId":"NLLOC009408","name":"NL, Cursastraat 1, 9801VD Zuidhorn","address":"Cursastraat 1","city":"Zuidhorn","operatorName":"Allego","maxPowerKw":0,"isMegawatt":false,"status":"AVAILABLE","source":"ndw","priceKwh":0.374}},{"type":"Feature","geometry":{"type":"Point","coordinates":[6.241468,53.182874]},"properties":{"type":"charge","layer":"passenger","locationId":"91145274","name":"Equans Groningen Drenthe Klaverweide 8","address":"Klaverweide 8","city":"Kornhorn","operatorName":"EQUANS","maxPowerKw":0,"isMegawatt":false,"status":"AVAILABLE","source":"ndw"}},{"type":"Feature","geometry":{"type":"Point","coordinates":[6.396154,53.241667]},"properties":{"type":"charge","layer":"passenger","locationId":"NLLOC004845","name":"NLD, Zuidhorn, Valeriaan 2","address":"Valeriaan 2","city":"Zuidhorn","operatorName":"Allego","maxPowerKw":0,"isMegawatt":false,"status":"AVAILABLE","source":"ndw","priceKwh":0.374}},{"type":"Feature","geometry":{"type":"Point","coordinates":[6.403705,53.24418]},"properties":{"type":"charge","layer":"passenger","locationId":"NLLOC015094","name":"NL, Thomas van de Dijkweg 2, 9801EL, Zuidhorn","address":"Thomas van de Dijkweg 2","city":"Zuidhorn","operatorName":"Allego","maxPowerKw":0,"isMegawatt":false,"status":"AVAILABLE","source":"ndw","priceKwh":0.374}},{"type":"Feature","geometry":{"type":"Point","coordinates":[6.37364,53.17026]},"properties":{"type":"charge","layer":"passenger","locationId":"91145074","name":"Equans Groningen Drenthe Rodenburg 1","address":"Rodenburg 1","city":"Leek","operatorName":"EQUANS","maxPowerKw":0,"isMegawatt":false,"status":"AVAILABLE","source":"ndw"}},{"type":"Feature","geometry":{"type":"Point","coordinates":[6.41359,53.25004]},"properties":{"type":"charge","layer":"passenger","locationId":"91145122","name":"Equans Groningen Drenthe Kumastraat 29","address":"Kumastraat 29","city":"Zuidhorn","operatorName":"EQUANS","maxPowerKw":0,"isMegawatt":false,"status":"AVAILABLE","source":"ndw"}},{"type":"Feature","geometry":{"type":"Point","coordinates":[6.265028,53.118801]},"properties":{"type":"charge","layer":"passenger","locationId":"923349","name":"DAE_NL_2001178","address":"Oosterweg 65","city":"De Wilp","operatorName":"DAEN Mobility","maxPowerKw":22,"isMegawatt":false,"status":"AVAILABLE","source":"ndw","priceKwh":0.4}},{"type":"Feature","geometry":{"type":"Point","coordinates":[6.393331,53.24937]},"properties":{"type":"charge","layer":"passenger","locationId":"91145421","name":"Equans Groningen Drenthe Sportlaan 1 b","address":"Sportlaan 1 b","city":"Zuidhorn","operatorName":"EQUANS","maxPowerKw":0,"isMegawatt":false,"status":"AVAILABLE","source":"ndw"}},{"type":"Feature","geometry":{"type":"Point","coordinates":[6.439122,53.200005]},"properties":{"type":"charge","layer":"passenger","locationId":"NLLOC014729","name":"NL, De Kalverweide 2, 9828 PD Oostwold Gem Leek","address":"De Kalverweide 2","city":"Oostwold Gem Leek","operatorName":"Allego","maxPowerKw":0,"isMegawatt":false,"status":"AVAILABLE","source":"ndw","priceKwh":0.374}},{"type":"Feature","geometry":{"type":"Point","coordinates":[6.367749,53.158291]},"properties":{"type":"charge","layer":"passenger","locationId":"NLLOC027469","name":"NL, 't Emmerrik 9, 9356EG Tolbert","address":"'t Emmerrik 38","city":"Tolbert","operatorName":"Allego","maxPowerKw":0,"isMegawatt":false,"status":"AVAILABLE","source":"ndw","priceKwh":0.374}},{"type":"Feature","geometry":{"type":"Point","coordinates":[6.402429,53.303007]},"properties":{"type":"charge","layer":"passenger","locationId":"91145213","name":"Equans Groningen Drenthe Schipvaart 60","address":"Schipvaart 60","city":"Oldehove","operatorName":"EQUANS","maxPowerKw":0,"isMegawatt":false,"status":"AVAILABLE","source":"ndw"}},{"type":"Feature","geometry":{"type":"Point","coordinates":[6.380131,53.162927]},"properties":{"type":"charge","layer":"passenger","locationId":"NLLOC024185","name":"NL, Waezenburglaan 33, 9351 HB Leek","address":"Waezenburglaan 33","city":"Leek","operatorName":"Allego","maxPowerKw":0,"isMegawatt":false,"status":"AVAILABLE","source":"ndw","priceKwh":0.374}},{"type":"Feature","geometry":{"type":"Point","coordinates":[6.469126,53.317584]},"properties":{"type":"charge","layer":"passenger","locationId":"NLLOC013432","name":"NL, Zijlsterweg 7, 9892 TE Feerwerd","address":"Zijlsterweg 7","city":"Feerwerd","operatorName":"Allego","maxPowerKw":0,"isMegawatt":false,"status":"AVAILABLE","source":"ndw","priceKwh":0.374}},{"type":"Feature","geometry":{"type":"Point","coordinates":[6.276273,53.21395]},"properties":{"type":"charge","layer":"passenger","locationId":"NLLOC022324","name":"NL, Abel Tasmanplein 1, 9861JB Grootegast","address":"Abel Tasmanplein 1","city":"Grootegast","operatorName":"Allego","maxPowerKw":0,"isMegawatt":false,"status":"UNAVAILABLE","source":"ndw","priceKwh":0.374}},{"type":"Feature","geometry":{"type":"Point","coordinates":[6.311795,53.153494]},"properties":{"type":"charge","layer":"passenger","locationId":"668fbffa599b26001c5183b0","name":"V.O.F. Wegrestaurant \"In de Klaver\"","address":"Molenweg 2","city":"Niebert","operatorName":"Pluq","maxPowerKw":22,"isMegawatt":false,"status":"AVAILABLE","source":"ndw","priceKwh":0.35}},{"type":"Feature","geometry":{"type":"Point","coordinates":[6.30535,53.25913]},"properties":{"type":"charge","layer":"passenger","locationId":"91145072","name":"Equans Groningen Drenthe Burmanniastraat 56","address":"Burmanniastraat 56","city":"Grijpskerk","operatorName":"EQUANS","maxPowerKw":0,"isMegawatt":false,"status":"AVAILABLE","source":"ndw"}},{"type":"Feature","geometry":{"type":"Point","coordinates":[6.265714,53.144235]},"properties":{"type":"charge","layer":"passenger","locationId":"91145381","name":"Equans Groningen Drenthe Wendtsteinweg 79","address":"Wendtsteinweg 79","city":"Marum","operatorName":"EQUANS","maxPowerKw":0,"isMegawatt":false,"status":"AVAILABLE","source":"ndw"}},{"type":"Feature","geometry":{"type":"Point","coordinates":[6.465202,53.305567]},"properties":{"type":"charge","layer":"passenger","locationId":"NLLOC013433","name":"NL, Mentaweg 1, 9892 TA Feerwerd","address":"Mentaweg 1","city":"Feerwerd","operatorName":"Allego","maxPowerKw":0,"isMegawatt":false,"status":"AVAILABLE","source":"ndw","priceKwh":0.374}},{"type":"Feature","geometry":{"type":"Point","coordinates":[6.271192,53.142534]},"properties":{"type":"charge","layer":"passenger","locationId":"91145284","name":"Equans Groningen Drenthe Rewerdaheerd 4","address":"Rewerdaheerd 4","city":"Marum","operatorName":"EQUANS","maxPowerKw":0,"isMegawatt":false,"status":"CHARGING","source":"ndw"}},{"type":"Feature","geometry":{"type":"Point","coordinates":[6.396912,53.304559]},"properties":{"type":"charge","layer":"passenger","locationId":"NLLOC006636","name":"NL, Englumstraat 10, 9883PE, Oldehove","address":"Englumstraat 10","city":"Oldehove","operatorName":"Allego","maxPowerKw":0,"isMegawatt":false,"status":"CHARGING","source":"ndw","priceKwh":0.374}},{"type":"Feature","geometry":{"type":"Point","coordinates":[6.3912,53.30212]},"properties":{"type":"charge","layer":"passenger","locationId":"91145068","name":"Equans Groningen Drenthe Buitensingel 57","address":"Buitensingel 57","city":"Oldehove","operatorName":"EQUANS","maxPowerKw":0,"isMegawatt":false,"status":"AVAILABLE","source":"ndw"}},{"type":"Feature","geometry":{"type":"Point","coordinates":[6.352473,53.226325]},"properties":{"type":"charge","layer":"passenger","locationId":"91145078","name":"Equans Groningen Drenthe Menso Fockemalaan 37","address":"Menso Fockemalaan 37","city":"Niekerk","operatorName":"EQUANS","maxPowerKw":0,"isMegawatt":false,"status":"AVAILABLE","source":"ndw"}},{"type":"Feature","geometry":{"type":"Point","coordinates":[6.410582,53.243454]},"properties":{"type":"charge","layer":"passenger","locationId":"91145268","name":"Equans Groningen Drenthe Emmalaan 40","address":"Emmalaan 40","city":"Zuidhorn","operatorName":"EQUANS","maxPowerKw":0,"isMegawatt":false,"status":"AVAILABLE","source":"ndw"}},{"type":"Feature","geometry":{"type":"Point","coordinates":[6.40852,53.25304]},"properties":{"type":"charge","layer":"passenger","locationId":"91256768","name":"Equans Groningen Drenthe Holtven 22","address":"Holtven 22","city":"Zuidhorn","operatorName":"EQUANS","maxPowerKw":0,"isMegawatt":false,"status":"AVAILABLE","source":"ndw"}},{"type":"Feature","geometry":{"type":"Point","coordinates":[6.41093,53.24736]},"properties":{"type":"charge","layer":"passenger","locationId":"91145347","name":"Equans Groningen Drenthe Gemmastraat 7","address":"Gemmastraat 7.","city":"Zuidhorn","operatorName":"EQUANS","maxPowerKw":0,"isMegawatt":false,"status":"AVAILABLE","source":"ndw"}},{"type":"Feature","geometry":{"type":"Point","coordinates":[6.385827,53.159926]},"properties":{"type":"charge","layer":"passenger","locationId":"91145368","name":"Equans Groningen Drenthe Van Panhuyslaan 121","address":"Van Panhuyslaan 121","city":"Leek","operatorName":"EQUANS","maxPowerKw":0,"isMegawatt":false,"status":"AVAILABLE","source":"ndw"}},{"type":"Feature","geometry":{"type":"Point","coordinates":[6.34554,53.12277]},"properties":{"type":"charge","layer":"passenger","locationId":"91256772","name":"Equans Groningen Drenthe Molenweg 7","address":"Molenweg 7","city":"Zevenhuizen","operatorName":"EQUANS","maxPowerKw":0,"isMegawatt":false,"status":"AVAILABLE","source":"ndw"}},{"type":"Feature","geometry":{"type":"Point","coordinates":[6.24342,53.181814]},"properties":{"type":"charge","layer":"passenger","locationId":"NLLOC027073","name":"NL, Kerkweide 33, 9864 PH Kornhorn","address":"Kerkweide 33","city":"Kornhorn","operatorName":"Allego","maxPowerKw":0,"isMegawatt":false,"status":"AVAILABLE","source":"ndw","priceKwh":0.374}},{"type":"Feature","geometry":{"type":"Point","coordinates":[6.362441,53.171282]},"properties":{"type":"charge","layer":"passenger","locationId":"91145285","name":"Equans Groningen Drenthe Meester Boonstraplantsoen 2","address":"Meester Boonstraplantsoen 2","city":"Tolbert","operatorName":"EQUANS","maxPowerKw":0,"isMegawatt":false,"status":"AVAILABLE","source":"ndw"}},{"type":"Feature","geometry":{"type":"Point","coordinates":[6.374888,53.16067]},"properties":{"type":"charge","layer":"passenger","locationId":"91145014","name":"Equans Groningen Drenthe Oldenoert 32","address":"Oldenoert 32","city":"Leek","operatorName":"EQUANS","maxPowerKw":0,"isMegawatt":false,"status":"CHARGING","source":"ndw"}},{"type":"Feature","geometry":{"type":"Point","coordinates":[6.381122,53.163113]},"properties":{"type":"charge","layer":"passenger","locationId":"NLLOC027105","name":"NL, Euroweg 29, 9351 EP Leek","address":"Euroweg 29","city":"Leek","operatorName":"Allego","maxPowerKw":0,"isMegawatt":false,"status":"AVAILABLE","source":"ndw","priceKwh":0.374}},{"type":"Feature","geometry":{"type":"Point","coordinates":[6.338723,53.266861]},"properties":{"type":"charge","layer":"passenger","locationId":"NLLOC013772","name":"NL, Hoofdstraat 92, 9842 PJ Niezijl","address":"Hoofdstraat 92","city":"Niezijl","operatorName":"Allego","maxPowerKw":0,"isMegawatt":false,"status":"CHARGING","source":"ndw","priceKwh":0.374}},{"type":"Feature","geometry":{"type":"Point","coordinates":[6.311671,53.262514]},