{"type":"FeatureCollection","metadata":{"gemeente":"Wierden","slug":"wierden","code":"GM0189","generated_at":"2026-06-02T13:19:22.438Z","total_passenger":104,"total_freight":0,"bounds":[6.468189463937832,52.26931718209817,6.6317828344131975,52.41751414127942],"operators":["Allego","E-Flux by Road","Laadnet","Lanova Laadpalen","Pluq","PureCharged","Vattenfall InCharge"]},"features":[{"type":"Feature","geometry":{"type":"Point","coordinates":[6.576486,52.303918]},"properties":{"type":"charge","layer":"passenger","locationId":"c1d91919ac311da0411a0d2860cbfc03","name":"Berghorst 34","address":"Berghorst 34","city":"Enter","operatorName":"Vattenfall InCharge","maxPowerKw":11,"isMegawatt":false,"status":"AVAILABLE","source":"ndw"}},{"type":"Feature","geometry":{"type":"Point","coordinates":[6.592961,52.358084]},"properties":{"type":"charge","layer":"passenger","locationId":"dacbdd0b-74f1-46cc-afb7-a53ee51f9ac0","name":"Appelhofdwarsstraat","address":"Appelhofdwarsstraat 6","city":"Wierden","operatorName":"Vattenfall InCharge","maxPowerKw":11,"isMegawatt":false,"status":"AVAILABLE","source":"ndw"}},{"type":"Feature","geometry":{"type":"Point","coordinates":[6.606135,52.360125]},"properties":{"type":"charge","layer":"passenger","locationId":"c7a25fd4d393bd32c6fcdb34cf0d10fc","name":"Alsemhof 3","address":"Alsemhof 3","city":"Wierden","operatorName":"Vattenfall InCharge","maxPowerKw":11,"isMegawatt":false,"status":"CHARGING","source":"ndw"}},{"type":"Feature","geometry":{"type":"Point","coordinates":[6.559336,52.287923]},"properties":{"type":"charge","layer":"passenger","locationId":"67375ed80cc2e5bfd4d3b05a","name":"de Bree 8","address":"De Bree 8","city":"Enter","operatorName":"Lanova Laadpalen","maxPowerKw":21,"isMegawatt":false,"status":"AVAILABLE","source":"ndw"}},{"type":"Feature","geometry":{"type":"Point","coordinates":[6.559216,52.413424]},"properties":{"type":"charge","layer":"passenger","locationId":"696a051063beb234fbb3533f","name":"Recreatiepark De Tolplas Tiny Houses Rechts","address":"Hexelseweg 80","city":"Hoge Hexel","operatorName":"PureCharged","maxPowerKw":11,"isMegawatt":false,"status":"AVAILABLE","source":"ndw"}},{"type":"Feature","geometry":{"type":"Point","coordinates":[6.602164,52.360929]},"properties":{"type":"charge","layer":"passenger","locationId":"0604e566-8393-11eb-96fb-42010a840003","name":"NL, Korianderhof 14, 7641 XL Wierden","address":"Korianderhof 14","city":"Wierden","operatorName":"Allego","maxPowerKw":0,"isMegawatt":false,"status":"AVAILABLE","source":"ndw"}},{"type":"Feature","geometry":{"type":"Point","coordinates":[6.520227,52.334341]},"properties":{"type":"charge","layer":"passenger","locationId":"c87513fc-476c-4bbf-9f3b-b921d76da9d3","name":"Van Kregtenweg 9","address":"Van Kregtenweg 9","city":"Notter","operatorName":"Vattenfall InCharge","maxPowerKw":11,"isMegawatt":false,"status":"AVAILABLE","source":"ndw"}},{"type":"Feature","geometry":{"type":"Point","coordinates":[6.55893,52.293752]},"properties":{"type":"charge","layer":"passenger","locationId":"62e25d8a031fc299170cdec1","name":"Raamdecoratie.com","address":"De Bleek 9","city":"Enter","operatorName":"E-Flux by Road","maxPowerKw":22,"isMegawatt":false,"status":"AVAILABLE","source":"ndw"}},{"type":"Feature","geometry":{"type":"Point","coordinates":[6.549051,52.325997]},"properties":{"type":"charge","layer":"passenger","locationId":"6593cea86311de001c36becf","name":"Zeggertweg","address":"Zeggertweg 2","city":"Wierden","operatorName":"E-Flux by Road","maxPowerKw":22,"isMegawatt":false,"status":"AVAILABLE","source":"ndw"}},{"type":"Feature","geometry":{"type":"Point","coordinates":[6.573489,52.291293]},"properties":{"type":"charge","layer":"passenger","locationId":"9850f9d83a3f67f0f13ba11b805ab49d","name":"Margrietlaan 3","address":"Margrietlaan 3","city":"Enter","operatorName":"Vattenfall InCharge","maxPowerKw":11,"isMegawatt":false,"status":"AVAILABLE","source":"ndw"}},{"type":"Feature","geometry":{"type":"Point","coordinates":[6.599894,52.367653]},"properties":{"type":"charge","layer":"passenger","locationId":"8c3df64b342244f45f1315d1c247da55","name":"Hooiland 87","address":"Hooiland 87","city":"Wierden","operatorName":"Vattenfall InCharge","maxPowerKw":11,"isMegawatt":false,"status":"AVAILABLE","source":"ndw"}},{"type":"Feature","geometry":{"type":"Point","coordinates":[6.609195,52.361575]},"properties":{"type":"charge","layer":"passenger","locationId":"2d3eb8dc-a238-11eb-80e6-42010a840003","name":"NL, Korianderhof 265, 7641 XN Wierden","address":"Korianderhof 265","city":"Wierden","operatorName":"Allego","maxPowerKw":0,"isMegawatt":false,"status":"AVAILABLE","source":"ndw"}},{"type":"Feature","geometry":{"type":"Point","coordinates":[6.573038,52.289698]},"properties":{"type":"charge","layer":"passenger","locationId":"61c4598d14be438002a2371d","name":"Marijkelaan 11 - ENTER","address":"Marijkelaan 11","city":"Enter","operatorName":"E-Flux by Road","maxPowerKw":22,"isMegawatt":false,"status":"AVAILABLE","source":"ndw"}},{"type":"Feature","geometry":{"type":"Point","coordinates":[6.592095,52.356168]},"properties":{"type":"charge","layer":"passenger","locationId":"18d37db4-8c36-11eb-9f7a-42010a840003","name":"NL,Tolgaarde 34, 7642 EZ Wierden","address":"Tolgaarde 34","city":"Wierden","operatorName":"Allego","maxPowerKw":0,"isMegawatt":false,"status":"AVAILABLE","source":"ndw"}},{"type":"Feature","geometry":{"type":"Point","coordinates":[6.589528,52.352676]},"properties":{"type":"charge","layer":"passenger","locationId":"NLLOC016287","name":"NL, Waterspoor 37, 7642 VH Wierden","address":"Waterspoor 37","city":"Wierden","operatorName":"Allego","maxPowerKw":0,"isMegawatt":false,"status":"AVAILABLE","source":"ndw"}},{"type":"Feature","geometry":{"type":"Point","coordinates":[6.585878,52.361904]},"properties":{"type":"charge","layer":"passenger","locationId":"4894481","name":"Laadnet Samitex Stoffen","address":"Violenhoeksweg 15","city":"Wierden","operatorName":"Laadnet","maxPowerKw":22,"isMegawatt":false,"status":"AVAILABLE","source":"ndw"}},{"type":"Feature","geometry":{"type":"Point","coordinates":[6.600274,52.366672]},"properties":{"type":"charge","layer":"passenger","locationId":"654cc2acb39887001b54630e","name":"laadpaal Tijhof","address":"Hooiland 30","city":"Wierden","operatorName":"E-Flux by Road","maxPowerKw":11,"isMegawatt":false,"status":"AVAILABLE","source":"ndw"}},{"type":"Feature","geometry":{"type":"Point","coordinates":[6.601663,52.375537]},"properties":{"type":"charge","layer":"passenger","locationId":"6a0ae61acf6b4ad57a3fa11a","name":"Jsf infra B.v.  Laadstation","address":"vijverweg  8d","city":"Wierden","operatorName":"E-Flux by Road","maxPowerKw":22,"isMegawatt":false,"status":"AVAILABLE","source":"ndw"}},{"type":"Feature","geometry":{"type":"Point","coordinates":[6.573423,52.274705]},"properties":{"type":"charge","layer":"passenger","locationId":"652947cc1fbc77001c5ccf97","name":"Kleilutte vakantiepark","address":"Zuiderveldsweg 1a","city":"Enter","operatorName":"E-Flux by Road","maxPowerKw":22,"isMegawatt":false,"status":"AVAILABLE","source":"ndw"}},{"type":"Feature","geometry":{"type":"Point","coordinates":[6.604531,52.356233]},"properties":{"type":"charge","layer":"passenger","locationId":"618659a39846f8287a690ffc","name":"Huisartsenpraktijk de Korenaar","address":"Almelosestraat 46a","city":"Wierden","operatorName":"E-Flux by Road","maxPowerKw":22,"isMegawatt":false,"status":"AVAILABLE","source":"ndw"}},{"type":"Feature","geometry":{"type":"Point","coordinates":[6.588403,52.355373]},"properties":{"type":"charge","layer":"passenger","locationId":"NLLOC016063","name":"NL, Wilhelminastraat 2, 7642CN, Wierden","address":"Wilhelminastraat 2","city":"Wierden","operatorName":"Allego","maxPowerKw":0,"isMegawatt":false,"status":"AVAILABLE","source":"ndw"}},{"type":"Feature","geometry":{"type":"Point","coordinates":[6.575571,52.285361]},"properties":{"type":"charge","layer":"passenger","locationId":"63692849dfc7e5a2a26052ea","name":"Akkodis Enter","address":"Veldegge 16","city":"Enter","operatorName":"E-Flux by Road","maxPowerKw":11,"isMegawatt":false,"status":"AVAILABLE","source":"ndw"}},{"type":"Feature","geometry":{"type":"Point","coordinates":[6.585341,52.355171]},"properties":{"type":"charge","layer":"passenger","locationId":"5ab91704-90ee-11eb-b0c4-42010a840003","name":"NL, J. Evertsenstraat 21, 7642 CE, Wierden","address":"J. Evertsenstraat 21","city":"Wierden","operatorName":"Allego","maxPowerKw":0,"isMegawatt":false,"status":"AVAILABLE","source":"ndw"}},{"type":"Feature","geometry":{"type":"Point","coordinates":[6.581355,52.358025]},"properties":{"type":"charge","layer":"passenger","locationId":"6cbf3f14-060a-11ec-ad05-42010a840003","name":"NL, Jalinkstraat 11, 7642BA, Wierden","address":"Jalinkstraat 11","city":"Wierden","operatorName":"Allego","maxPowerKw":0,"isMegawatt":false,"status":"AVAILABLE","source":"ndw"}},{"type":"Feature","geometry":{"type":"Point","coordinates":[6.555796,52.413634]},"properties":{"type":"charge","layer":"passenger","locationId":"696a0572ffaffacbd4aac7cb","name":"Recreatiepark De Tolplas Groepsaccommodaties","address":"Hexelseweg 80","city":"Hoge Hexel","operatorName":"PureCharged","maxPowerKw":11,"isMegawatt":false,"status":"AVAILABLE","source":"ndw"}},{"type":"Feature","geometry":{"type":"Point","coordinates":[6.596624,52.364778]},"properties":{"type":"charge","layer":"passenger","locationId":"61add7410c2adddc67cc87d9","name":"Station 2","address":"Gildenweg 4","city":"Wierden","operatorName":"E-Flux by Road","maxPowerKw":22,"isMegawatt":false,"status":"AVAILABLE","source":"ndw"}},{"type":"Feature","geometry":{"type":"Point","coordinates":[6.585694,52.359883]},"properties":{"type":"charge","layer":"passenger","locationId":"f0ee4402-1819-11ed-b3a0-42010aa40fc0","name":"NL, Aanslagdwarsstraat 9, 7641BP Wierden","address":"Aanslagdwarsstraat 9","city":"Wierden","operatorName":"Allego","maxPowerKw":0,"isMegawatt":false,"status":"AVAILABLE","source":"ndw"}},{"type":"Feature","geometry":{"type":"Point","coordinates":[6.589528,52.352676]},"properties":{"type":"charge","layer":"passenger","locationId":"c060cca4-110a-11ec-b2a9-42010a840003","name":"NL, Waterspoor 37, 7642 VH Wierden","address":"Waterspoor 37","city":"Wierden","operatorName":"Allego","maxPowerKw":0,"isMegawatt":false,"status":"AVAILABLE","source":"ndw"}},{"type":"Feature","geometry":{"type":"Point","coordinates":[6.595144,52.351597]},"properties":{"type":"charge","layer":"passenger","locationId":"fd8ab80e-4d2c-11ea-b4f9-42010a840003","name":"NL, De Tureluur 31, 7642JE, Wierden","address":"De Tureluur 31","city":"Wierden","operatorName":"Allego","maxPowerKw":0,"isMegawatt":false,"status":"AVAILABLE","source":"ndw"}},{"type":"Feature","geometry":{"type":"Point","coordinates":[6.564062,52.342258]},"properties":{"type":"charge","layer":"passenger","locationId":"62da66845d5771af3192a3e7","name":"Golfclub de Koepel","address":"Rijssensestraat 142a","city":"Wierden","operatorName":"E-Flux by Road","maxPowerKw":11,"isMegawatt":false,"status":"AVAILABLE","source":"ndw"}},{"type":"Feature","geometry":{"type":"Point","coordinates":[6.579568,52.298943]},"properties":{"type":"charge","layer":"passenger","locationId":"3a9fb5e8-c4cb-11eb-be1c-42010a840003","name":"NL, Horstinksteeg 23, 7468 ET Enter","address":"Horstinksteeg 23","city":"Enter","operatorName":"Allego","maxPowerKw":0,"isMegawatt":false,"status":"AVAILABLE","source":"ndw"}},{"type":"Feature","geometry":{"type":"Point","coordinates":[6.571755,52.295078]},"properties":{"type":"charge","layer":"passenger","locationId":"cb62fa0c-fc5a-11ea-a9e8-42010a840003","name":"NL, Daalakkers 21 7468DA Enter","address":"Daalakkers 21","city":"Enter","operatorName":"Allego","maxPowerKw":0,"isMegawatt":false,"status":"AVAILABLE","source":"ndw"}},{"type":"Feature","geometry":{"type":"Point","coordinates":[6.578099,52.293811]},"properties":{"type":"charge","layer":"passenger","locationId":"f853482a-82c7-11eb-8d81-42010a840003","name":"NL, Middenplein 12, 7468 NA Enter","address":"Middenplein 12","city":"Enter","operatorName":"Allego","maxPowerKw":0,"isMegawatt":false,"status":"AVAILABLE","source":"ndw"}},{"type":"Feature","geometry":{"type":"Point","coordinates":[6.588403,52.355373]},"properties":{"type":"charge","layer":"passenger","locationId":"7d32d46a-ba96-11eb-8325-42010a840003","name":"NL, Wilhelminastraat 2, 7642CN, Wierden","address":"Wilhelminastraat 2","city":"Wierden","operatorName":"Allego","maxPowerKw":0,"isMegawatt":false,"status":"AVAILABLE","source":"ndw"}},{"type":"Feature","geometry":{"type":"Point","coordinates":[6.572148,52.292888]},"properties":{"type":"charge","layer":"passenger","locationId":"85abb0b6-aa51-11ec-a63f-42010a840003","name":"NL, Putman Cramerstraat 9, 7468 BG Enter","address":"Putman Cramerstraat 9","city":"Wierden","operatorName":"Allego","maxPowerKw":0,"isMegawatt":false,"status":"AVAILABLE","source":"ndw"}},{"type":"Feature","geometry":{"type":"Point","coordinates":[6.581055,52.360272]},"properties":{"type":"charge","layer":"passenger","locationId":"5e09eb775fd66ee4310cbe020b8d0257","name":"Nijverdalsestraat 95B","address":"Nijverdalsestraat 95B","city":"Wierden","operatorName":"Vattenfall InCharge","maxPowerKw":11,"isMegawatt":false,"status":"AVAILABLE","source":"ndw"}},{"type":"Feature","geometry":{"type":"Point","coordinates":[6.581553,52.36397]},"properties":{"type":"charge","layer":"passenger","locationId":"6221e5fd41c64735413390d2","name":"Niels Hobert 's station","address":"Dorperesch 21","city":"Wierden","operatorName":"E-Flux by Road","maxPowerKw":22,"isMegawatt":false,"status":"AVAILABLE","source":"ndw"}},{"type":"Feature","geometry":{"type":"Point","coordinates":[6.600163,52.376748]},"properties":{"type":"charge","layer":"passenger","locationId":"698b4871b461c47dde67160d","name":"Marco Jannink 's station","address":"Wetering 7","city":"Wierden","operatorName":"Lanova Laadpalen","maxPowerKw":22,"isMegawatt":false,"status":"AVAILABLE","source":"ndw"}},{"type":"Feature","geometry":{"type":"Point","coordinates":[6.590966,52.357302]},"properties":{"type":"charge","layer":"passenger","locationId":"6be0b363-62ec-4483-a22f-6117dd30bc54","name":"Binnenhof 13","address":"Binnenhof 13","city":"Wierden","operatorName":"Vattenfall InCharge","maxPowerKw":11,"isMegawatt":false,"status":"AVAILABLE","source":"ndw"}},{"type":"Feature","geometry":{"type":"Point","coordinates":[6.532554,52.317495]},"properties":{"type":"charge","layer":"passenger","locationId":"6909c376d137950ce51b4233","name":"WayPoint / Runnersworld Twente","address":"Rijssensestraat 170","city":"Wierden","operatorName":"E-Flux by Road","maxPowerKw":22,"isMegawatt":false,"status":"AVAILABLE","source":"ndw"}},{"type":"Feature","geometry":{"type":"Point","coordinates":[6.564062,52.342258]},"properties":{"type":"charge","layer":"passenger","locationId":"62da68803b634363e372df11","name":"Golfclub de Koepel Wierden","address":"Rijssensestraat 142a","city":"Wierden","operatorName":"E-Flux by Road","maxPowerKw":22,"isMegawatt":false,"status":"AVAILABLE","source":"ndw"}},{"type":"Feature","geometry":{"type":"Point","coordinates":[6.583542,52.35238]},"properties":{"type":"charge","layer":"passenger","locationId":"6752bb2a00abf45f409e04c5","name":"De Passie Wierden Links","address":"Esrand 2","city":"Wierden","operatorName":"E-Flux by Road","maxPowerKw":22,"isMegawatt":false,"status":"AVAILABLE","source":"ndw"}},{"type":"Feature","geometry":{"type":"Point","coordinates":[6.559086,52.413638]},"properties":{"type":"charge","layer":"passenger","locationId":"678e2bea1a7a06b51be20859","name":"Recreatiepark De Tolplas Tiny Houses links","address":"Hexelseweg 80","city":"Hoge Hexel","operatorName":"PureCharged","maxPowerKw":11,"isMegawatt":false,"status":"AVAILABLE","source":"ndw"}},{"type":"Feature","geometry":{"type":"Point","coordinates":[6.587308,52.383906]},"properties":{"type":"charge","layer":"passenger","locationId":"609bc6bef1783b396874e979","name":"Buitengoed Lageveld E station","address":"Boomsweg 1","city":"Hoge Hexel","operatorName":"E-Flux by Road","maxPowerKw":22,"isMegawatt":false,"status":"AVAILABLE","source":"ndw"}},{"type":"Feature","geometry":{"type":"Point","coordinates":[6.575301,52.295567]},"properties":{"type":"charge","layer":"passenger","locationId":"66a0dbeda6e6f9001c20d1d0","name":"Reggewoon","address":"Doktershof 15","city":"Enter","operatorName":"Pluq","maxPowerKw":14,"isMegawatt":false,"status":"AVAILABLE","source":"ndw"}},{"type":"Feature","geometry":{"type":"Point","coordinates":[6.581113,52.364453]},"properties":{"type":"charge","layer":"passenger","locationId":"a875c9d9-e127-42c1-9a52-7096f4c4d353","name":"Eschwal","address":"Eschwal 1","city":"Wierden","operatorName":"Vattenfall InCharge","maxPowerKw":11,"isMegawatt":false,"status":"AVAILABLE","source":"ndw"}},{"type":"Feature","geometry":{"type":"Point","coordinates":[6.578099,52.293811]},"properties":{"type":"charge","layer":"passenger","locationId":"NLLOC015170","name":"NL, Middenplein 12, 7468 NA Enter","address":"Middenplein 12","city":"Enter","operatorName":"Allego","maxPowerKw":0,"isMegawatt":false,"status":"AVAILABLE","source":"ndw"}},{"type":"Feature","geometry":{"type":"Point","coordinates":[6.571755,52.295078]},"properties":{"type":"charge","layer":"passenger","locationId":"NLLOC010662","name":"NL, Daalakkers 21 7468DA Enter","address":"Daalakkers 21","city":"Enter","operatorName":"Allego","maxPowerKw":0,"isMegawatt":false,"status":"AVAILABLE","source":"ndw"}},{"type":"Feature","geometry":{"type":"Point","coordinates":[6.58782,52.357367]},"properties":{"type":"charge","layer":"passenger","locationId":"65dc224d227f309a9ec3b4661375e1c1","name":"Marktstraat  74","address":"Marktstraat  74","city":"Wierden","operatorName":"Vattenfall InCharge","maxPowerKw":11,"isMegawatt":false,"status":"AVAILABLE","source":"ndw"}},{"type":"Feature","geometry":{"type":"Point","coordinates":[6.595136,52.360774]},"properties":{"type":"charge","layer":"passenger","locationId":"682a2cd2-33a2-4b72-9501-32388f99e37b","name":"Anjelierstraat","address":"Anjelierstraat 4","city":"Wierden","operatorName":"Vattenfall InCharge","maxPowerKw":11,"isMegawatt":false,"status":"AVAILABLE","source":"ndw"}},{"type":"Feature","geometry":{"type":"Point","coordinates":[6.592803,52.355351]},"properties":{"type":"charge","layer":"passenger","locationId":"724d4031f161d38c11fba66b26439973","name":"Plantsoenlaan 24","address":"Plantsoenlaan 24","city":"Wierden","operatorName":"Vattenfall InCharge","maxPowerKw":11,"isMegawatt":false,"status":"AVAILABLE","source":"ndw"}},{"type":"Feature","geometry":{"type":"Point","coordinates":[6.583542,52.35238]},"properties":{"type":"charge","layer":"passenger","locationId":"6752ba711fc99a854f11b058","name":"De Passie Wierden Rechts","address":"Esrand  2","city":"Wierden","operatorName":"E-Flux by Road","maxPowerKw":22,"isMegawatt":false,"status":"AVAILABLE","source":"ndw"}},{"type":"Feature","geometry":{"type":"Point","coordinates":[6.572148,52.292888]},"properties":{"type":"charge","layer":"passenger","locationId":"NLLOC021814","name":"NL, Putman Cramerstraat 9, 7468 BG Enter","address":"Putman Cramerstraat 9","city":"Wierden","operatorName":"Allego","maxPowerKw":0,"isMegawatt":false,"status":"AVAILABLE","source":"ndw"}},{"type":"Feature","geometry":{"type":"Point","coordinates":[6.573396,52.274702]},"properties":{"type":"charge","layer":"passenger","locationId":"6529488c1fbc77001c5d2006","name":"Kleilutte vakantiepark","address":"Zuiderveldsweg 1a","city":"1a","operatorName":"E-Flux by Road","maxPowerKw":22,"isMegawatt":false,"status":"AVAILABLE","source":"ndw"}},{"type":"Feature","geometry":{"type":"Point","coordinates":[6.579519,52.295631]},"properties":{"type":"charge","layer":"passenger","locationId":"8e4bedf6-6400-4d80-91bb-a68ca0c2f385","name":"Oude Pastoriestraat","address":"Oude Pastoriestraat 6","city":"Enter","operatorName":"Vattenfall InCharge","maxPowerKw":11,"isMegawatt":false,"status":"AVAILABLE","source":"ndw"}},{"type":"Feature","geometry":{"type":"Point","coordinates":[6.585694,52.359883]},"properties":{"type":"charge","layer":"passenger","locationId":"NLLOC021083","name":"NL, Aanslagdwarsstraat 9, 7641BP Wierden","address":"Aanslagdwarsstraat 9","city":"Wierden","operatorName":"Allego","maxPowerKw":0,"isMegawatt":false,"status":"AVAILABLE","source":"ndw"}},{"type":"Feature","geometry":{"type":"Point","coordinates":[6.57127,52.290359]},"properties":{"type":"charge","layer":"passenger","locationId":"d6534c9d-98c9-486e-80a6-40d2e83c7c8a","name":"Disselsweg 79","address":"Disselsweg 79","city":"Enter","operatorName":"Vattenfall InCharge","maxPowerKw":11,"isMegawatt":false,"status":"AVAILABLE","source":"ndw"}},{"type":"Feature","geometry":{"type":"Point","coordinates":[6.561497,52.383777]},"properties":{"type":"charge","layer":"passenger","locationId":"645d011e9e9c32001248eb79","name":"Daan Wakker 's station","address":"Bruine Hoopsweg  6-250","city":"Hoge Hexel","operatorName":"Lanova Laadpalen","maxPowerKw":11,"isMegawatt":false,"status":"UNAVAILABLE","source":"ndw"}},{"type":"Feature","geometry":{"type":"Point","coordinates":[6.579568,52.298943]},"properties":{"type":"charge","layer":"passenger","locationId":"NLLOC013057","name":"NL, Horstinksteeg 23, 7468 ET Enter","address":"Horstinksteeg 23","city":"Enter","operatorName":"Allego","maxPowerKw":0,"isMegawatt":false,"status":"AVAILABLE","source":"ndw"}},{"type":"Feature","geometry":{"type":"Point","coordinates":[6.591422,52.349885]},"properties":{"type":"charge","layer":"passenger","locationId":"69f8a15d-42df-4202-a41a-4f4638bb26f8","name":"Waterloop","address":"Waterloop 13","city":"Wierden","operatorName":"Vattenfall InCharge","maxPowerKw":11,"isMegawatt":false,"status":"AVAILABLE","source":"ndw"}},{"type":"Feature","geometry":{"type":"Point","coordinates":[6.588521,52.383356]},"properties":{"type":"charge","layer":"passenger","locationId":"609bc7714262fe9aa64a2523","name":"Buitengoed het Lageveld E station","address":"Boomsweg 1","city":"Hoge Hexel","operatorName":"E-Flux by Road","maxPowerKw":22,"isMegawatt":false,"status":"CHARGING","source":"ndw"}},{"type":"Feature","geometry":{"type":"Point","coordinates":[6.557993,52.381934]},"properties":{"type":"charge","layer":"passenger","locationId":"64ad528d5e8dd9001c7361b0","name":"Jong - Hoge Hexel Bruine Hoopsweg 6-62","address":"Bruinhoopsweg 6-62","city":"Hoge Hexel","operatorName":"E-Flux by Road","maxPowerKw":22,"isMegawatt":false,"status":"AVAILABLE","source":"ndw"}},{"type":"Feature","geometry":{"type":"Point","coordinates":[6.573596,52.286168]},"properties":{"type":"charge","layer":"passenger","locationId":"661525298b91c7001c9a9f3a","name":"Veldegge 10","address":"Veldegge 10","city":"Enter","operatorName":"Lanova Laadpalen","maxPowerKw":11,"isMegawatt":false,"status":"AVAILABLE","source":"ndw"}},{"type":"Feature","geometry":{"type":"Point","coordinates":[6.606309,52.358524]},"properties":{"type":"charge","layer":"passenger","locationId":"870e27c68fada76dfe01f53a462aeb12","name":"Marjoleinlaan 45","address":"Marjoleinlaan 45","city":"Wierden","operatorName":"Vattenfall InCharge","maxPowerKw":11,"isMegawatt":false,"status":"AVAILABLE","source":"ndw"}},{"type":"Feature","geometry":{"type":"Point","coordinates":[6.585341,52.355171]},"properties":{"type":"charge","layer":"passenger","locationId":"NLLOC012499","name":"NL, J. Evertsenstraat 21, 7642 CE, Wierden","address":"J. Evertsenstraat 21","city":"Wierden","operatorName":"Allego","maxPowerKw":0,"isMegawatt":false,"status":"AVAILABLE","source":"ndw"}},{"type":"Feature","geometry":{"type":"Point","coordinates":[6.603297,52.375115]},"properties":{"type":"charge","layer":"passenger","locationId":"685e5e7d48d621cd148a3956","name":"Vijverweg 4","address":"Vijverweg 4","city":"Wierden","operatorName":"E-Flux by Road","maxPowerKw":22,"isMegawatt":false,"status":"AVAILABLE","source":"ndw"}},{"type":"Feature","geometry":{"type":"Point","coordinates":[6.581355,52.358025]},"properties":{"type":"charge","layer":"passenger","locationId":"NLLOC014603","name":"NL, Jalinkstraat 11, 7642BA, Wierden","address":"Jalinkstraat 11","city":"Wierden","operatorName":"Allego","maxPowerKw":0,"isMegawatt":false,"status":"AVAILABLE","source":"ndw"}},{"type":"Feature","geometry":{"type":"Point","coordinates":[6.594382,52.360158]},"properties":{"type":"charge","layer":"passenger","locationId":"6ecfe547-e0df-48c3-b58e-4d32df025478","name":"Dikkensweg","address":"Dikkensweg 18","city":"Wierden","operatorName":"Vattenfall InCharge","maxPowerKw":11,"isMegawatt":false,"status":"CHARGING","source":"ndw"}},{"type":"Feature","geometry":{"type":"Point","coordinates":[6.589836,52.358803]},"properties":{"type":"charge","layer":"passenger","locationId":"20e78a4b-665a-4a29-b4b6-47cc480a26f5","name":"Nijverdalsestraat","address":"Nijverdalsestraat 34","city":"Wierden","operatorName":"Vattenfall InCharge","maxPowerKw":11,"isMegawatt":false,"status":"AVAILABLE","source":"ndw"}},{"type":"Feature","geometry":{"type":"Point","coordinates":[6.590531,52.352476]},"properties":{"type":"charge","layer":"passenger","locationId":"fa949cbe9cec68e27eab492b03f10d97","name":"Waterspoor 23","address":"Waterspoor 23","city":"Wierden","operatorName":"Vattenfall InCharge","maxPowerKw":11,"isMegawatt":false,"status":"AVAILABLE","source":"ndw"}},{"type":"Feature","geometry":{"type":"Point","coordinates":[6.573819,52.300471]},"properties":{"type":"charge","layer":"passenger","locationId":"c27ea152-21b6-40a0-b699-48772368bef3","name":"De Akkers","address":"De Akkers 38","city":"Enter","operatorName":"Vattenfall InCharge","maxPowerKw":11,"isMegawatt":false,"status":"AVAILABLE","source":"ndw"}},{"type":"Feature","geometry":{"type":"Point","coordinates":[6.584446,52.289255]},"properties":{"type":"charge","layer":"passenger","locationId":"bd599897dff51441dcb4be06aef8bd42","name":"Erve Roerinck 50","address":"Erve Roerinck 50","city":"Enter","operatorName":"Vattenfall InCharge","maxPowerKw":11,"isMegawatt":false,"status":"AVAILABLE","source":"ndw"}},{"type":"Feature","geometry":{"type":"Point","coordinates":[6.612236,52.289394]},"properties":{"type":"charge","layer":"passenger","locationId":"662a61714bae87001cb1300d","name":"Landgoed Het Rheins","address":"Reintszijweg 5","city":"Enter","operatorName":"Pluq","maxPowerKw":22,"isMegawatt":false,"status":"AVAILABLE","source":"ndw"}},{"type":"Feature","geometry":{"type":"Point","coordinates":[6.60316,52.362788]},"properties":{"type":"charge","layer":"passenger","locationId":"d5ca5362bdd8088e75a65e7c399c64db","name":"Europa-Ring 121","address":"Europa-Ring 121","city":"Wierden","operatorName":"Vattenfall InCharge","maxPowerKw":11,"isMegawatt":false,"status":"AVAILABLE","source":"ndw"}},{"type":"Feature","geometry":{"type":"Point","coordinates":[6.595144,52.351597]},"properties":{"type":"charge","layer":"passenger","locationId":"NLLOC007242","name":"NL, De Tureluur 31, 7642JE, Wierden","address":"De Tureluur 31","city":"Wierden","operatorName":"Allego","maxPowerKw":0,"isMegawatt":false,"status":"AVAILABLE","source":"ndw"}},{"type":"Feature","geometry":{"type":"Point","coordinates":[6.602164,52.360929]},"properties":{"type":"charge","layer":"passenger","locationId":"NLLOC010841","name":"NL, Korianderhof 14, 7641 XL Wierden","address":"Korianderhof 14","city":"Wierden","operatorName":"Allego","maxPowerKw":0,"isMegawatt":false,"status":"AVAILABLE","source":"ndw"}},{"type":"Feature","geometry":{"type":"Point","coordinates":[6.600358,52.359423]},"properties":{"type":"charge","layer":"passenger","locationId":"6e322cb25d7a98aa84804b088efe17c1","name":"Rozenstraat 2","address":"Rozenstraat 2","city":"Wierden","operatorName":"Vattenfall InCharge","maxPowerKw":11,"isMegawatt":false,"status":"AVAILABLE","source":"ndw"}},{"type":"Feature","geometry":{"type":"Point","coordinates":[6.598086,52.366124]},"properties":{"type":"charge","layer":"passenger","locationId":"639dcdfb383a95a965347cdce59bda85","name":"Hooiland 13","address":"Hooiland 13","city":"Wierden","operatorName":"Vattenfall InCharge","maxPowerKw":11,"isMegawatt":false,"status":"AVAILABLE","source":"ndw"}},{"type":"Feature","geometry":{"type":"Point","coordinates":[6.609195,52.361575]},"properties":{"type":"charge","layer":"passenger","locationId":"NLLOC027686","name":"NL, Korianderhof 265, 7641 XN Wierden","address":"Korianderhof 265","city":"Wierden","operatorName":"Allego","maxPowerKw":0,"isMegawatt":false,"status":"AVAILABLE","source":"ndw"}},{"type":"Feature","geometry":{"type":"Point","coordinates":[6.576823,52.289678]},"properties":{"type":"charge","layer":"passenger","locationId":"cfc8ac22e71c342f49ed1b799f17b8fa","name":"Reggestraat 137","address":"Reggestraat 137","city":"Enter","operatorName":"Vattenfall InCharge","maxPowerKw":11,"isMegawatt":false,"status":"AVAILABLE","source":"ndw"}},{"type":"Feature","geometry":{"type":"Point","coordinates":[6.599402,52.370922]},"properties":{"type":"charge","layer":"passenger","locationId":"c0b33007-c4ef-4717-b5fe-b0d64d24ca81","name":"Spinnewiel","address":"Spinnewiel 7","city":"Wierden","operatorName":"Vattenfall InCharge","maxPowerKw":11,"isMegawatt":false,"status":"AVAILABLE","source":"ndw"}},{"type":"Feature","geometry":{"type":"Point","coordinates":[6.583449,52.299353]},"properties":{"type":"charge","layer":"passenger","locationId":"9637bc62a5c7d2fba4916336d0b8f64a","name":"Werfstraat 19","address":"Werfstraat 19","city":"Enter","operatorName":"Vattenfall InCharge","maxPowerKw":11,"isMegawatt":false,"status":"AVAILABLE","source":"ndw"}},{"type":"Feature","geometry":{"type":"Point","coordinates":[6.576847,52.297531]},"properties":{"type":"charge","layer":"passenger","locationId":"c212a76f8864e4204abfdf4eaeceb736","name":"Hogebrink 15B","address":"Hogebrink 15B","city":"Enter","operatorName":"Vattenfall InCharge","maxPowerKw":11,"isMegawatt":false,"status":"AVAILABLE","source":"ndw"}},{"type":"Feature","geometry":{"type":"Point","coordinates":[6.573326,52.274659]},"properties":{"type":"charge","layer":"passenger","locationId":"6177d68cefa46730b5806960","name":"Vincent Rustebiel","address":"Zuiderveldsweg 1a","city":"Enter","operatorName":"E-Flux by Road","maxPowerKw":11,"isMegawatt":false,"status":"AVAILABLE","source":"ndw"}},{"type":"Feature","geometry":{"type":"Point","coordinates":[6.587248,52.372138]},"properties":{"type":"charge","layer":"passenger","locationId":"f5ef0cb8-3136-4d34-9037-92f1c94a6f1b","name":"2e Lageveldsweg 3c","address":"2e Lageveldsweg 3c","city":"Wierden","operatorName":"Vattenfall InCharge","maxPowerKw":11,"isMegawatt":false,"status":"AVAILABLE","source":"ndw"}},{"type":"Feature","geometry":{"type":"Point","coordinates":[6.491951,52.338855]},"properties":{"type":"charge","layer":"passenger","locationId":"2656054","name":"Laadnet Baan Twente BV Rijssen","address":"Provincialeweg Zuna 2","city":"Rijssen","operatorName":"Laadnet","maxPowerKw":22,"isMegawatt":false,"status":"AVAILABLE","source":"ndw"}},{"type":"Feature","geometry":{"type":"Point","coordinates":[6.597173,52.367753]},"properties":{"type":"charge","layer":"passenger","locationId":"8b804a604988388fd2cb5efde55ee1a5","name":"Hooiland 117","address":"Hooiland 117","city":"Wierden","operatorName":"Vattenfall InCharge","maxPowerKw":11,"isMegawatt":false,"status":"AVAILABLE","source":"ndw"}},{"type":"Feature","geometry":{"type":"Point","coordinates":[6.57662,52.29662]},"properties":{"type":"charge","layer":"passenger","locationId":"54d6085bfeabfa223be17389c333acd6","name":"Het Reggedal 16","address":"Het Reggedal 16","city":"Enter","operatorName":"Vattenfall InCharge","maxPowerKw":11,"isMegawatt":false,"status":"AVAILABLE","source":"ndw"}},{"type":"Feature","geometry":{"type":"Point","coordinates":[6.576297,52.357454]},"properties":{"type":"charge","layer":"passenger","locationId":"e97f32cad0fb40485504149f7d926bc9","name":"Chris Soumokilstraat 83","address":"Chris Soumokilstraat 83","city":"Wierden","operatorName":"Vattenfall InCharge","maxPowerKw":11,"isMegawatt":false,"status":"AVAILABLE","source":"ndw"}},{"type":"Feature","geometry":{"type":"Point","coordinates":[6.568321,52.285004]},"properties":{"type":"charge","layer":"passenger","locationId":"657b245cb583d8001cdbdf51","name":"Bubbels en Jets Enter","address":"Vonderweg 26C","city":"Enter","operatorName":"Lanova Laadpalen","maxPowerKw":11,"isMegawatt":false,"status":"AVAILABLE","source":"ndw"}},{"type":"Feature","geometry":{"type":"Point","coordinates":[6.570933,52.30937]},"properties":{"type":"charge","layer":"passenger","locationId":"658be7c536579a001c90d79a","name":"Baby Spa Twente","address":"Wierdenseweg 27A","city":"Enter","operatorName":"E-Flux by Road","maxPowerKw":11,"isMegawatt":false,"status":"AVAILABLE","source":"ndw"}},{"type":"Feature","geometry":{"type":"Point","coordinates":[6.59367,52.35064]},"properties":{"type":"charge","layer":"passenger","locationId":"36625aab10eeeaa7c064864337ac3588","name":"De Kievit 21","address":"De Kievit 21","city":"Wierden","operatorName":"Vattenfall InCharge","maxPowerKw":11,"isMegawatt":false,"status":"AVAILABLE","source":"ndw"}},{"type":"Feature","geometry":{"type":"Point","coordinates":[6.597763,52.35467]},"properties":{"type":"charge","layer":"passenger","locationId":"d5b61009187aef05711029f21e606502","name":"Acacialaan 10","address":"Acacialaan 10","city":"Wierden","operatorName":"Vattenfall InCharge","maxPowerKw":11,"isMegawatt":false,"status":"AVAILABLE","source":"ndw"}},{"type":"Feature","geometry":{"type":"Point","coordinates":[6.578073,52.293721]},"properties":{"type":"charge","layer":"passenger","locationId":"69416b1a-573c-49a7-91fc-09777d5f110b","name":"Middenplein","address":"Middenplein 10","city":"Enter","operatorName":"Vattenfall InCharge","maxPowerKw":11,"isMegawatt":false,"status":"AVAILABLE","source":"ndw"}},{"type":"Feature","geometry":{"type":"Point","coordinates":[6.576372,52.295076]},"properties":{"type":"charge","layer":"passenger","locationId":"b8edb151-6e1a-4e1a-92be-5bcaf83e467d","name":"Rijssenseweg 1","address":"Rijssenseweg 1","city":"Enter","operatorName":"Vattenfall InCharge","maxPowerKw":11,"isMegawatt":false,"status":"AVAILABLE","source":"ndw"}},{"type":"Feature","geometry":{"type":"Point","coordinates":[6.589184,52.357779]},"properties":{"type":"charge","layer":"passenger","locationId":"2ecd6f788c9a8618103b0d5e522b0491","name":"Hof van Bissinghe 75","address":"Hof van Bissinghe 75","city":"Wierden","operatorName":"Vattenfall InCharge","maxPowerKw":11,"isMegawatt":false,"status":"AVAILABLE","source":"ndw"}},{"type":"Feature","geometry":{"type":"Point","coordinates":[6.572512,52.284825]},"properties":{"type":"charge","layer":"passenger","locationId":"6615245ca0bc7f001c5eb232","name":"Vonderweg 48","address":"Vonderweg 48","city":"Enter","operatorName":"Lanova Laadpalen","maxPowerKw":11,"isMegawatt":false,"status":"AVAILABLE","source":"ndw"}},{"type":"Feature","geometry":{"type":"Point","coordinates":[6.592095,52.356168]},"properties":{"type":"charge","layer":"passenger","locationId":"NLLOC007999","name":"NL,Tolgaarde 34, 7642 EZ Wierden","address":"Tolgaarde 34","city":"Wierden","operatorName":"Allego","maxPowerKw":0,"isMegawatt":false,"status":"AVAILABLE","source":"ndw"}},{"type":"Feature","geometry":{"type":"Point","coordinates":[6.591207,52.361212]},"properties":{"type":"charge","layer":"passenger","locationId":"8a217ca4e3640d3def9d0e6c137bfe53","name":"Spoorstraat 3","address":"Spoorstraat 3","city":"Wierden","operatorName":"Vattenfall InCharge","maxPowerKw":11,"isMegawatt":false,"status":"AVAILABLE","source":"ndw"}},{"type":"Feature","geometry":{"type":"Point","coordinates":[6.580953,52.292151]},"properties":{"type":"charge","layer":"passenger","locationId":"fd373e4813bb1ba041039cf9d0fddb15","name":"Erve Oldenhof 2","address":"Erve Oldenhof 2","city":"Enter","operatorName":"Vattenfall InCharge","maxPowerKw":11,"isMegawatt":false,"status":"AVAILABLE","source":"ndw"}},{"type":"Feature","geometry":{"type":"Point","coordinates":[6.574806,52.295921]},"properties":{"type":"charge","layer":"passenger","locationId":"7dd26228-1d9e-4d93-9973-3524947551d6","name":"Julianastraat","address":"Julianastraat  1","city":"Enter","operatorName":"Vattenfall InCharge","maxPowerKw":11,"isMegawatt":false,"status":"AVAILABLE","source":"ndw"}},{"type":"Feature","geometry":{"type":"Point","coordinates":[6.607631,52.363931]},"properties":{"type":"charge","layer":"passenger","locationId":"ae17831a-30db-49df-9d7e-a629ac842fb8","name":"Europa-Ring","address":"Europa-Ring 195","city":"Wierden","operatorName":"Vattenfall InCharge","maxPowerKw":11,"isMegawatt":false,"status":"AVAILABLE","source":"ndw"}},{"type":"Feature","geometry":{"type":"Point","coordinates":[6.597209,52.370037]},"properties":{"type":"charge","layer":"passenger","locationId":"32e3cdb4c716b5d15c262a4f2db20668","name":"Kalander 24","address":"Kalander 24","city":"Wierden","operatorName":"Vattenfall InCharge","maxPowerKw":11,"isMegawatt":false,"status":"AVAILABLE","source":"ndw"}},{"type":"Feature","geometry":{"type":"Point","coordinates":[6.610376,52.3616]},"properties":{"type":"charge","layer":"passenger","locationId":"8b4c29c3-249e-436c-8b29-c2d8cdf3a811","name":"Korianderhof","address":"Korianderhof 301","city":"Wierden","operatorName":"Vattenfall InCharge","maxPowerKw":11,"isMegawatt":false,"status":"AVAILABLE","source":"ndw"}},{"type":"Feature","geometry":{"type":"MultiPolygon","coordinates":[[[[6.598851810185887,52.38365885636435],[6.609368056685874,52.36654599713686],[6.610926848621377,52.36597087161467],[6.613410596881935,52.3651049951637],[6.615377116270695,52.36284511503097],[6.615377136744813,52.36284505908941],[6.614933310973914,52.358893219868314],[6.614053226979251,52.356269109597186],[6.612403845335506,52.355737012289275],[6.61020290665302,52.35430883572129],[6.6082447528587,52.34911228655214],[6.604673855347166,52.344898003539406],[6.597705250284513,52.34290023721641],[6.598958300755967,52.34015821468559],[6.605511392301981,52.334496292918715],[6.617276849353127,52.32828001816934],[6.619020752116786,52.32614520994873],[6.612506148651349,52.31978355738703],[6.60829364771568,52.3159008759585],[6.604763173984152,52.31222533505705],[6.60922201353077,52.31247215323281],[6.610136850842483,52.313339074046546],[6.612796665340064,52.31256719144307],[6.614914608826033,52.31121840625842],[6.614008884703279,52.309841824824595],[6.616054095436305,52.30992717447382],[6.616782467399565,52.309101761117866],[6.611104309114026,52.30752636468012],[6.618747915475873,52.306175425408675],[6.6317828344131975,52.30177979035828],[6.626066700517277,52.28997379713199],[6.612131802834752,52.27691934835879],[6.605397944146998,52.27072037955546],[6.595148644267163,52.27119842406833],[6.586964434589527,52.2703701886943],[6.574099472747912,52.26931718209817],[6.5681182323511464,52.27018834041433],[6.562252656117492,52.274358805543564],[6.554008746125593,52.283312895634964],[6.5534386163869724,52.283929028396564],[6.550262945660051,52.287365575544555],[6.549962893589294,52.287801920540424],[6.552291172264868,52.29494732575826],[6.553377756417506,52.29492461868218],[6.553539241826952,52.297225594727294],[6.552291316069446,52.30338630067216],[6.550691142412387,52.309578249128364],[6.549921095017654,52.31128085515839],[6.5490320729619125,52.312418840701156],[6.549041218736548,52.312515428760776],[6.545089310907746,52.31837520796897],[6.539651906084069,52.3158032348442],[6.5381888832016,52.31552358653009],[6.536189314232217,52.315645519209795],[6.533099232676728,52.316667205641494],[6.5325132534523505,52.31721954175237],[6.531292989216405,52.31874159435584],[6.524671496196957,52.325630353242836],[6.524120459682877,52.32401166621547],[6.523137748771014,52.32383370016284],[6.518060184393828,52.324407666796056],[6.517908599474015,52.32517455549284],[6.499759359374775,52.32355522884539],[6.4993273206667,52.32352174669891],[6.495125211904101,52.323892861719926],[6.468189463937832,52.32646227122262],[6.486467720513268,52.342561718223045],[6.487992848812141,52.343500052393516],[6.488144875284301,52.34359561620874],[6.486608804537618,52.3452088199979],[6.48913373459681,52.345954907955075],[6.490795254848541,52.34935553581363],[6.495978025626698,52.34995469798072],[6.501172365379456,52.352852886983435],[6.505839600626971,52.35245037404984],[6.5066634392965454,52.35527662999073],[6.5084106391684475,52.35520718310036],[6.518872826903378,52.35516140798316],[6.520793106900329,52.36141519703414],[6.512349689939917,52.3619197407272],[6.5124394464609265,52.362569741907045],[6.499058899505613,52.36356218549085],[6.496078158869882,52.367943158526764],[6.495516644521655,52.37618064004019],[6.512606986098633,52.38183992302355],[6.513790284493282,52.381702454269835],[6.508539291184073,52.39215261356225],[6.510225124542234,52.39531728718248],[6.516013852402226,52.406128573504766],[6.575952709714722,52.41751414127942],[6.581309787908171,52.409681056641716],[6.596855357256203,52.386641176094535],[6.598851810185887,52.38365885636435]]]]},"properties":{"type":"boundary","gemeente":"Wierden","code":"GM0189"}}]}