{"type":"FeatureCollection","metadata":{"gemeente":"Woerden","slug":"woerden","code":"GM0632","generated_at":"2026-06-07T19:22:09.578Z","total_passenger":183,"total_freight":0,"bounds":[4.792079959381114,52.064950705291984,5.00500680905777,52.16205129177619],"operators":["Allego","DAEN Mobility","E-Flux by Road","EQUANS","Ei-woerden","Eneco","Fastned","Laadnet","Lidl","Opcharge","Shell Recharge","Spirii","TotalEnergies","Ubitricity","Vattenfall InCharge"]},"features":[{"type":"Feature","geometry":{"type":"Point","coordinates":[4.892736,52.109737]},"properties":{"type":"charge","layer":"passenger","locationId":"NLLOC005786","name":"NLD Gemeente Woerden, Verlaat 1, 3471 AD Kamerik","address":"Verlaat 1","city":"Kamerik","operatorName":"Allego","maxPowerKw":0,"isMegawatt":false,"status":"AVAILABLE","source":"ndw","priceKwh":0.511}},{"type":"Feature","geometry":{"type":"Point","coordinates":[4.90135,52.075843]},"properties":{"type":"charge","layer":"passenger","locationId":"67dada40143ec5310fb6cbee","name":"DiVers Woerden DC","address":"Europabaan 2","city":"Woerden","operatorName":"E-Flux by Road","maxPowerKw":320,"isMegawatt":false,"status":"AVAILABLE","source":"ndw","priceKwh":0.6}},{"type":"Feature","geometry":{"type":"Point","coordinates":[4.980013,52.080017]},"properties":{"type":"charge","layer":"passenger","locationId":"66256f8c-4dfa-11ed-8dcf-42010aa40fc0","name":"Circle K Bijleveld","address":"Rijksweg A12 nr. 2","city":"Harmelen","operatorName":"Spirii","maxPowerKw":0,"isMegawatt":false,"status":"AVAILABLE","source":"ndw"}},{"type":"Feature","geometry":{"type":"Point","coordinates":[4.88175,52.08408]},"properties":{"type":"charge","layer":"passenger","locationId":"1591","name":"Shell Recharge NL Oranjestraat 1","address":"Oranjestraat 1","city":"Woerden","operatorName":"Ubitricity","maxPowerKw":11,"isMegawatt":false,"status":"AVAILABLE","source":"ndw","priceKwh":0.388}},{"type":"Feature","geometry":{"type":"Point","coordinates":[4.946039,52.097513]},"properties":{"type":"charge","layer":"passenger","locationId":"e9af989d97bb4e62bf3e3b1090f0de25","name":"Rasenberg-APK Handelsweg 8 Harmelen","address":"Handelsweg 8","city":"Harmelen","operatorName":"Opcharge","maxPowerKw":22,"isMegawatt":false,"status":"AVAILABLE","source":"ndw","priceKwh":0.49}},{"type":"Feature","geometry":{"type":"Point","coordinates":[4.982614,52.081476]},"properties":{"type":"charge","layer":"passenger","locationId":"caba248e-8058-11e8-8aaa-42010a840002","name":"Fastned Hellevliet","address":"Hellevliet A12","city":"Harmelen","operatorName":"Fastned","maxPowerKw":300,"isMegawatt":false,"status":"AVAILABLE","source":"ndw"}},{"type":"Feature","geometry":{"type":"Point","coordinates":[4.912302,52.075312]},"properties":{"type":"charge","layer":"passenger","locationId":"684bdb804596f5febc9f14ce","name":"Elektro Internationaal","address":"Middellandse Zee 14","city":"Woerden","operatorName":"Ei-woerden","maxPowerKw":22,"isMegawatt":false,"status":"AVAILABLE","source":"ndw","priceKwh":0.35}},{"type":"Feature","geometry":{"type":"Point","coordinates":[4.852919,52.07955]},"properties":{"type":"charge","layer":"passenger","locationId":"923266","name":"NLSHOE00011725","address":"Vaartuigenlaan 71","city":"Woerden","operatorName":"DAEN Mobility","maxPowerKw":11,"isMegawatt":false,"status":"AVAILABLE","source":"ndw","priceKwh":0.36}},{"type":"Feature","geometry":{"type":"Point","coordinates":[4.89238,52.11169]},"properties":{"type":"charge","layer":"passenger","locationId":"63aaba58-4f3c-11e8-ad8a-42010a840002","name":"Shell Recharge NL Voorhuis 53 Kamerik","address":"Voorhuis 53","city":"Kamerik","operatorName":"Ubitricity","maxPowerKw":11,"isMegawatt":false,"status":"AVAILABLE","source":"ndw","priceKwh":0.39}},{"type":"Feature","geometry":{"type":"Point","coordinates":[4.98095,52.079408]},"properties":{"type":"charge","layer":"passenger","locationId":"31188","name":"Fastned Bijleveld","address":"Bijleveld","city":"Harmelen","operatorName":"Fastned","maxPowerKw":150,"isMegawatt":false,"status":"AVAILABLE","source":"ndw","priceKwh":0.6364}},{"type":"Feature","geometry":{"type":"Point","coordinates":[4.868793,52.083019]},"properties":{"type":"charge","layer":"passenger","locationId":"755D80EE-E885-4FC0-9B34-20A973DC98B3","name":"Eneco eMobility Arie Blok BV - Leidekkersweg 2A - Woerden","address":"Leidekkersweg 2A","city":"Woerden","operatorName":"Eneco","maxPowerKw":11,"isMegawatt":false,"status":"AVAILABLE","source":"ndw","priceKwh":0.39}},{"type":"Feature","geometry":{"type":"Point","coordinates":[4.907004,52.084277]},"properties":{"type":"charge","layer":"passenger","locationId":"NLLOC006698","name":"NL, Berlengakade 37, 3446BG, Woerden","address":"Berlengakade 37","city":"Woerden","operatorName":"Allego","maxPowerKw":0,"isMegawatt":false,"status":"AVAILABLE","source":"ndw","priceKwh":0.511}},{"type":"Feature","geometry":{"type":"Point","coordinates":[4.967434,52.085104]},"properties":{"type":"charge","layer":"passenger","locationId":"5003aeda-27d0-11ed-b66e-42010aa40fc0","name":"NL, Middelmolen 2, 3481 AS Harmelen","address":"Middelmolen 2","city":"Harmelen","operatorName":"Allego","maxPowerKw":0,"isMegawatt":false,"status":"AVAILABLE","source":"ndw"}},{"type":"Feature","geometry":{"type":"Point","coordinates":[4.885923,52.085455]},"properties":{"type":"charge","layer":"passenger","locationId":"b3833b1a-df1a-11eb-8308-42010a840003","name":"NL, Wagenstraat 2A, 3441 BM Woerden","address":"Wagenstraat 2A","city":"Woerden","operatorName":"Allego","maxPowerKw":0,"isMegawatt":false,"status":"AVAILABLE","source":"ndw"}},{"type":"Feature","geometry":{"type":"Point","coordinates":[4.875501,52.087261]},"properties":{"type":"charge","layer":"passenger","locationId":"1b093f84-418f-11eb-9307-42010a840003","name":"NL, Leidsestraatweg 87, 3443BR, Woerden","address":"Leidsestraatweg 87","city":"Woerden","operatorName":"Allego","maxPowerKw":0,"isMegawatt":false,"status":"CHARGING","source":"ndw"}},{"type":"Feature","geometry":{"type":"Point","coordinates":[4.904895,52.079008]},"properties":{"type":"charge","layer":"passenger","locationId":"219fc0ba-197c-11eb-82db-42010a840003","name":"NL, Hector Malotweg 2, 3446 ZT Woerden","address":"Hector Malotweg 2","city":"Woerden","operatorName":"Allego","maxPowerKw":0,"isMegawatt":false,"status":"AVAILABLE","source":"ndw"}},{"type":"Feature","geometry":{"type":"Point","coordinates":[4.961225,52.085532]},"properties":{"type":"charge","layer":"passenger","locationId":"f8d0b112-d8d6-11e9-a5f3-42010a840003","name":"NLD Mauritshof 170, 3481 VP Harmelen","address":"Mauritshof 170","city":"Harmelen","operatorName":"Allego","maxPowerKw":0,"isMegawatt":false,"status":"AVAILABLE","source":"ndw"}},{"type":"Feature","geometry":{"type":"Point","coordinates":[4.982614,52.081476]},"properties":{"type":"charge","layer":"passenger","locationId":"50472","name":"Fastned Hellevliet","address":"Hellevliet A12","city":"Harmelen","operatorName":"Fastned","maxPowerKw":300,"isMegawatt":false,"status":"AVAILABLE","source":"ndw","priceKwh":0.6364}},{"type":"Feature","geometry":{"type":"Point","coordinates":[4.866651,52.082206]},"properties":{"type":"charge","layer":"passenger","locationId":"400ac278-e6ee-11ee-9fd1-42010aa400b8","name":"Circle K Woerden inz Hollandbaan","address":"Hollandbaan 4","city":"Woerden","operatorName":"Spirii","maxPowerKw":0,"isMegawatt":false,"status":"AVAILABLE","source":"ndw"}},{"type":"Feature","geometry":{"type":"Point","coordinates":[5.003407,52.08189]},"properties":{"type":"charge","layer":"passenger","locationId":"456","name":"Shell Recharge NL4248 - Shell Veldhuizen","address":"Veldhuizerweg 2","city":"Harmelen","operatorName":"Shell Recharge","maxPowerKw":300,"isMegawatt":false,"status":"AVAILABLE","source":"ndw","priceKwh":0.7025}},{"type":"Feature","geometry":{"type":"Point","coordinates":[4.916914,52.086293]},"properties":{"type":"charge","layer":"passenger","locationId":"3642044","name":"Laadnet Pullen Management Services","address":"Balatonmeer 45","city":"Woerden","operatorName":"Laadnet","maxPowerKw":11,"isMegawatt":false,"status":"AVAILABLE","source":"ndw"}},{"type":"Feature","geometry":{"type":"Point","coordinates":[4.9848,52.081025]},"properties":{"type":"charge","layer":"passenger","locationId":"1ab940ac-cea7-11ea-ba90-42010a840003","name":"Shell Recharge Rijksweg A12 E30 NZ","address":"Rijksweg A12 E30 NZ","city":"Harmelen","operatorName":"Shell Recharge","maxPowerKw":175,"isMegawatt":false,"status":"AVAILABLE","source":"ndw"}},{"type":"Feature","geometry":{"type":"Point","coordinates":[4.899278,52.080127]},"properties":{"type":"charge","layer":"passenger","locationId":"0f77c668-9919-4149-ba9c-f6337a82ffd0","name":"Kroondreef 2","address":"Kroondreef 2","city":"Woerden","operatorName":"Vattenfall InCharge","maxPowerKw":11,"isMegawatt":false,"status":"AVAILABLE","source":"ndw"}},{"type":"Feature","geometry":{"type":"Point","coordinates":[4.835967,52.113635]},"properties":{"type":"charge","layer":"passenger","locationId":"NLLOC003974","name":"NLD Nieuwstraat 9, 3474 JL Zegveld","address":"NLD Nieuwstraat 9","city":"Zegveld","operatorName":"Allego","maxPowerKw":0,"isMegawatt":false,"status":"AVAILABLE","source":"ndw","priceKwh":0.511}},{"type":"Feature","geometry":{"type":"Point","coordinates":[4.905854,52.082585]},"properties":{"type":"charge","layer":"passenger","locationId":"21e9de14-c2d6-11e9-8657-42010a840003","name":"NLD, Pyreneeënstraat 13 3446DD Woerden","address":"Pyreneeënstraat 13","city":"Woerden","operatorName":"Allego","maxPowerKw":0,"isMegawatt":false,"status":"AVAILABLE","source":"ndw"}},{"type":"Feature","geometry":{"type":"Point","coordinates":[4.905811,52.082441]},"properties":{"type":"charge","layer":"passenger","locationId":"3c6db642-b968-11e9-b56a-42010a840003","name":"NLD Pyreneeënstraat 22, 3446 DC Woerden","address":"Pyreneeënstraat 22","city":"Woerden","operatorName":"Allego","maxPowerKw":0,"isMegawatt":false,"status":"AVAILABLE","source":"ndw"}},{"type":"Feature","geometry":{"type":"Point","coordinates":[4.902496,52.078251]},"properties":{"type":"charge","layer":"passenger","locationId":"ea56d986-2b39-11e9-b3b1-42010a840003","name":"NLD Schillingdreef 1, 3446 XK Woerden","address":"Schillingdreef 1","city":"Woerden","operatorName":"Allego","maxPowerKw":0,"isMegawatt":false,"status":"AVAILABLE","source":"ndw"}},{"type":"Feature","geometry":{"type":"Point","coordinates":[4.88353,52.07611]},"properties":{"type":"charge","layer":"passenger","locationId":"74a8c5ee-275c-11ef-a7d3-42010aa400b8","name":"Eneco eMobility Vacuüm Specials B.V. - Rosmolenlaan 3 - Woerden","address":"Rosmolenlaan 3","city":"Woerden","operatorName":"Eneco","maxPowerKw":11,"isMegawatt":false,"status":"AVAILABLE","source":"ndw","priceKwh":0.32}},{"type":"Feature","geometry":{"type":"Point","coordinates":[4.876041,52.081738]},"properties":{"type":"charge","layer":"passenger","locationId":"6f0e8cfe-6c32-4a1e-b7ac-c5024f974a5f","name":"Lidl Woerden","address":"Iepenlaan","city":"Woerden","operatorName":"Lidl","maxPowerKw":50,"isMegawatt":false,"status":"AVAILABLE","source":"ndw"}},{"type":"Feature","geometry":{"type":"Point","coordinates":[4.9848,52.081025]},"properties":{"type":"charge","layer":"passenger","locationId":"72","name":"Shell Recharge NL0453 - Shell Hellevliet","address":"Rijksweg A12 E30 NZ","city":"Harmelen","operatorName":"Shell Recharge","maxPowerKw":175,"isMegawatt":false,"status":"AVAILABLE","source":"ndw","priceKwh":0.7025}},{"type":"Feature","geometry":{"type":"Point","coordinates":[4.868793,52.083019]},"properties":{"type":"charge","layer":"passenger","locationId":"3f358e2a-4d48-11f0-ac2e-42010aa400b8","name":"Eneco eMobility Arie Blok BV - Leidekkersweg 2A - Woerden","address":"Leidekkersweg 2A","city":"Woerden","operatorName":"Eneco","maxPowerKw":11,"isMegawatt":false,"status":"AVAILABLE","source":"ndw","priceKwh":0.39}},{"type":"Feature","geometry":{"type":"Point","coordinates":[4.89605,52.076004]},"properties":{"type":"charge","layer":"passenger","locationId":"4f30a682-fc35-11ec-be82-42010aa40075","name":"Eneco eMobility Pompmolenlaan 1 Woerden","address":"Pompmolenlaan 1","city":"Woerden","operatorName":"Eneco","maxPowerKw":0,"isMegawatt":false,"status":"AVAILABLE","source":"ndw","priceKwh":0.32}},{"type":"Feature","geometry":{"type":"Point","coordinates":[4.876041,52.081738]},"properties":{"type":"charge","layer":"passenger","locationId":"8d921a16-00b0-11ee-b279-42010aa40fc0","name":"Lidl Woerden","address":"Iepenlaan","city":"Woerden","operatorName":"Lidl","maxPowerKw":50,"isMegawatt":false,"status":"AVAILABLE","source":"ndw","priceKwh":0.45}},{"type":"Feature","geometry":{"type":"Point","coordinates":[5.003407,52.08189]},"properties":{"type":"charge","layer":"passenger","locationId":"5444c774-6fc0-11ea-8d0b-42010a840003","name":"Shell Recharge Veldhuizerweg 2","address":"Veldhuizerweg 2","city":"Harmelen","operatorName":"Shell Recharge","maxPowerKw":300,"isMegawatt":false,"status":"AVAILABLE","source":"ndw"}},{"type":"Feature","geometry":{"type":"Point","coordinates":[4.88896,52.07607]},"properties":{"type":"charge","layer":"passenger","locationId":"0455d942-fc36-11ec-9427-42010aa40078","name":"Eneco eMobility Vijzelmolenlaan 9 Woerden","address":"Vijzelmolenlaan 9","city":"Woerden","operatorName":"Eneco","maxPowerKw":0,"isMegawatt":false,"status":"AVAILABLE","source":"ndw","priceKwh":0.32}},{"type":"Feature","geometry":{"type":"Point","coordinates":[4.878748,52.084993]},"properties":{"type":"charge","layer":"passenger","locationId":"ac82d4e0-5244-11ec-9de3-42010a840003","name":"NL, Singel 84, 3442 AN, Woerden","address":"Singel 84","city":"Woerden","operatorName":"Allego","maxPowerKw":0,"isMegawatt":false,"status":"AVAILABLE","source":"ndw"}},{"type":"Feature","geometry":{"type":"Point","coordinates":[4.915141,52.096937]},"properties":{"type":"charge","layer":"passenger","locationId":"4153411","name":"Laadnet Breeveld 6a","address":"Breeveld 6a","city":"Woerden","operatorName":"Laadnet","maxPowerKw":11,"isMegawatt":false,"status":"AVAILABLE","source":"ndw"}},{"type":"Feature","geometry":{"type":"Point","coordinates":[4.905665,52.091422]},"properties":{"type":"charge","layer":"passenger","locationId":"bd583060-4d03-11e9-9b47-42010a840003","name":"NLD Aalberselanen 1, 3445 TA Woerden","address":"Aalberselanen 1","city":"Woerden","operatorName":"Allego","maxPowerKw":0,"isMegawatt":false,"status":"AVAILABLE","source":"ndw"}},{"type":"Feature","geometry":{"type":"Point","coordinates":[4.965897,52.090312]},"properties":{"type":"charge","layer":"passenger","locationId":"4414a2c2-2ac6-11eb-a84c-42010a840003","name":"NL, Iepenlaan 1, 3481 XA Harmelen","address":"Iepenlaan 1","city":"Harmelen","operatorName":"Allego","maxPowerKw":0,"isMegawatt":false,"status":"AVAILABLE","source":"ndw"}},{"type":"Feature","geometry":{"type":"Point","coordinates":[4.955815,52.08678]},"properties":{"type":"charge","layer":"passenger","locationId":"8f7bec28-70fb-11ea-8312-42010a840003","name":"NL, Wipmolen 2, 3481 AJ, Harmelen","address":"Wipmolen 2","city":"Harmelen","operatorName":"Allego","maxPowerKw":0,"isMegawatt":false,"status":"AVAILABLE","source":"ndw"}},{"type":"Feature","geometry":{"type":"Point","coordinates":[4.857347,52.076002]},"properties":{"type":"charge","layer":"passenger","locationId":"07551b6e-395f-11e9-979c-42010a840003","name":"NLD Klaproosweide 71 3448JJ Woerden","address":"Klaproosweide 71","city":"Woerden","operatorName":"Allego","maxPowerKw":0,"isMegawatt":false,"status":"AVAILABLE","source":"ndw"}},{"type":"Feature","geometry":{"type":"Point","coordinates":[4.881605,52.087329]},"properties":{"type":"charge","layer":"passenger","locationId":"aa38a9ee-b347-4d10-92bd-6e67ccd436aa","name":"Haven","address":"Haven 12","city":"Woerden","operatorName":"Vattenfall InCharge","maxPowerKw":11,"isMegawatt":false,"status":"AVAILABLE","source":"ndw"}},{"type":"Feature","geometry":{"type":"Point","coordinates":[4.88175,52.08408]},"properties":{"type":"charge","layer":"passenger","locationId":"a3456c94-4f3c-11e8-a772-42010a840002","name":"Shell Recharge NL Oranjestraat 1 Woerden","address":"Oranjestraat 1","city":"Woerden","operatorName":"Ubitricity","maxPowerKw":11,"isMegawatt":false,"status":"AVAILABLE","source":"ndw","priceKwh":0.39}},{"type":"Feature","geometry":{"type":"Point","coordinates":[4.887049,52.091633]},"properties":{"type":"charge","layer":"passenger","locationId":"1c554ab0-6ef7-11ea-8cae-42010a840003","name":"NL, Kievitstraat 51, 3443 BD, Woerden","address":"Kievitstraat 51","city":"Woerden","operatorName":"Allego","maxPowerKw":0,"isMegawatt":false,"status":"AVAILABLE","source":"ndw"}},{"type":"Feature","geometry":{"type":"Point","coordinates":[4.892736,52.109737]},"properties":{"type":"charge","layer":"passenger","locationId":"592e723e-162a-11ea-bf7c-42010a840003","name":"NLD Gemeente Woerden, Verlaat 1, 3471 AD Kamerik","address":"Verlaat 1","city":"Kamerik","operatorName":"Allego","maxPowerKw":0,"isMegawatt":false,"status":"AVAILABLE","source":"ndw"}},{"type":"Feature","geometry":{"type":"Point","coordinates":[4.86865,52.07618]},"properties":{"type":"charge","layer":"passenger","locationId":"6b197832-c663-11f0-8209-42010aa400b8","name":"TNLP006120","address":"De Beerze 4","city":"Woerden","operatorName":"TotalEnergies","maxPowerKw":0,"isMegawatt":false,"status":"AVAILABLE","source":"ndw","priceKwh":0.39}},{"type":"Feature","geometry":{"type":"Point","coordinates":[4.875063,52.081856]},"properties":{"type":"charge","layer":"passenger","locationId":"NLLOC008124","name":"NL, Hazelaarstraat 35, 3442 EM, Woerden","address":"Hazelaarstraat 35","city":"Woerden","operatorName":"Allego","maxPowerKw":0,"isMegawatt":false,"status":"AVAILABLE","source":"ndw","priceKwh":0.511}},{"type":"Feature","geometry":{"type":"Point","coordinates":[4.90949,52.07542]},"properties":{"type":"charge","layer":"passenger","locationId":"c33cdd54-1afd-11f0-9077-42010aa400b8","name":"Eneco eMobility BMW - Severs Breeman Woerden","address":"Middellandse Zee 13","city":"Woerden","operatorName":"Eneco","maxPowerKw":50,"isMegawatt":false,"status":"AVAILABLE","source":"ndw","priceKwh":0.59}},{"type":"Feature","geometry":{"type":"Point","coordinates":[4.871541,52.101896]},"properties":{"type":"charge","layer":"passenger","locationId":"4248834","name":"Laadnet Bolton Westdam","address":"Westdam 3","city":"Woerden","operatorName":"Laadnet","maxPowerKw":22,"isMegawatt":false,"status":"AVAILABLE","source":"ndw"}},{"type":"Feature","geometry":{"type":"Point","coordinates":[4.98095,52.079408]},"properties":{"type":"charge","layer":"passenger","locationId":"a7cc3b94-4d93-11e8-9d0d-42010a840002","name":"Fastned Bijleveld","address":"Bijleveld","city":"Harmelen","operatorName":"Fastned","maxPowerKw":150,"isMegawatt":false,"status":"CHARGING","source":"ndw"}},{"type":"Feature","geometry":{"type":"Point","coordinates":[4.872295,52.0873]},"properties":{"type":"charge","layer":"passenger","locationId":"4e695b76-7801-11ec-b985-42010a840003","name":"NL, Mesdagplein 1, 3443CD, Woerden","address":"Mesdagplein 1","city":"Woerden","operatorName":"Allego","maxPowerKw":0,"isMegawatt":false,"status":"AVAILABLE","source":"ndw"}},{"type":"Feature","geometry":{"type":"Point","coordinates":[4.897676,52.09154]},"properties":{"type":"charge","layer":"passenger","locationId":"NLLOC005567","name":"NLD Prins Mauritssingel 7, 3445 XA Woerden","address":"Prins Mauritssingel 7","city":"Woerden","operatorName":"Allego","maxPowerKw":0,"isMegawatt":false,"status":"AVAILABLE","source":"ndw","priceKwh":0.511}},{"type":"Feature","geometry":{"type":"Point","coordinates":[4.876107,52.086828]},"properties":{"type":"charge","layer":"passenger","locationId":"a96d436c-5244-11ec-9001-42010a840003","name":"NL, Weteringstraat 30 a, 3442CR, Woerden","address":"Weteringstraat 30 a","city":"Woerden","operatorName":"Allego","maxPowerKw":0,"isMegawatt":false,"status":"AVAILABLE","source":"ndw"}},{"type":"Feature","geometry":{"type":"Point","coordinates":[4.83158,52.117267]},"properties":{"type":"charge","layer":"passenger","locationId":"NLLOC007229","name":"NL, Elzenlaan 33, 3474KN, Zegveld","address":"Elzenlaan 33","city":"Zegveld","operatorName":"Allego","maxPowerKw":0,"isMegawatt":false,"status":"AVAILABLE","source":"ndw","priceKwh":0.511}},{"type":"Feature","geometry":{"type":"Point","coordinates":[4.945864,52.096136]},"properties":{"type":"charge","layer":"passenger","locationId":"608a5753602f74d725bb5c65","name":"BP Harmelen","address":"Bedrijfsweg  2","city":"Harmelen","operatorName":"E-Flux by Road","maxPowerKw":50,"isMegawatt":false,"status":"AVAILABLE","source":"ndw","priceKwh":0.43}},{"type":"Feature","geometry":{"type":"Point","coordinates":[4.835967,52.113635]},"properties":{"type":"charge","layer":"passenger","locationId":"1e853016-9de7-11e9-8e99-42010a840003","name":"NLD Nieuwstraat 9, 3474 JL Zegveld","address":"NLD Nieuwstraat 9","city":"Zegveld","operatorName":"Allego","maxPowerKw":0,"isMegawatt":false,"status":"AVAILABLE","source":"ndw"}},{"type":"Feature","geometry":{"type":"Point","coordinates":[4.860585,52.087608]},"properties":{"type":"charge","layer":"passenger","locationId":"3528889","name":"Laadnet Bolton Bouw","address":"Zegveldse Uitweg 1","city":"Woerden","operatorName":"Laadnet","maxPowerKw":22,"isMegawatt":false,"status":"UNAVAILABLE","source":"ndw"}},{"type":"Feature","geometry":{"type":"Point","coordinates":[4.884324,52.083228]},"properties":{"type":"charge","layer":"passenger","locationId":"375c2764-22ea-11eb-b868-42010a840003","name":"NL, Prins Hendrikkade 15, 3441XD, Woerden","address":"Prins Hendrikkade 15","city":"Woerden","operatorName":"Allego","maxPowerKw":0,"isMegawatt":false,"status":"AVAILABLE","source":"ndw"}},{"type":"Feature","geometry":{"type":"Point","coordinates":[4.83158,52.117267]},"properties":{"type":"charge","layer":"passenger","locationId":"2483d6bc-79f0-11ea-81c2-42010a840003","name":"NL, Elzenlaan 33, 3474KN, Zegveld","address":"Elzenlaan 33","city":"Zegveld","operatorName":"Allego","maxPowerKw":0,"isMegawatt":false,"status":"AVAILABLE","source":"ndw"}},{"type":"Feature","geometry":{"type":"Point","coordinates":[4.86754,52.074594]},"properties":{"type":"charge","layer":"passenger","locationId":"546804a0-6fc0-11ea-a847-42010a840003","name":"NL, De Zoom 2, 3448 DH, Woerden","address":"De Zoom 2","city":"Woerden","operatorName":"Allego","maxPowerKw":0,"isMegawatt":false,"status":"AVAILABLE","source":"ndw"}},{"type":"Feature","geometry":{"type":"Point","coordinates":[4.888034,52.082041]},"properties":{"type":"charge","layer":"passenger","locationId":"62c2abbd46e08cc056370602","name":"myneva's station_2","address":"Houttuinlaan 14a","city":"Woerden","operatorName":"E-Flux by Road","maxPowerKw":22,"isMegawatt":false,"status":"AVAILABLE","source":"ndw","priceKwh":0.39}},{"type":"Feature","geometry":{"type":"Point","coordinates":[4.9531,52.07982]},"properties":{"type":"charge","layer":"passenger","locationId":"6cc85eee-4d52-11f0-9ba7-42010aa400b8","name":"EQUANS SGZH 2.0 Helling 16","address":"Helling 16","city":"Leidschendam","operatorName":"EQUANS","maxPowerKw":0,"isMegawatt":false,"status":"AVAILABLE","source":"ndw","priceKwh":0.37}},{"type":"Feature","geometry":{"type":"Point","coordinates":[4.883333,52.083741]},"properties":{"type":"charge","layer":"passenger","locationId":"6a1de1e2c496976a1e360935","name":"Willem-Alexanderhof 30","address":"Willem-Alexanderhof 30","city":"Woerden","operatorName":"E-Flux by Road","maxPowerKw":22,"isMegawatt":false,"status":"AVAILABLE","source":"ndw","priceKwh":0.45}},{"type":"Feature","geometry":{"type":"Point","coordinates":[4.875063,52.081856]},"properties":{"type":"charge","layer":"passenger","locationId":"0dc742f0-61c7-11eb-9bca-42010a840003","name":"NL, Hazelaarstraat 35, 3442 EM, Woerden","address":"Hazelaarstraat 35","city":"Woerden","operatorName":"Allego","maxPowerKw":0,"isMegawatt":false,"status":"AVAILABLE","source":"ndw"}},{"type":"Feature","geometry":{"type":"Point","coordinates":[4.897747,52.08278]},"properties":{"type":"charge","layer":"passenger","locationId":"5ac8c40a-a238-11eb-97e5-42010a840003","name":"NL, Londenlaan 19, 3446 AD Woerden","address":"Londenlaan 19","city":"Woerden","operatorName":"Allego","maxPowerKw":0,"isMegawatt":false,"status":"AVAILABLE","source":"ndw"}},{"type":"Feature","geometry":{"type":"Point","coordinates":[4.873171,52.085119]},"properties":{"type":"charge","layer":"passenger","locationId":"5cb333d2-7d48-11eb-aa0a-42010a840003","name":"NL, Hoge Rijndijk 4-69, 3449 HA, Woerden","address":"Hoge Rijndijk 4-69","city":"Woerden","operatorName":"Allego","maxPowerKw":0,"isMegawatt":false,"status":"AVAILABLE","source":"ndw"}},{"type":"Feature","geometry":{"type":"Point","coordinates":[4.907571,52.083628]},"properties":{"type":"charge","layer":"passenger","locationId":"928a9a98-3f33-11eb-b415-42010a840003","name":"NL, Harzstraat 30, 3446DM, Woerden","address":"Harzstraat 30","city":"Woerden","operatorName":"Allego","maxPowerKw":0,"isMegawatt":false,"status":"CHARGING","source":"ndw"}},{"type":"Feature","geometry":{"type":"Point","coordinates":[4.875186,52.090643]},"properties":{"type":"charge","layer":"passenger","locationId":"f20705fe-6877-11e9-9bf7-42010a840003","name":"NLD Jan Steenstraat 47, 3443 GR Woerden","address":"Jan Steenstraat 47","city":"Woerden","operatorName":"Allego","maxPowerKw":0,"isMegawatt":false,"status":"CHARGING","source":"ndw"}},{"type":"Feature","geometry":{"type":"Point","coordinates":[4.864716,52.091357]},"properties":{"type":"charge","layer":"passenger","locationId":"9ab8bb1e-7e78-11e9-805b-42010a840003","name":"NLD Wijnant Nuijenstraat 21, 3443 JA Woerden","address":"Wijnant Nuijenstraat 21","city":"Woerden","operatorName":"Allego","maxPowerKw":0,"isMegawatt":false,"status":"AVAILABLE","source":"ndw"}},{"type":"Feature","geometry":{"type":"Point","coordinates":[4.86179,52.077546]},"properties":{"type":"charge","layer":"passenger","locationId":"a5cb6f88-056a-11ee-bd2f-42010aa40fc0","name":"NL, Hoefbladveld 19, 3448EX, Woerden","address":"Hoefbladveld 19","city":"Woerden","operatorName":"Allego","maxPowerKw":0,"isMegawatt":false,"status":"AVAILABLE","source":"ndw"}},{"type":"Feature","geometry":{"type":"Point","coordinates":[4.873788,52.078409]},"properties":{"type":"charge","layer":"passenger","locationId":"4174726","name":"Laadnet Essenlaan 67","address":"Essenlaan 67","city":"Woerden","operatorName":"Laadnet","maxPowerKw":11,"isMegawatt":false,"status":"AVAILABLE","source":"ndw"}},{"type":"Feature","geometry":{"type":"Point","coordinates":[4.835775,52.117114]},"properties":{"type":"charge","layer":"passenger","locationId":"f7bea972-9992-11eb-afc8-42010a840003","name":"NL, Korensloot 32, 3474HL, Woerden","address":"Korensloot 32","city":"Woerden","operatorName":"Allego","maxPowerKw":0,"isMegawatt":false,"status":"AVAILABLE","source":"ndw"}},{"type":"Feature","geometry":{"type":"Point","coordinates":[4.836007,52.116175]},"properties":{"type":"charge","layer":"passenger","locationId":"1992605a-d762-11ef-8923-42010aa400b8","name":"NL, Middenweg 4, 3474 KC Zegveld","address":"Middenweg 4","city":"Zegveld","operatorName":"Allego","maxPowerKw":0,"isMegawatt":false,"status":"AVAILABLE","source":"ndw"}},{"type":"Feature","geometry":{"type":"Point","coordinates":[4.875909,52.079597]},"properties":{"type":"charge","layer":"passenger","locationId":"1ad7f9a6-418f-11eb-b5b9-42010a840003","name":"NL, Essenlaan 22, 3442JH, Woerden","address":"Essenlaan 22","city":"Woerden","operatorName":"Allego","maxPowerKw":0,"isMegawatt":false,"status":"AVAILABLE","source":"ndw"}},{"type":"Feature","geometry":{"type":"Point","coordinates":[4.878888,52.082959]},"properties":{"type":"charge","layer":"passenger","locationId":"364e7c9c-6456-11ec-89b0-42010a840003","name":"NL, Anjerstraat 12, 3442 XM Woerden","address":"Anjerstraat 12","city":"Woerden","operatorName":"Allego","maxPowerKw":0,"isMegawatt":false,"status":"AVAILABLE","source":"ndw"}},{"type":"Feature","geometry":{"type":"Point","coordinates":[4.877781,52.091596]},"properties":{"type":"charge","layer":"passenger","locationId":"8da7b54e-6264-11ea-b3f3-42010a840003","name":"NL, Jan Steenstraat 11, 3443GP, Woerden","address":"Jan Steenstraat 11","city":"Woerden","operatorName":"Allego","maxPowerKw":0,"isMegawatt":false,"status":"AVAILABLE","source":"ndw"}},{"type":"Feature","geometry":{"type":"Point","coordinates":[4.909585,52.080071]},"properties":{"type":"charge","layer":"passenger","locationId":"e2f8e476-f2a5-11e8-b404-42010a840002","name":"NLD, Chiantigaard 1, 3446 WE Woerden","address":"Chiantigaard 1","city":"Woerden","operatorName":"Allego","maxPowerKw":0,"isMegawatt":false,"status":"AVAILABLE","source":"ndw"}},{"type":"Feature","geometry":{"type":"Point","coordinates":[4.907004,52.084277]},"properties":{"type":"charge","layer":"passenger","locationId":"3e0da9f4-4a08-11ea-87c0-42010a840003","name":"NL, Berlengakade 37, 3446BG, Woerden","address":"Berlengakade 37","city":"Woerden","operatorName":"Allego","maxPowerKw":0,"isMegawatt":false,"status":"AVAILABLE","source":"ndw"}},{"type":"Feature","geometry":{"type":"Point","coordinates":[4.914187,52.088144]},"properties":{"type":"charge","layer":"passenger","locationId":"6a534b50-fdaa-11e8-9aa8-42010a840002","name":"NL, Kallameer 43, 3446 JH, Woerden","address":"Kallameer 43","city":"Woerden","operatorName":"Allego","maxPowerKw":0,"isMegawatt":false,"status":"AVAILABLE","source":"ndw"}},{"type":"Feature","geometry":{"type":"Point","coordinates":[4.869275,52.077524]},"properties":{"type":"charge","layer":"passenger","locationId":"9f4c7e28-e0d4-11e8-af15-42010a840002","name":"NLD, Stromenlaan 131, 3448 CD Woerden","address":"Stromenlaan 131","city":"Woerden","operatorName":"Allego","maxPowerKw":0,"isMegawatt":false,"status":"AVAILABLE","source":"ndw"}},{"type":"Feature","geometry":{"type":"Point","coordinates":[4.903239,52.080821]},"properties":{"type":"charge","layer":"passenger","locationId":"e3631616-f2a5-11e8-bcac-42010a840002","name":"NLD, Franz Kafkaweg 15, 3446 ZK Woerden","address":"Franz Kafkaweg 15","city":"Woerden","operatorName":"Allego","maxPowerKw":0,"isMegawatt":false,"status":"AVAILABLE","source":"ndw"}},{"type":"Feature","geometry":{"type":"Point","coordinates":[4.856757,52.078008]},"properties":{"type":"charge","layer":"passenger","locationId":"7aa348aa-3112-11eb-a6dd-42010a840003","name":"NL, Bakboordlaan 53, 3448KG, Woerden","address":"Bakboordlaan 53","city":"Woerden","operatorName":"Allego","maxPowerKw":0,"isMegawatt":false,"status":"AVAILABLE","source":"ndw"}},{"type":"Feature","geometry":{"type":"Point","coordinates":[4.857349,52.080982]},"properties":{"type":"charge","layer":"passenger","locationId":"f31cb5ea-2f7e-11eb-960a-42010a840003","name":"NL, Herikveld 2, 3448GR, Woerden","address":"Herikveld 2","city":"Woerden","operatorName":"Allego","maxPowerKw":0,"isMegawatt":false,"status":"AVAILABLE","source":"ndw"}},{"type":"Feature","geometry":{"type":"Point","coordinates":[4.873107,52.083183]},"properties":{"type":"charge","layer":"passenger","locationId":"3e92041a-4a08-11ea-b5ce-42010a840003","name":"NL, Esdoornlaan 27, 3442 HB, Woerden","address":"Esdoornlaan 27","city":"Woerden","operatorName":"Allego","maxPowerKw":0,"isMegawatt":false,"status":"AVAILABLE","source":"ndw"}},{"type":"Feature","geometry":{"type":"Point","coordinates":[4.897676,52.09154]},"properties":{"type":"charge","layer":"passenger","locationId":"bb070868-1305-11ea-90af-42010a840003","name":"NLD Prins Mauritssingel 7, 3445 XA Woerden","address":"Prins Mauritssingel 7","city":"Woerden","operatorName":"Allego","maxPowerKw":0,"isMegawatt":false,"status":"AVAILABLE","source":"ndw"}},{"type":"Feature","geometry":{"type":"Point","coordinates":[4.872849,52.080992]},"properties":{"type":"charge","layer":"passenger","locationId":"e2eed864-f2a5-11e8-9fa0-42010a840002","name":"NLD, Lindenlaan 86, 3442GJ Woerden","address":"Lindenlaan 86","city":"Woerden","operatorName":"Allego","maxPowerKw":0,"isMegawatt":false,"status":"AVAILABLE","source":"ndw"}},{"type":"Feature","geometry":{"type":"Point","coordinates":[4.901091,52.090039]},"properties":{"type":"charge","layer":"passenger","locationId":"e5aa0162-ebb2-11e9-933a-42010a840003","name":"NLD, Frederik Hendriklaan 18, 3445 XN Woerden","address":"Frederik Hendriklaan 18","city":"Woerden","operatorName":"Allego","maxPowerKw":0,"isMegawatt":false,"status":"CHARGING","source":"ndw"}},{"type":"Feature","geometry":{"type":"Point","coordinates":[4.954662,52.086608]},"properties":{"type":"charge","layer":"passenger","locationId":"2e1b9502-50ed-11e9-bfc4-42010a840003","name":"NLD Nassaupark 8, 3481 HD Harmelen","address":"Nassaupark 8","city":"Harmelen","operatorName":"Allego","maxPowerKw":0,"isMegawatt":false,"status":"AVAILABLE","source":"ndw"}},{"type":"Feature","geometry":{"type":"Point","coordinates":[4.903734,52.09341]},"properties":{"type":"charge","layer":"passenger","locationId":"a9bafe4a-cdae-11e8-8a02-42010a840002","name":"NLD, Van der Duijn van maasdamlaan 48 3445 CC Woerden","address":"Van der Duijn van maasdamlaan 48","city":"Woerden","operatorName":"Allego","maxPowerKw":0,"isMegawatt":false,"status":"AVAILABLE","source":"ndw"}},{"type":"Feature","geometry":{"type":"Point","coordinates":[4.867928,52.091]},"properties":{"type":"charge","layer":"passenger","locationId":"3df5f096-3183-11e9-9fa1-42010a840003","name":"NLD Johannes Bosboomstraat 12, 3443 HE Woerden","address":"Johannes Bosboomstraat 12","city":"Woerden","operatorName":"Allego","maxPowerKw":0,"isMegawatt":false,"status":"AVAILABLE","source":"ndw"}},{"type":"Feature","geometry":{"type":"Point","coordinates":[4.962513,52.090541]},"properties":{"type":"charge","layer":"passenger","locationId":"b4b48cb8-d356-11e9-92ba-42010a840003","name":"NLD Uitweg 1a, 3481 BA Harmelen","address":"Uitweg 1a","city":"Harmelen","operatorName":"Allego","maxPowerKw":0,"isMegawatt":false,"status":"AVAILABLE","source":"ndw"}},{"type":"Feature","geometry":{"type":"Point","coordinates":[4.855824,52.078086]},"properties":{"type":"charge","layer":"passenger","locationId":"bad6c2d8-2f27-11e9-b117-42010a840003","name":"NLD Bijlander 34, 3448 KD Woerden","address":"Bijlander 34","city":"Woerden","operatorName":"Allego","maxPowerKw":0,"isMegawatt":false,"status":"AVAILABLE","source":"ndw"}},{"type":"Feature","geometry":{"type":"Point","coordinates":[4.957023,52.093393]},"properties":{"type":"charge","layer":"passenger","locationId":"6078973a-4f88-11ea-ba47-42010a840003","name":"NL, Meerkoet 50, 3481TE, Harmelen","address":"Meerkoet 50","city":"Harmelen","operatorName":"Allego","maxPowerKw":0,"isMegawatt":false,"status":"AVAILABLE","source":"ndw"}},{"type":"Feature","geometry":{"type":"Point","coordinates":[4.882003,52.08994]},"properties":{"type":"charge","layer":"passenger","locationId":"6ad12456-3af1-11e9-ac36-42010a840003","name":"NLD Vrijheidshof 46, 3443 DW Woerden","address":"Vrijheidshof 46","city":"Woerden","operatorName":"Allego","maxPowerKw":0,"isMegawatt":false,"status":"AVAILABLE","source":"ndw"}},{"type":"Feature","geometry":{"type":"Point","coordinates":[4.877781,52.091596]},"properties":{"type":"charge","layer":"passenger","locationId":"NLLOC007383","name":"NL, Jan Steenstraat 11, 3443GP, Woerden","address":"Jan Steenstraat 11","city":"Woerden","operatorName":"Allego","maxPowerKw":0,"isMegawatt":false,"status":"AVAILABLE","source":"ndw","priceKwh":0.511}},{"type":"Feature","geometry":{"type":"Point","coordinates":[4.980013,52.080017]},"properties":{"type":"charge","layer":"passenger","locationId":"32395","name":"Circle K Bijleveld","address":"Rijksweg A12 nr. 2","city":"Harmelen","operatorName":"Spirii","maxPowerKw":0,"isMegawatt":false,"status":"AVAILABLE","source":"ndw","priceKwh":0.65}},{"type":"Feature","geometry":{"type":"Point","coordinates":[4.902496,52.078251]},"properties":{"type":"charge","layer":"passenger","locationId":"NLLOC003409","name":"NLD Schillingdreef 1, 3446 XK Woerden","address":"Schillingdreef 1","city":"Woerden","operatorName":"Allego","maxPowerKw":0,"isMegawatt":false,"status":"AVAILABLE","source":"ndw","priceKwh":0.511}},{"type":"Feature","geometry":{"type":"Point","coordinates":[4.887927,52.083481]},"properties":{"type":"charge","layer":"passenger","locationId":"93596226-6264-11ea-b783-42010a840003","name":"NL, Singel 43, 3442 AL, Woerden","address":"Singel 43","city":"Woerden","operatorName":"Allego","maxPowerKw":0,"isMegawatt":false,"status":"AVAILABLE","source":"ndw"}},{"type":"Feature","geometry":{"type":"Point","coordinates":[4.835895,52.1161]},"properties":{"type":"charge","layer":"passenger","locationId":"f5931e9a-3bd6-11eb-b458-42010a840003","name":"NLD Middenweg 4, 3474 KC Zegveld","address":"Middenweg 4","city":"Zegveld","operatorName":"Allego","maxPowerKw":0,"isMegawatt":false,"status":"AVAILABLE","source":"ndw"}},{"type":"Feature","geometry":{"type":"Point","coordinates":[4.877643,52.08538]},"properties":{"type":"charge","layer":"passenger","locationId":"f9224908-8978-11e9-982b-42010a840003","name":"NLD Burgm. Schalijstraat 24, 3442 BS Woerden","address":"Burgm. Schalijstraat 24","city":"Woerden","operatorName":"Allego","maxPowerKw":0,"isMegawatt":false,"status":"AVAILABLE","source":"ndw"}},{"type":"Feature","geometry":{"type":"Point","coordinates":[4.910165,52.083107]},"properties":{"type":"charge","layer":"passenger","locationId":"587e484e-6df8-11e9-addc-42010a840003","name":"NLD Oeralstraat 7, 3446 BT Woerden","address":"Oeralstraat 7","city":"Woerden","operatorName":"Allego","maxPowerKw":0,"isMegawatt":false,"status":"AVAILABLE","source":"ndw"}},{"type":"Feature","geometry":{"type":"Point","coordinates":[4.906971,52.092508]},"properties":{"type":"charge","layer":"passenger","locationId":"ec5dd95c-4be9-11e9-abb3-42010a840003","name":"NLD Van Slingelandt-lanen 64, 3445EL Woerden","address":"Van Slingelandt-lanen 64","city":"Woerden","operatorName":"Allego","maxPowerKw":0,"isMegawatt":false,"status":"AVAILABLE","source":"ndw"}},{"type":"Feature","geometry":{"type":"Point","coordinates":[4.895575,52.08855]},"properties":{"type":"charge","layer":"passenger","locationId":"eca92200-8a67-11ea-a700-42010a840003","name":"NL, Utrechtsestraatweg 32, 3445as, Woerden","address":"Utrechtsestraatweg 32","city":"Woerden","operatorName":"Allego","maxPowerKw":0,"isMegawatt":false,"status":"AVAILABLE","source":"ndw"}},{"type":"Feature","geometry":{"type":"Point","coordinates":[4.873171,52.085119]},"properties":{"type":"charge","layer":"passenger","locationId":"NLLOC010049","name":"NL, Hoge Rijndijk 4-69, 3449 HA, Woerden","address":"Hoge Rijndijk 4-69","city":"Woerden","operatorName":"Allego","maxPowerKw":0,"isMegawatt":false,"status":"AVAILABLE","source":"ndw","priceKwh":0.511}},{"type":"Feature","geometry":{"type":"Point","coordinates":[4.860845,52.081207]},"properties":{"type":"charge","layer":"passenger","locationId":"6880bbf0-f9b8-11e8-bd35-42010a840002","name":"NLD Valeriaanveld 6, 3448 EV Woerden","address":"Valeriaanveld 6","city":"Woerden","operatorName":"Allego","maxPowerKw":0,"isMegawatt":false,"status":"AVAILABLE","source":"ndw"}},{"type":"Feature","geometry":{"type":"Point","coordinates":[4.90949,52.07542]},"properties":{"type":"charge","layer":"passenger","locationId":"049D32ED-BED3-435D-B2A6-50E6E1CD1A61","name":"Eneco eMobility BMW - Severs Breeman Woerden","address":"Middellandse Zee 13","city":"Woerden","operatorName":"Eneco","maxPowerKw":50,"isMegawatt":false,"status":"UNAVAILABLE","source":"ndw","priceKwh":0.59}},{"type":"Feature","geometry":{"type":"Point","coordinates":[4.86754,52.074594]},"properties":{"type":"charge","layer":"passenger","locationId":"NLLOC006863","name":"NL, De Zoom 2, 3448 DH, Woerden","address":"De Zoom 2","city":"Woerden","operatorName":"Allego","maxPowerKw":0,"isMegawatt":false,"status":"AVAILABLE","source":"ndw","priceKwh":0.511}},{"type":"Feature","geometry":{"type":"Point","coordinates":[4.891422,52.077479]},"properties":{"type":"charge","layer":"passenger","locationId":"63da1b374697ee0012a1e08b","name":"Pelmolenlaan laadpalen","address":"Pelmolenlaan 16","city":"Woerden","operatorName":"E-Flux by Road","maxPowerKw":11,"isMegawatt":false,"status":"AVAILABLE","source":"ndw","priceKwh":0.53}},{"type":"Feature","geometry":{"type":"Point","coordinates":[4.89605,52.076004]},"properties":{"type":"charge","layer":"passenger","locationId":"01A5D844-4617-4F0A-B0DF-E8F8FA2DD2C3","name":"Eneco eMobility Pompmolenlaan 1 Woerden","address":"Pompmolenlaan 1","city":"Woerden","operatorName":"Eneco","maxPowerKw":0,"isMegawatt":false,"status":"UNAVAILABLE","source":"ndw","priceKwh":0.32}},{"type":"Feature","geometry":{"type":"Point","coordinates":[4.882743,52.080254]},"properties":{"type":"charge","layer":"passenger","locationId":"6a22a8741eb25b714d58ebc2","name":"Marco Groen 's station","address":"edisonweg  7","city":"woerden","operatorName":"E-Flux by Road","maxPowerKw":11,"isMegawatt":false,"status":"AVAILABLE","source":"ndw","priceKwh":0.53}},{"type":"Feature","geometry":{"type":"Point","coordinates":[4.893585,52.077521]},"properties":{"type":"charge","layer":"passenger","locationId":"68de73dffb28bc63d39ad0c5","name":"Publieke laadpaal Pelmolenlaan 13 - Woerden","address":"Pelmolenlaan 13","city":"Woerden","operatorName":"E-Flux by Road","maxPowerKw":22,"isMegawatt":false,"status":"AVAILABLE","source":"ndw","priceKwh":0.43}},{"type":"Feature","geometry":{"type":"Point","coordinates":[4.877643,52.08538]},"properties":{"type":"charge","layer":"passenger","locationId":"NLLOC004215","name":"NLD Burgm. Schalijstraat 24, 3442 BS Woerden","address":"Burgm. Schalijstraat 24","city":"Woerden","operatorName":"Allego","maxPowerKw":0,"isMegawatt":false,"status":"AVAILABLE","source":"ndw","priceKwh":0.511}},{"type":"Feature","geometry":{"type":"Point","coordinates":[4.876107,52.086828]},"properties":{"type":"charge","layer":"passenger","locationId":"NLLOC007460","name":"NL, Weteringstraat 30 a, 3442CR, Woerden","address":"Weteringstraat 30 a","city":"Woerden","operatorName":"Allego","maxPowerKw":0,"isMegawatt":false,"status":"AVAILABLE","source":"ndw","priceKwh":0.511}},{"type":"Feature","geometry":{"type":"Point","coordinates":[4.962012,52.092371]},"properties":{"type":"charge","layer":"passenger","locationId":"923055","name":"DAE_NL_2000860","address":"Ambachtsheerelaan 2","city":"Harmelen","operatorName":"DAEN Mobility","maxPowerKw":11,"isMegawatt":false,"status":"CHARGING","source":"ndw","priceKwh":0.28}},{"type":"Feature","geometry":{"type":"Point","coordinates":[4.884065,52.081313]},"properties":{"type":"charge","layer":"passenger","locationId":"67c5a2e2033afde8b8733721","name":"TechnoHUB_2","address":"Industrieweg 2b","city":"Woerden","operatorName":"E-Flux by Road","maxPowerKw":22,"isMegawatt":false,"status":"AVAILABLE","source":"ndw","priceKwh":0.43}},{"type":"Feature","geometry":{"type":"Point","coordinates":[4.835895,52.1161]},"properties":{"type":"charge","layer":"passenger","locationId":"NLLOC004393","name":"NLD Middenweg 4, 3474 KC Zegveld","address":"Middenweg 4","city":"Zegveld","operatorName":"Allego","maxPowerKw":0,"isMegawatt":false,"status":"AVAILABLE","source":"ndw","priceKwh":0.511}},{"type":"Feature","geometry":{"type":"Point","coordinates":[4.884086,52.081326]},"properties":{"type":"charge","layer":"passenger","locationId":"67c5a3df8984dc4ebd0cc307","name":"TechnoHUB_4","address":"Industrieweg 2b","city":"Woerden","operatorName":"E-Flux by Road","maxPowerKw":22,"isMegawatt":false,"status":"AVAILABLE","source":"ndw","priceKwh":0.5}},{"type":"Feature","geometry":{"type":"Point","coordinates":[4.882003,52.08994]},"properties":{"type":"charge","layer":"passenger","locationId":"NLLOC003505","name":"NLD Vrijheidshof 46, 3443 DW Woerden","address":"Vrijheidshof 46","city":"Woerden","operatorName":"Allego","maxPowerKw":0,"isMegawatt":false,"status":"AVAILABLE","source":"ndw","priceKwh":0.511}},{"type":"Feature","geometry":{"type":"Point","coordinates":[4.887049,52.091633]},"properties":{"type":"charge","layer":"passenger","locationId":"NLLOC007376","name":"NL, Kievitstraat 51, 3443 BD, Woerden","address":"Kievitstraat 51","city":"Woerden","operatorName":"Allego","maxPowerKw":0,"isMegawatt":false,"status":"AVAILABLE","source":"ndw","priceKwh":0.511}},{"type":"Feature","geometry":{"type":"Point","coordinates":[4.884324,52.083228]},"properties":{"type":"charge","layer":"passenger","locationId":"NLLOC006379","name":"NL, Prins Hendrikkade 15, 3441XD, Woerden","address":"Prins Hendrikkade 15","city":"Woerden","operatorName":"Allego","maxPowerKw":0,"isMegawatt":false,"status":"AVAILABLE","source":"ndw","priceKwh":0.511}},{"type":"Feature","geometry":{"type":"Point","coordinates":[4.867928,52.091]},"properties":{"type":"charge","layer":"passenger","locationId":"NLLOC003445","name":"NLD Johannes Bosboomstraat 12, 3443 HE Woerden","address":"Johannes Bosboomstraat 12","city":"Woerden","operatorName":"Allego","maxPowerKw":0,"isMegawatt":false,"status":"AVAILABLE","source":"ndw","priceKwh":0.511}},{"type":"Feature","geometry":{"type":"Point","coordinates":[4.884033,52.08129]},"properties":{"type":"charge","layer":"passenger","locationId":"67c5a219dcf0ee0fa2f43c16","name":"TechnoHUB_1","address":"industrieweg 2b","city":"woerden","operatorName":"E-Flux by Road","maxPowerKw":22,"isMegawatt":false,"status":"AVAILABLE","source":"ndw","priceKwh":0.43}},{"type":"Feature","geometry":{"type":"Point","coordinates":[4.957023,52.093393]},"properties":{"type":"charge","layer":"passenger","locationId":"NLLOC007594","name":"NL, Meerkoet 50, 3481TE, Harmelen","address":"Meerkoet 50","city":"Harmelen","operatorName":"Allego","maxPowerKw":0,"isMegawatt":false,"status":"CHARGING","source":"ndw","priceKwh":0.511}},{"type":"Feature","geometry":{"type":"Point","coordinates":[4.90135,52.075843]},"properties":{"type":"charge","layer":"passenger","locationId":"66e93ef5beeeaa001c16a988","name":"DiVers Woerden AC","address":"Europabaan  2","city":"Woerden","operatorName":"E-Flux by Road","maxPowerKw":11,"isMegawatt":false,"status":"AVAILABLE","source":"ndw","priceKwh":0.5176}},{"type":"Feature","geometry":{"type":"Point","coordinates":[4.895575,52.08855]},"properties":{"type":"charge","layer":"passenger","locationId":"NLLOC006849","name":"NL, Utrechtsestraatweg 32, 3445as, Woerden","address":"Utrechtsestraatweg 32","city":"Woerden","operatorName":"Allego","maxPowerKw":0,"isMegawatt":false,"status":"AVAILABLE","source":"ndw","priceKwh":0.511}},{"type":"Feature","geometry":{"type":"Point","coordinates":[4.905854,52.082585]},"properties":{"type":"charge","layer":"passenger","locationId":"NLLOC002879","name":"NLD, Pyreneeënstraat 13 3446DD Woerden","address":"Pyreneeënstraat 13","city":"Woerden","operatorName":"Allego","maxPowerKw":0,"isMegawatt":false,"status":"AVAILABLE","source":"ndw","priceKwh":0.511}},{"type":"Feature","geometry":{"type":"Point","coordinates":[4.897747,52.08278]},"properties":{"type":"charge","layer":"passenger","locationId":"NLLOC014220","name":"NL, Londenlaan 19, 3446 AD Woerden","address":"Londenlaan 19","city":"Woerden","operatorName":"Allego","maxPowerKw":0,"isMegawatt":false,"status":"AVAILABLE","source":"ndw","priceKwh":0.511}},{"type":"Feature","geometry":{"type":"Point","coordinates":[4.888034,52.082041]},"properties":{"type":"charge","layer":"passenger","locationId":"62bef6f386f59e4b383e5f6b","name":"myneva's station_1","address":"Houttuinlaan 14a","city":"Woerden","operatorName":"E-Flux by Road","maxPowerKw":22,"isMegawatt":false,"status":"AVAILABLE","source":"ndw","priceKwh":0.39}},{"type":"Feature","geometry":{"type":"Point","coordinates":[4.8938,52.07531]},"properties":{"type":"charge","layer":"passenger","locationId":"1827614","name":"Laadnet Huisman & Partners B.V.","address":"Pompmolenlaan 13","city":"Woerden","operatorName":"Laadnet","maxPowerKw":22,"isMegawatt":false,"status":"AVAILABLE","source":"ndw"}},{"type":"Feature","geometry":{"type":"Point","coordinates":[4.878748,52.084993]},"properties":{"type":"charge","layer":"passenger","locationId":"NLLOC008155","name":"NL, Singel 84, 3442 AN, Woerden","address":"Singel 84","city":"Woerden","operatorName":"Allego","maxPowerKw":0,"isMegawatt":false,"status":"CHARGING","source":"ndw","priceKwh":0.511}},{"type":"Feature","geometry":{"type":"Point","coordinates":[4.905811,52.082441]},"properties":{"type":"charge","layer":"passenger","locationId":"NLLOC004565","name":"NLD Pyreneeënstraat 22, 3446 DC Woerden","address":"Pyreneeënstraat 22","city":"Woerden","operatorName":"Allego","maxPowerKw":0,"isMegawatt":false,"status":"AVAILABLE","source":"ndw","priceKwh":0.511}},{"type":"Feature","geometry":{"type":"Point","coordinates":[4.88353,52.07611]},"properties":{"type":"charge","layer":"passenger","locationId":"E1628E23-5058-4E0B-8357-E71E4B45BBA5","name":"Eneco eMobility Vacuüm Specials B.V. - Rosmolenlaan 3 - Woerden","address":"Rosmolenlaan 3","city":"Woerden","operatorName":"Eneco","maxPowerKw":11,"isMegawatt":false,"status":"AVAILABLE","source":"ndw","priceKwh":0.32}},{"type":"Feature","geometry":{"type":"Point","coordinates":[4.872295,52.0873]},"properties":{"type":"charge","layer":"passenger","locationId":"NLLOC020069","name":"NL, Mesdagplein 1, 3443CD, Woerden","address":"Mesdagplein 1","city":"Woerden","operatorName":"Allego","maxPowerKw":0,"isMegawatt":false,"status":"AVAILABLE","source":"ndw","priceKwh":0.511}},{"type":"Feature","geometry":{"type":"Point","coordinates":[4.967434,52.085104]},"properties":{"type":"charge","layer":"passenger","locationId":"NLLOC014277","name":"NL, Middelmolen 2, 3481 AS Harmelen","address":"Middelmolen 2","city":"Harmelen","operatorName":"Allego","maxPowerKw":0,"isMegawatt":false,"status":"AVAILABLE","source":"ndw","priceKwh":0.511}},{"type":"Feature","geometry":{"type":"Point","coordinates":[4.905665,52.091422]},"properties":{"type":"charge","layer":"passenger","locationId":"NLLOC003625","name":"NLD Aalberselanen 1, 3445 TA Woerden","address":"Aalberselanen 1","city":"Woerden","operatorName":"Allego","maxPowerKw":0,"isMegawatt":false,"status":"AVAILABLE","source":"ndw","priceKwh":0.511}},{"type":"Feature","geometry":{"type":"Point","coordinates":[4.903239,52.080821]},"properties":{"type":"charge","layer":"passenger","locationId":"NLLOC003040","name":"NLD, Franz Kafkaweg 15, 3446 ZK Woerden","address":"Franz Kafkaweg 15","city":"Woerden","operatorName":"Allego","maxPowerKw":0,"isMegawatt":false,"status":"AVAILABLE","source":"ndw","priceKwh":0.511}},{"type":"Feature","geometry":{"type":"Point","coordinates":[4.836007,52.116175]},"properties":{"type":"charge","layer":"passenger","locationId":"NLLOC027841","name":"NL, Middenweg 4, 3474 KC Zegveld","address":"Middenweg 4","city":"Zegveld","operatorName":"Allego","maxPowerKw":0,"isMegawatt":false,"status":"CHARGING","source":"ndw","priceKwh":0.511}},{"type":"Feature","geometry":{"type":"Point","coordinates":[4.960809,52.089757]},"properties":{"type":"charge","layer":"passenger","locationId":"17ee2104-0889-4593-bd90-ee1261285ed4","name":"Rijnlaan 6","address":"Rijnlaan 6","city":"Harmelen","operatorName":"Vattenfall InCharge","maxPowerKw":11,"isMegawatt":false,"status":"AVAILABLE","source":"ndw"}},{"type":"Feature","geometry":{"type":"Point","coordinates":[4.88407,52.081313]},"properties":{"type":"charge","layer":"passenger","locationId":"67c5a33d4139fc1fb0b18258","name":"TechnoHUB_3","address":"Industrieweg 2b","city":"Woerden","operatorName":"E-Flux by Road","maxPowerKw":22,"isMegawatt":false,"status":"AVAILABLE","source":"ndw","priceKwh":0.5}},{"type":"Feature","geometry":{"type":"Point","coordinates":[4.864716,52.091357]},"properties":{"type":"charge","layer":"passenger","locationId":"NLLOC004117","name":"NLD Wijnant Nuijenstraat 21, 3443 JA Woerden","address":"Wijnant Nuijenstraat 21","city":"Woerden","operatorName":"Allego","maxPowerKw":0,"isMegawatt":false,"status":"AVAILABLE","source":"ndw","priceKwh":0.511}},{"type":"Feature","geometry":{"type":"Point","coordinates":[4.904895,52.079008]},"properties":{"type":"charge","layer":"passenger","locationId":"NLLOC008775","name":"NL, Hector Malotweg 2, 3446 ZT Woerden","address":"Hector Malotweg 2","city":"Woerden","operatorName":"Allego","maxPowerKw":0,"isMegawatt":false,"status":"CHARGING","source":"ndw","priceKwh":0.511}},{"type":"Feature","geometry":{"type":"Point","coordinates":[4.882743,52.080254]},"properties":{"type":"charge","layer":"passenger","locationId":"680a24740f5ddbd29be03c7c","name":"Pentec BV / Aldi","address":"Edisonweg  7","city":"Woerden","operatorName":"E-Flux by Road","maxPowerKw":19,"isMegawatt":false,"status":"AVAILABLE","source":"ndw","priceKwh":0.53}},{"type":"Feature","geometry":{"type":"Point","coordinates":[4.909585,52.080071]},"properties":{"type":"charge","layer":"passenger","locationId":"NLLOC003037","name":"NLD, Chiantigaard 1, 3446 WE Woerden","address":"Chiantigaard 1","city":"Woerden","operatorName":"Allego","maxPowerKw":0,"isMegawatt":false,"status":"AVAILABLE","source":"ndw","priceKwh":0.511}},{"type":"Feature","geometry":{"type":"Point","coordinates":[4.86179,52.077546]},"properties":{"type":"charge","layer":"passenger","locationId":"NLLOC007378","name":"NL, Hoefbladveld 19, 3448EX, Woerden","address":"Hoefbladveld 19","city":"Woerden","operatorName":"Allego","maxPowerKw":0,"isMegawatt":false,"status":"CHARGING","source":"ndw","priceKwh":0.511}},{"type":"Feature","geometry":{"type":"Point","coordinates":[4.910165,52.083107]},"properties":{"type":"charge","layer":"passenger","locationId":"NLLOC003960","name":"NLD Oeralstraat 7, 3446 BT Woerden","address":"Oeralstraat 7","city":"Woerden","operatorName":"Allego","maxPowerKw":0,"isMegawatt":false,"status":"AVAILABLE","source":"ndw","priceKwh":0.511}},{"type":"Feature","geometry":{"type":"Point","coordinates":[4.875909,52.079597]},"properties":{"type":"charge","layer":"passenger","locationId":"NLLOC009676","name":"NL, Essenlaan 22, 3442JH, Woerden","address":"Essenlaan 22","city":"Woerden","operatorName":"Allego","maxPowerKw":0,"isMegawatt":false,"status":"AVAILABLE","source":"ndw","priceKwh":0.511}},{"type":"Feature","geometry":{"type":"Point","coordinates":[4.962513,52.090541]},"properties":{"type":"charge","layer":"passenger","locationId":"NLLOC004780","name":"NLD Uitweg 1a, 3481 BA Harmelen","address":"Uitweg 1a","city":"Harmelen","operatorName":"Allego","maxPowerKw":0,"isMegawatt":false,"status":"CHARGING","source":"ndw","priceKwh":0.511}},{"type":"Feature","geometry":{"type":"Point","coordinates":[4.906971,52.092508]},"properties":{"type":"charge","layer":"passenger","locationId":"NLLOC003620","name":"NLD Van Slingelandt-lanen 64, 3445EL Woerden","address":"Van Slingelandt-lanen 64","city":"Woerden","operatorName":"Allego","maxPowerKw":0,"isMegawatt":false,"status":"AVAILABLE","source":"ndw","priceKwh":0.511}},{"type":"Feature","geometry":{"type":"Point","coordinates":[4.866651,52.082206]},"properties":{"type":"charge","layer":"passenger","locationId":"32394","name":"Circle K Woerden inz Hollandbaan","address":"Hollandbaan 4","city":"Woerden","operatorName":"Spirii","maxPowerKw":0,"isMegawatt":false,"status":"AVAILABLE","source":"ndw","priceKwh":0.65}},{"type":"Feature","geometry":{"type":"Point","coordinates":[4.875186,52.090643]},"properties":{"type":"charge","layer":"passenger","locationId":"NLLOC003855","name":"NLD Jan Steenstraat 47, 3443 GR Woerden","address":"Jan Steenstraat 47","city":"Woerden","operatorName":"Allego","maxPowerKw":0,"isMegawatt":false,"status":"AVAILABLE","source":"ndw","priceKwh":0.511}},{"type":"Feature","geometry":{"type":"Point","coordinates":[4.961225,52.085532]},"properties":{"type":"charge","layer":"passenger","locationId":"NLLOC004881","name":"NLD Mauritshof 170, 3481 VP Harmelen","address":"Mauritshof 170","city":"Harmelen","operatorName":"Allego","maxPowerKw":0,"isMegawatt":false,"status":"AVAILABLE","source":"ndw","priceKwh":0.511}},{"type":"Feature","geometry":{"type":"Point","coordinates":[4.954662,52.086608]},"properties":{"type":"charge","layer":"passenger","locationId":"NLLOC003649","name":"NLD Nassaupark 8, 3481 HD Harmelen","address":"Nassaupark 8","city":"Harmelen","operatorName":"Allego","maxPowerKw":0,"isMegawatt":false,"status":"AVAILABLE","source":"ndw","priceKwh":0.511}},{"type":"Feature","geometry":{"type":"Point","coordinates":[4.835775,52.117114]},"properties":{"type":"charge","layer":"passenger","locationId":"NLLOC006925","name":"NL, Korensloot 32, 3474HL, Woerden","address":"Korensloot 32","city":"Woerden","operatorName":"Allego","maxPowerKw":0,"isMegawatt":false,"status":"AVAILABLE","source":"ndw","priceKwh":0.511}},{"type":"Feature","geometry":{"type":"Point","coordinates":[4.857347,52.076002]},"properties":{"type":"charge","layer":"passenger","locationId":"NLLOC003493","name":"NLD Klaproosweide 71 3448JJ Woerden","address":"Klaproosweide 71","city":"Woerden","operatorName":"Allego","maxPowerKw":0,"isMegawatt":false,"status":"AVAILABLE","source":"ndw","priceKwh":0.511}},{"type":"Feature","geometry":{"type":"Point","coordinates":[4.873107,52.083183]},"properties":{"type":"charge","layer":"passenger","locationId":"NLLOC006767","name":"NL, Esdoornlaan 27, 3442 HB, Woerden","address":"Esdoornlaan 27","city":"Woerden","operatorName":"Allego","maxPowerKw":0,"isMegawatt":false,"status":"AVAILABLE","source":"ndw","priceKwh":0.511}},{"type":"Feature","geometry":{"type":"Point","coordinates":[4.860845,52.081207]},"properties":{"type":"charge","layer":"passenger","locationId":"NLLOC003103","name":"NLD Valeriaanveld 6, 3448 EV Woerden","address":"Valeriaanveld 6","city":"Woerden","operatorName":"Allego","maxPowerKw":0,"isMegawatt":false,"status":"AVAILABLE","source":"ndw","priceKwh":0.511}},{"type":"Feature","geometry":{"type":"Point","coordinates":[4.878888,52.082959]},"properties":{"type":"charge","layer":"passenger","locationId":"NLLOC008518","name":"NL, Anjerstraat 12, 3442 XM Woerden","address":"Anjerstraat 12","city":"Woerden","operatorName":"Allego","maxPowerKw":0,"isMegawatt":false,"status":"AVAILABLE","source":"ndw","priceKwh":0.511}},{"type":"Feature","geometry":{"type":"Point","coordinates":[4.914187,52.088144]},"properties":{"type":"charge","layer":"passenger","locationId":"NLLOC003111","name":"NL, Kallameer 43, 3446 JH, Woerden","address":"Kallameer 43","city":"Woerden","operatorName":"Allego","maxPowerKw":0,"isMegawatt":false,"status":"AVAILABLE","source":"ndw","priceKwh":0.511}},{"type":"Feature","geometry":{"type":"Point","coordinates":[4.89238,52.11169]},"properties":{"type":"charge","layer":"passenger","locationId":"96","name":"Shell Recharge NL Voorhuis 53","address":"Voorhuis 53","city":"Kamerik","operatorName":"Ubitricity","maxPowerKw":11,"isMegawatt":false,"status":"AVAILABLE","source":"ndw","priceKwh":0.388}},{"type":"Feature","geometry":{"type":"Point","coordinates":[4.856757,52.078008]},"properties":{"type":"charge","layer":"passenger","locationId":"NLLOC008727","name":"NL, Bakboordlaan 53, 3448KG, Woerden","address":"Bakboordlaan 53","city":"Woerden","operatorName":"Allego","maxPowerKw":0,"isMegawatt":false,"status":"AVAILABLE","source":"ndw","priceKwh":0.511}},{"type":"Feature","geometry":{"type":"Point","coordinates":[4.904826,52.076578]},"properties":{"type":"charge","layer":"passenger","locationId":"6593e7c76ccc8c001c6b1db9","name":"Lodger-Oplaadpunt 24/7","address":"Straat van Gibraltar 1","city":"Woerden","operatorName":"E-Flux by Road","maxPowerKw":22,"isMegawatt":false,"status":"AVAILABLE","source":"ndw","priceKwh":0.55}},{"type":"Feature","geometry":{"type":"Point","coordinates":[4.904601,52.07663]},"properties":{"type":"charge","layer":"passenger","locationId":"65845d0be50a21001ca5c5fa","name":"Lodger- Oplaadpunt 24/7","address":"Straat van Gibraltar 1","city":"Woerden","operatorName":"E-Flux by Road","maxPowerKw":11,"isMegawatt":false,"status":"AVAILABLE","source":"ndw","priceKwh":0.55}},{"type":"Feature","geometry":{"type":"Point","coordinates":[4.885923,52.085455]},"properties":{"type":"charge","layer":"passenger","locationId":"NLLOC003925","name":"NL, Wagenstraat 2A, 3441 BM Woerden","address":"Wagenstraat 2A","city":"Woerden","operatorName":"Allego","maxPowerKw":0,"isMegawatt":false,"status":"AVAILABLE","source":"ndw","priceKwh":0.511}},{"type":"Feature","geometry":{"type":"Point","coordinates":[4.965897,52.090312]},"properties":{"type":"charge","layer":"passenger","locationId":"NLLOC009252","name":"NL, Iepenlaan 1, 3481 XA Harmelen","address":"Iepenlaan 1","city":"Harmelen","operatorName":"Allego","maxPowerKw":0,"isMegawatt":false,"status":"AVAILABLE","source":"ndw","priceKwh":0.511}},{"type":"Feature","geometry":{"type":"Point","coordinates":[4.90621,52.08078]},"properties":{"type":"charge","layer":"passenger","locationId":"9a27ade3-4c62-4647-841f-932ac7c1ca19","name":"Bergstraat","address":"Bergstraat 48","city":"Woerden","operatorName":"Vattenfall InCharge","maxPowerKw":11,"isMegawatt":false,"status":"AVAILABLE","source":"ndw"}},{"type":"Feature","geometry":{"type":"Point","coordinates":[4.866837,52.07473]},"properties":{"type":"charge","layer":"passenger","locationId":"1044180","name":"DAE_NL_2001371","address":"De Vlist 4","city":"Woerden","operatorName":"DAEN Mobility","maxPowerKw":11,"isMegawatt":false,"status":"AVAILABLE","source":"ndw","priceKwh":0.28}},{"type":"Feature","geometry":{"type":"Point","coordinates":[4.901091,52.090039]},"properties":{"type":"charge","layer":"passenger","locationId":"NLLOC005125","name":"NLD, Frederik Hendriklaan 18, 3445 XN Woerden","address":"Frederik Hendriklaan 18","city":"Woerden","operatorName":"Allego","maxPowerKw":0,"isMegawatt":false,"status":"AVAILABLE","source":"ndw","priceKwh":0.511}},{"type":"Feature","geometry":{"type":"Point","coordinates":[4.88896,52.07607]},"properties":{"type":"charge","layer":"passenger","locationId":"E936FB1E-9E7D-464E-A145-3B0F19910BCD","name":"Eneco eMobility Vijzelmolenlaan 9 Woerden","address":"Vijzelmolenlaan 9","city":"Woerden","operatorName":"Eneco","maxPowerKw":0,"isMegawatt":false,"status":"AVAILABLE","source":"ndw","priceKwh":0.32}},{"type":"Feature","geometry":{"type":"Point","coordinates":[4.955815,52.08678]},"properties":{"type":"charge","layer":"passenger","locationId":"NLLOC006485","name":"NL, Wipmolen 2, 3481 AJ, Harmelen","address":"Wipmolen 2","city":"Harmelen","operatorName":"Allego","maxPowerKw":0,"isMegawatt":false,"status":"AVAILABLE","source":"ndw","priceKwh":0.511}},{"type":"Feature","geometry":{"type":"Point","coordinates":[4.857349,52.080982]},"properties":{"type":"charge","layer":"passenger","locationId":"NLLOC006048","name":"NL, Herikveld 2, 3448GR, Woerden","address":"Herikveld 2","city":"Woerden","operatorName":"Allego","maxPowerKw":0,"isMegawatt":false,"status":"AVAILABLE","source":"ndw","priceKwh":0.511}},{"type":"Feature","geometry":{"type":"Point","coordinates":[4.887927,52.083481]},"properties":{"type":"charge","layer":"passenger","locationId":"NLLOC006440","name":"NL, Singel 43, 3442 AL, Woerden","address":"Singel 43","city":"Woerden","operatorName":"Allego","maxPowerKw":0,"isMegawatt":false,"status":"AVAILABLE","source":"ndw","priceKwh":0.511}},{"type":"Feature","geometry":{"type":"Point","coordinates":[4.9531,52.07982]},"properties":{"type":"charge","layer":"passenger","locationId":"90995390","name":"EQUANS SGZH 2.0 Helling 16","address":"Helling 16","city":"Leidschendam","operatorName":"EQUANS","maxPowerKw":0,"isMegawatt":false,"status":"AVAILABLE","source":"ndw"}},{"type":"Feature","geometry":{"type":"Point","coordinates":[4.867313,52.082695]},"properties":{"type":"charge","layer":"passenger","locationId":"63a180d5ecf74200123744a3","name":"GAMMA Woerden","address":"Molenvlietbaan 8","city":"Woerden","operatorName":"E-Flux by Road","maxPowerKw":11,"isMegawatt":false,"status":"AVAILABLE","source":"ndw","priceKwh":0.33}},{"type":"Feature","geometry":{"type":"Point","coordinates":[4.878583,52.090154]},"properties":{"type":"charge","layer":"passenger","locationId":"69d509d51ee6d7a25c9ff60e","name":"Pius-X","address":"Rubensstraat 1","city":"Woerden","operatorName":"E-Flux by Road","maxPowerKw":22,"isMegawatt":false,"status":"AVAILABLE","source":"ndw","priceKwh":0.6}},{"type":"Feature","geometry":{"type":"Point","coordinates":[4.855824,52.078086]},"properties":{"type":"charge","layer":"passenger","locationId":"NLLOC003413","name":"NLD Bijlander 34, 3448 KD Woerden","address":"Bijlander 34","city":"Woerden","operatorName":"Allego","maxPowerKw":0,"isMegawatt":false,"status":"AVAILABLE","source":"ndw","priceKwh":0.511}},{"type":"Feature","geometry":{"type":"Point","coordinates":[4.903734,52.09341]},"properties":{"type":"charge","layer":"passenger","locationId":"NLLOC002819","name":"NLD, Van der Duijn van maasdamlaan 48 3445 CC Woerden","address":"Van der Duijn van maasdamlaan 48","city":"Woerden","operatorName":"Allego","maxPowerKw":0,"isMegawatt":false,"status":"AVAILABLE","source":"ndw","priceKwh":0.511}},{"type":"Feature","geometry":{"type":"Point","coordinates":[4.854579,52.083779]},"properties":{"type":"charge","layer":"passenger","locationId":"697389b72807b488f0c98f63","name":"De Truffel's station","address":"Glazenmakersweg  2","city":"Woerden","operatorName":"E-Flux by Road","maxPowerKw":11,"isMegawatt":false,"status":"AVAILABLE","source":"ndw","priceKwh":0.58}},{"type":"Feature","geometry":{"type":"Point","coordinates":[4.875501,52.087261]},"properties":{"type":"charge","layer":"passenger","locationId":"NLLOC007384","name":"NL, Leidsestraatweg 87, 3443BR, Woerden","address":"Leidsestraatweg 87","city":"Woerden","operatorName":"Allego","maxPowerKw":0,"isMegawatt":false,"status":"AVAILABLE","source":"ndw","priceKwh":0.511}},{"type":"Feature","geometry":{"type":"Point","coordinates":[4.905916,52.085134]},"properties":{"type":"charge","layer":"passenger","locationId":"f084cb19-467c-4505-aee7-3a3d95d5e61d","name":"Kretakade","address":"Kretakade 9","city":"Woerden","operatorName":"Vattenfall InCharge","maxPowerKw":11,"isMegawatt":false,"status":"UNAVAILABLE","source":"ndw"}},{"type":"Feature","geometry":{"type":"Point","coordinates":[4.907571,52.083628]},"properties":{"type":"charge","layer":"passenger","locationId":"NLLOC013163","name":"NL, Harzstraat 30, 3446DM, Woerden","address":"Harzstraat 30","city":"Woerden","operatorName":"Allego","maxPowerKw":0,"isMegawatt":false,"status":"AVAILABLE","source":"ndw","priceKwh":0.511}},{"type":"Feature","geometry":{"type":"Point","coordinates":[4.869275,52.077524]},"properties":{"type":"charge","layer":"passenger","locationId":"NLLOC002881","name":"NLD, Stromenlaan 131, 3448 CD Woerden","address":"Stromenlaan 131","city":"Woerden","operatorName":"Allego","maxPowerKw":0,"isMegawatt":false,"status":"AVAILABLE","source":"ndw","priceKwh":0.511}},{"type":"Feature","geometry":{"type":"Point","coordinates":[4.872849,52.080992]},"properties":{"type":"charge","layer":"passenger","locationId":"NLLOC003041","name":"NLD, Lindenlaan 86, 3442GJ Woerden","address":"Lindenlaan 86","city":"Woerden","operatorName":"Allego","maxPowerKw":0,"isMegawatt":false,"status":"AVAILABLE","source":"ndw","priceKwh":0.511}},{"type":"Feature","geometry":{"type":"Point","coordinates":[4.904271,52.077156]},"properties":{"type":"charge","layer":"passenger","locationId":"fd4d9ff7-1c4a-4d9a-b982-164202c76852","name":"Botnische Golf 1","address":"Botnische Golf 1","city":"Woerden","operatorName":"Vattenfall InCharge","maxPowerKw":50,"isMegawatt":false,"status":"AVAILABLE","source":"ndw"}},{"type":"Feature","geometry":{"type":"MultiPolygon","coordinates":[[[[4.903686663591049,52.16205129177619],[4.907806828600124,52.16146132298489],[4.909638065481338,52.16187140272743],[4.911187383281245,52.16009548994072],[4.911777656782238,52.144254962010876],[4.915039493053114,52.144581787222975],[4.9236017937029715,52.14731935846113],[4.934375909318105,52.13885867779565],[4.943916052330706,52.12753720133715],[4.960996829040485,52.133362245769945],[4.970095924667434,52.122442033396055],[4.978197882149272,52.1128466058313],[4.978466538350047,52.11315736595799],[4.98022140589375,52.11219981659462],[4.97958022540607,52.11156439985584],[4.979624757461601,52.10872274648002],[4.978728557041109,52.108100725557705],[4.976269284803377,52.107972095286215],[4.975820252603526,52.10571679575489],[4.973049429562792,52.102784082865924],[4.973440261559133,52.10123033764918],[4.975659513269953,52.09978988847982],[4.98932693822094,52.10075558605213],[4.993524017485423,52.0922261439551],[4.9942176973806385,52.090385143066605],[5.00500680905777,52.088452334216946],[5.0032298875974535,52.077956978953125],[5.001617741612132,52.0781442360402],[4.9994979651761895,52.06613166771703],[4.995844967895425,52.06733449113715],[4.982590772023577,52.064950705291984],[4.970500594782483,52.06756038847004],[4.957105384579905,52.06594796244297],[4.956333037277869,52.070299652045875],[4.945714001050582,52.075555707105785],[4.939366643364708,52.07792425187374],[4.936202232551886,52.0798661217951],[4.9308465346551555,52.07928584926374],[4.926608354167651,52.07781850793369],[4.9246609785635,52.07759093411636],[4.917981620499424,52.07476511698784],[4.914891238899619,52.0740929571332],[4.908202640783397,52.07189603283503],[4.9054731141474255,52.07014858550713],[4.901613465945209,52.07039682312625],[4.900250135666416,52.07020265408921],[4.888984736118573,52.0689079566695],[4.8753349555863315,52.06888572050449],[4.874516687758801,52.06819118558927],[4.87320071151265,52.068745835238566],[4.855231888124497,52.068814022019616],[4.840376857273264,52.06888056973634],[4.8298083468604665,52.06682391602975],[4.834035753222439,52.072736365551066],[4.832789598163128,52.072951560421764],[4.8330455961224335,52.074827448538365],[4.8262760202024655,52.074644102307296],[4.826492881730042,52.07952770513535],[4.825629831942529,52.0797928626115],[4.825635608269697,52.08008200468145],[4.823394815524161,52.092801753854324],[4.823055892496678,52.1051933435445],[4.82438950312317,52.10540361348729],[4.825314741614415,52.107151626823814],[4.792079959381114,52.122287913738134],[4.792360079000278,52.123383806293866],[4.793490623593035,52.123973270864994],[4.798357464117565,52.12530113928172],[4.80198048362935,52.12485808091324],[4.803497537968176,52.1264161843566],[4.806365489030626,52.12739680556142],[4.8066741529526595,52.12782304306873],[4.808052036642282,52.12914718545657],[4.8077900691580195,52.12985825547533],[4.808352286133658,52.131526746756485],[4.808846732674129,52.131814330680555],[4.80767546457915,52.13466873835203],[4.808726766472187,52.13726716051266],[4.810250565875363,52.1385598301188],[4.813110983528032,52.14017377511026],[4.814929593035457,52.139953055043954],[4.816665628488208,52.139387464047594],[4.817916380293921,52.14075574064715],[4.8191706260237535,52.14137606797974],[4.820533551946007,52.14222930088719],[4.826471801998729,52.14217686378365],[4.831970091573508,52.14445857557773],[4.833053093522033,52.144706589761],[4.83752056738415,52.14064428325279],[4.84079334273227,52.14147729900839],[4.842583828820411,52.139533653558615],[4.847412586302745,52.138945471667896],[4.851535320311332,52.13961617190433],[4.85248348464122,52.138384839851206],[4.855238698373419,52.137210144270405],[4.864915099851668,52.13739164326391],[4.870543726639517,52.138340674396915],[4.872710613585728,52.13885399033099],[4.874518546537014,52.138831929922326],[4.873623563514611,52.15608303564724],[4.887574546823225,52.15995868753105],[4.892178370616391,52.16179844162462],[4.903686663591049,52.16205129177619]]]]},"properties":{"type":"boundary","gemeente":"Woerden","code":"GM0632"}}]}