{"type":"FeatureCollection","metadata":{"gemeente":"Wormerland","slug":"wormerland","code":"GM0880","generated_at":"2026-06-02T13:19:22.438Z","total_passenger":90,"total_freight":0,"bounds":[4.7887555021459915,52.46849789474036,4.934702911725998,52.54260054249778],"operators":["E-Flux by Road","Eneco","PureCharged","TotalEnergies","Ubitricity","Vattenfall InCharge"]},"features":[{"type":"Feature","geometry":{"type":"Point","coordinates":[4.79325,52.52001]},"properties":{"type":"charge","layer":"passenger","locationId":"038fda50-b44b-11f0-a1bc-42010aa400b8","name":"PP005083","address":"Dorpsstraat 163","city":"Oostknollendam","operatorName":"TotalEnergies","maxPowerKw":0,"isMegawatt":false,"status":"AVAILABLE","source":"ndw"}},{"type":"Feature","geometry":{"type":"Point","coordinates":[4.816351,52.496881]},"properties":{"type":"charge","layer":"passenger","locationId":"8ecf0250-8ac9-11ea-b07a-42010a840fcb","name":"PP005148","address":"Prins van Oranjestraat 88","city":"Wormer","operatorName":"TotalEnergies","maxPowerKw":0,"isMegawatt":false,"status":"AVAILABLE","source":"ndw"}},{"type":"Feature","geometry":{"type":"Point","coordinates":[4.807328,52.495853]},"properties":{"type":"charge","layer":"passenger","locationId":"1013da198cafca413d3e4879c54fc0e6","name":"Robstraat 23","address":"Robstraat 23","city":"Wormer","operatorName":"Vattenfall InCharge","maxPowerKw":11,"isMegawatt":false,"status":"AVAILABLE","source":"ndw"}},{"type":"Feature","geometry":{"type":"Point","coordinates":[4.803733,52.493361]},"properties":{"type":"charge","layer":"passenger","locationId":"94378850-1e7d-11eb-bee2-42010a840fc2","name":"PP005617","address":"Accra 20","city":"Wormer","operatorName":"TotalEnergies","maxPowerKw":0,"isMegawatt":false,"status":"AVAILABLE","source":"ndw"}},{"type":"Feature","geometry":{"type":"Point","coordinates":[4.812726,52.501337]},"properties":{"type":"charge","layer":"passenger","locationId":"ebc18353-c47a-4311-81b1-0faf05bd6bf5","name":"TNLP006703","address":"Sternstraat 31","city":"Wormer","operatorName":"TotalEnergies","maxPowerKw":17,"isMegawatt":false,"status":"AVAILABLE","source":"ndw"}},{"type":"Feature","geometry":{"type":"Point","coordinates":[4.79514,52.49174]},"properties":{"type":"charge","layer":"passenger","locationId":"0d9cddc4-f1c7-11e9-901b-42010a840026","name":"PP004055","address":"Kuif 1","city":"Wormer","operatorName":"TotalEnergies","maxPowerKw":0,"isMegawatt":false,"status":"AVAILABLE","source":"ndw"}},{"type":"Feature","geometry":{"type":"Point","coordinates":[4.81395,52.493675]},"properties":{"type":"charge","layer":"passenger","locationId":"f1d9d1e0-6b8a-11e9-ae5a-42010a840033","name":"PP005144","address":"Kees Jongensstraat 5","city":"Wormer","operatorName":"TotalEnergies","maxPowerKw":0,"isMegawatt":false,"status":"UNAVAILABLE","source":"ndw"}},{"type":"Feature","geometry":{"type":"Point","coordinates":[4.800236,52.494292]},"properties":{"type":"charge","layer":"passenger","locationId":"4a21f5c0-0bc6-11ec-828a-42010a840003","name":"TNLP006433","address":"Nieuweweg 44","city":"Wormer","operatorName":"TotalEnergies","maxPowerKw":17,"isMegawatt":false,"status":"UNAVAILABLE","source":"ndw"}},{"type":"Feature","geometry":{"type":"Point","coordinates":[4.8073546,52.493829]},"properties":{"type":"charge","layer":"passenger","locationId":"1426","name":"Shell Recharge NL De Aker 11","address":"De Aker 11","city":"Wormer","operatorName":"Ubitricity","maxPowerKw":22,"isMegawatt":false,"status":"AVAILABLE","source":"ndw"}},{"type":"Feature","geometry":{"type":"Point","coordinates":[4.81019,52.50014]},"properties":{"type":"charge","layer":"passenger","locationId":"b5d08996-71ac-11e9-b066-42010a840fe6","name":"Shell Recharge NL Kemphaanstraat 42 Wormer","address":"Kemphaanstraat 42","city":"Wormer","operatorName":"Ubitricity","maxPowerKw":11,"isMegawatt":false,"status":"AVAILABLE","source":"ndw"}},{"type":"Feature","geometry":{"type":"Point","coordinates":[4.84722,52.50434]},"properties":{"type":"charge","layer":"passenger","locationId":"d9826182-f147-11e9-acc7-42010a840003","name":"Shell Recharge NL Weiver 3 Wormer","address":"Weiver 3","city":"Wormer","operatorName":"Ubitricity","maxPowerKw":11,"isMegawatt":false,"status":"AVAILABLE","source":"ndw"}},{"type":"Feature","geometry":{"type":"Point","coordinates":[4.807355,52.493829]},"properties":{"type":"charge","layer":"passenger","locationId":"dea10130-9649-11ef-b29c-42010aa400b8","name":"Shell Recharge NL De Aker 11, Wormer","address":"De Aker 11","city":"Wormer","operatorName":"Ubitricity","maxPowerKw":22,"isMegawatt":false,"status":"AVAILABLE","source":"ndw"}},{"type":"Feature","geometry":{"type":"Point","coordinates":[4.81049,52.49499]},"properties":{"type":"charge","layer":"passenger","locationId":"1de74404-7174-11e9-b79b-42010a84002a","name":"Shell Recharge NL Spatterstraat 21 Wormer","address":"Spatterstraat 21","city":"Wormer","operatorName":"Ubitricity","maxPowerKw":11,"isMegawatt":false,"status":"AVAILABLE","source":"ndw"}},{"type":"Feature","geometry":{"type":"Point","coordinates":[4.92445,52.50944]},"properties":{"type":"charge","layer":"passenger","locationId":"5cdce1b0-e450-11e9-94c6-42010a840fc6","name":"Shell Recharge NL Neckerstraat 28 Wijdewormer","address":"Neckerstraat 28","city":"Wijdewormer","operatorName":"Ubitricity","maxPowerKw":11,"isMegawatt":false,"status":"AVAILABLE","source":"ndw"}},{"type":"Feature","geometry":{"type":"Point","coordinates":[4.82067,52.49676]},"properties":{"type":"charge","layer":"passenger","locationId":"60f31cc6-d546-11ec-af0f-42010a840003","name":"Shell Recharge NL Roze-ven 52 Wormer","address":"Roze-ven 52","city":"Wormer","operatorName":"Ubitricity","maxPowerKw":11,"isMegawatt":false,"status":"AVAILABLE","source":"ndw"}},{"type":"Feature","geometry":{"type":"Point","coordinates":[4.802203,52.499449]},"properties":{"type":"charge","layer":"passenger","locationId":"689dfffa-ae09-11f0-83e2-42010aa400b8","name":"Shell Recharge NL Koningsvarenstraat 23, Wormer","address":"Koningsvarenstraat 23","city":"Wormer","operatorName":"Ubitricity","maxPowerKw":22,"isMegawatt":false,"status":"AVAILABLE","source":"ndw"}},{"type":"Feature","geometry":{"type":"Point","coordinates":[4.817041,52.4984]},"properties":{"type":"charge","layer":"passenger","locationId":"6f9a4cc2ae014b3fb6b4c7c46331e728","name":"Torenplein 5","address":"Torenplein 5","city":"Wormer","operatorName":"Vattenfall InCharge","maxPowerKw":11,"isMegawatt":false,"status":"AVAILABLE","source":"ndw"}},{"type":"Feature","geometry":{"type":"Point","coordinates":[4.9146,52.50778]},"properties":{"type":"charge","layer":"passenger","locationId":"ad81b78e-0233-11ea-be68-42010a840004","name":"Shell Recharge NL Noorderweg 158 Wormerland","address":"Noorderweg 158","city":"Wormerland","operatorName":"Ubitricity","maxPowerKw":11,"isMegawatt":false,"status":"AVAILABLE","source":"ndw"}},{"type":"Feature","geometry":{"type":"Point","coordinates":[4.912007,52.508987]},"properties":{"type":"charge","layer":"passenger","locationId":"04135578-82C7-43E7-B6E0-D5738AA574E0","name":"TNLP007741","address":"Tjadenweg 43","city":"Wijdewormer","operatorName":"TotalEnergies","maxPowerKw":17,"isMegawatt":false,"status":"AVAILABLE","source":"ndw"}},{"type":"Feature","geometry":{"type":"Point","coordinates":[4.821252,52.499094]},"properties":{"type":"charge","layer":"passenger","locationId":"366d4690-d2f2-11f0-8d3d-42010aa400b8","name":"TNLP006796","address":"De Voorhoede 21","city":"Wormer","operatorName":"TotalEnergies","maxPowerKw":17,"isMegawatt":false,"status":"AVAILABLE","source":"ndw"}},{"type":"Feature","geometry":{"type":"Point","coordinates":[4.796658,52.499321]},"properties":{"type":"charge","layer":"passenger","locationId":"6117f055-a8b7-48a1-9397-6873098a2eb5","name":"TNLP015164","address":"Poortwachter 140","city":"Wormer","operatorName":"TotalEnergies","maxPowerKw":17,"isMegawatt":false,"status":"AVAILABLE","source":"ndw"}},{"type":"Feature","geometry":{"type":"Point","coordinates":[4.810532,52.493551]},"properties":{"type":"charge","layer":"passenger","locationId":"5db54bfc-c8bc-11f0-94ef-42010aa400b8","name":"TNLP006102","address":"Kalander 48","city":"Wormer","operatorName":"TotalEnergies","maxPowerKw":17,"isMegawatt":false,"status":"AVAILABLE","source":"ndw"}},{"type":"Feature","geometry":{"type":"Point","coordinates":[4.795493,52.492276]},"properties":{"type":"charge","layer":"passenger","locationId":"bac5c3f0-f3cc-11ef-bc77-42010aa400b8","name":"Shell Recharge NL Merckenrif 1, Wormer","address":"Merckenrif 1","city":"Wormer","operatorName":"Ubitricity","maxPowerKw":22,"isMegawatt":false,"status":"CHARGING","source":"ndw"}},{"type":"Feature","geometry":{"type":"Point","coordinates":[4.824113,52.499599]},"properties":{"type":"charge","layer":"passenger","locationId":"73675030-534d-11ee-8982-42010aa40fc0","name":"TNLP009675","address":"Dorpsstraat 214","city":"Wormer","operatorName":"TotalEnergies","maxPowerKw":17,"isMegawatt":false,"status":"AVAILABLE","source":"ndw"}},{"type":"Feature","geometry":{"type":"Point","coordinates":[4.8023178,52.4936977]},"properties":{"type":"charge","layer":"passenger","locationId":"1734","name":"Shell Recharge NL Bassein 22","address":"Bassein 22","city":"Wormer","operatorName":"Ubitricity","maxPowerKw":22,"isMegawatt":false,"status":"AVAILABLE","source":"ndw"}},{"type":"Feature","geometry":{"type":"Point","coordinates":[4.81019,52.50014]},"properties":{"type":"charge","layer":"passenger","locationId":"526","name":"Shell Recharge NL Kemphaanstraat 42","address":"Kemphaanstraat 42","city":"Wormer","operatorName":"Ubitricity","maxPowerKw":11,"isMegawatt":false,"status":"AVAILABLE","source":"ndw"}},{"type":"Feature","geometry":{"type":"Point","coordinates":[4.84722,52.50434]},"properties":{"type":"charge","layer":"passenger","locationId":"495","name":"Shell Recharge NL Weiver 3","address":"Weiver 3","city":"Wormer","operatorName":"Ubitricity","maxPowerKw":11,"isMegawatt":false,"status":"AVAILABLE","source":"ndw"}},{"type":"Feature","geometry":{"type":"Point","coordinates":[4.810532,52.493551]},"properties":{"type":"charge","layer":"passenger","locationId":"11e185ee-866f-4563-8580-76acf2d40911","name":"TNLP006102","address":"Kalander 48","city":"Wormer","operatorName":"TotalEnergies","maxPowerKw":17,"isMegawatt":false,"status":"AVAILABLE","source":"ndw"}},{"type":"Feature","geometry":{"type":"Point","coordinates":[4.82067,52.49676]},"properties":{"type":"charge","layer":"passenger","locationId":"556","name":"Shell Recharge NL Roze-ven 52","address":"Roze-ven 52","city":"Wormer","operatorName":"Ubitricity","maxPowerKw":11,"isMegawatt":false,"status":"AVAILABLE","source":"ndw"}},{"type":"Feature","geometry":{"type":"Point","coordinates":[4.80099,52.49275]},"properties":{"type":"charge","layer":"passenger","locationId":"708b2e1e-fc36-11ec-8426-42010aa40014","name":"Eneco eMobility Odion Service Bureau - Wormer","address":"Mercuriusweg 5A","city":"Wormer","operatorName":"Eneco","maxPowerKw":22,"isMegawatt":false,"status":"AVAILABLE","source":"ndw"}},{"type":"Feature","geometry":{"type":"Point","coordinates":[4.808115,52.496419]},"properties":{"type":"charge","layer":"passenger","locationId":"91f1ba27-ab67-48b1-95b1-3818f168a2de","name":"TNLP006436","address":"Mooriaanstraat 4","city":"Wormer","operatorName":"TotalEnergies","maxPowerKw":17,"isMegawatt":false,"status":"AVAILABLE","source":"ndw"}},{"type":"Feature","geometry":{"type":"Point","coordinates":[4.802318,52.493698]},"properties":{"type":"charge","layer":"passenger","locationId":"2a241e36-1fce-11f0-bd01-42010aa400b8","name":"Shell Recharge NL Bassein 22, Wormer","address":"Bassein 22","city":"Wormer","operatorName":"Ubitricity","maxPowerKw":22,"isMegawatt":false,"status":"AVAILABLE","source":"ndw"}},{"type":"Feature","geometry":{"type":"Point","coordinates":[4.918507,52.505482]},"properties":{"type":"charge","layer":"passenger","locationId":"b3cbbfce-62a9-11ee-a09e-42010aa40fc0","name":"TNLP008322","address":"Sportlaan 2","city":"Wijdewormer","operatorName":"TotalEnergies","maxPowerKw":14,"isMegawatt":false,"status":"AVAILABLE","source":"ndw"}},{"type":"Feature","geometry":{"type":"Point","coordinates":[4.80386,52.49964]},"properties":{"type":"charge","layer":"passenger","locationId":"ca522308-d22a-11f0-a1ab-42010aa400b8","name":"PP005179","address":"Koningsvarenstraat 20","city":"Wormer","operatorName":"TotalEnergies","maxPowerKw":0,"isMegawatt":false,"status":"AVAILABLE","source":"ndw"}},{"type":"Feature","geometry":{"type":"Point","coordinates":[4.806246,52.499066]},"properties":{"type":"charge","layer":"passenger","locationId":"0b08c904-8408-11f0-858c-42010aa400b8","name":"TNLP006918","address":"Watermuntstraat 143","city":"Wormer","operatorName":"TotalEnergies","maxPowerKw":17,"isMegawatt":false,"status":"AVAILABLE","source":"ndw"}},{"type":"Feature","geometry":{"type":"Point","coordinates":[4.796658,52.499321]},"properties":{"type":"charge","layer":"passenger","locationId":"f3d856da-e878-11ef-a2af-42010aa400b8","name":"TNLP015164","address":"Poortwachter 140","city":"Wormer","operatorName":"TotalEnergies","maxPowerKw":17,"isMegawatt":false,"status":"AVAILABLE","source":"ndw"}},{"type":"Feature","geometry":{"type":"Point","coordinates":[4.9146,52.50778]},"properties":{"type":"charge","layer":"passenger","locationId":"477","name":"Shell Recharge NL Noorderweg 158","address":"Noorderweg 158","city":"Wormerland","operatorName":"Ubitricity","maxPowerKw":11,"isMegawatt":false,"status":"CHARGING","source":"ndw"}},{"type":"Feature","geometry":{"type":"Point","coordinates":[4.81748,52.49993]},"properties":{"type":"charge","layer":"passenger","locationId":"e99f2da60f3ae86f103a6840d8b4bc27","name":"Dorpsstraat 147","address":"Dorpsstraat 147","city":"Wormer","operatorName":"Vattenfall InCharge","maxPowerKw":11,"isMegawatt":false,"status":"CHARGING","source":"ndw"}},{"type":"Feature","geometry":{"type":"Point","coordinates":[4.7954933,52.4922759]},"properties":{"type":"charge","layer":"passenger","locationId":"1110","name":"Shell Recharge NL Merckenrif 1","address":"Merckenrif 1","city":"Wormer","operatorName":"Ubitricity","maxPowerKw":22,"isMegawatt":false,"status":"AVAILABLE","source":"ndw"}},{"type":"Feature","geometry":{"type":"Point","coordinates":[4.821252,52.499094]},"properties":{"type":"charge","layer":"passenger","locationId":"fd927f5c-71c5-4fc7-a38a-da300048f392","name":"TNLP006796","address":"De Voorhoede 21","city":"Wormer","operatorName":"TotalEnergies","maxPowerKw":17,"isMegawatt":false,"status":"AVAILABLE","source":"ndw"}},{"type":"Feature","geometry":{"type":"Point","coordinates":[4.80802,52.49223]},"properties":{"type":"charge","layer":"passenger","locationId":"7aadcaf0-f1c6-11e9-912a-42010a840026","name":"PP004052","address":"De Balk 8","city":"Wormer","operatorName":"TotalEnergies","maxPowerKw":0,"isMegawatt":false,"status":"AVAILABLE","source":"ndw"}},{"type":"Feature","geometry":{"type":"Point","coordinates":[4.80099,52.49275]},"properties":{"type":"charge","layer":"passenger","locationId":"05FBDAC7-5AC2-48FB-B14C-9C3880E42690","name":"Eneco eMobility Odion Service Bureau - Wormer","address":"Mercuriusweg 5A","city":"Wormer","operatorName":"Eneco","maxPowerKw":22,"isMegawatt":false,"status":"AVAILABLE","source":"ndw"}},{"type":"Feature","geometry":{"type":"Point","coordinates":[4.79449,52.504254]},"properties":{"type":"charge","layer":"passenger","locationId":"685968e1b6cfc3bd629dfe92","name":"Caravanpark de Akker","address":"Wormerringdijk 1","city":"Wormer","operatorName":"PureCharged","maxPowerKw":11,"isMegawatt":false,"status":"AVAILABLE","source":"ndw"}},{"type":"Feature","geometry":{"type":"Point","coordinates":[4.80802,52.49223]},"properties":{"type":"charge","layer":"passenger","locationId":"06062636-17e5-4f41-8d27-6a5ba04beca0","name":"PP004052","address":"De Balk 8","city":"Wormer","operatorName":"TotalEnergies","maxPowerKw":0,"isMegawatt":false,"status":"AVAILABLE","source":"ndw"}},{"type":"Feature","geometry":{"type":"Point","coordinates":[4.812236,52.492407]},"properties":{"type":"charge","layer":"passenger","locationId":"0bf41814-ce3b-11f0-8bc1-42010aa400b8","name":"TNLP015427","address":"Waterzolder 36","city":"Wormer","operatorName":"TotalEnergies","maxPowerKw":17,"isMegawatt":false,"status":"AVAILABLE","source":"ndw"}},{"type":"Feature","geometry":{"type":"Point","coordinates":[4.813752,52.49562]},"properties":{"type":"charge","layer":"passenger","locationId":"065e9b48-76e8-11ed-a73b-42010aa40fd1","name":"TNLP007842","address":"Arisstraat 72","city":"Wormer","operatorName":"TotalEnergies","maxPowerKw":17,"isMegawatt":false,"status":"AVAILABLE","source":"ndw"}},{"type":"Feature","geometry":{"type":"Point","coordinates":[4.798347,52.49868]},"properties":{"type":"charge","layer":"passenger","locationId":"2e4dbdc6-e3c6-11ea-9d54-42010a840009","name":"PP005223","address":"Poortwachter 35","city":"Wormer","operatorName":"TotalEnergies","maxPowerKw":0,"isMegawatt":false,"status":"AVAILABLE","source":"ndw"}},{"type":"Feature","geometry":{"type":"Point","coordinates":[4.808115,52.496419]},"properties":{"type":"charge","layer":"passenger","locationId":"cef20090-01cd-11ec-b126-42010a840055","name":"TNLP006436","address":"Mooriaanstraat 4","city":"Wormer","operatorName":"TotalEnergies","maxPowerKw":17,"isMegawatt":false,"status":"AVAILABLE","source":"ndw"}},{"type":"Feature","geometry":{"type":"Point","coordinates":[4.801021,52.497776]},"properties":{"type":"charge","layer":"passenger","locationId":"1164e4d2-a1ad-11eb-b33a-42010a840016","name":"TNLP006147","address":"Knollendammerstraat 34","city":"Wormer","operatorName":"TotalEnergies","maxPowerKw":17,"isMegawatt":false,"status":"AVAILABLE","source":"ndw"}},{"type":"Feature","geometry":{"type":"Point","coordinates":[4.806602,52.497893]},"properties":{"type":"charge","layer":"passenger","locationId":"9b4c48be-c662-11f0-a8c6-42010aa400b8","name":"TNLP006991","address":"Watermuntstraat 7","city":"Wormer","operatorName":"TotalEnergies","maxPowerKw":17,"isMegawatt":false,"status":"AVAILABLE","source":"ndw"}},{"type":"Feature","geometry":{"type":"Point","coordinates":[4.847218,52.50832]},"properties":{"type":"charge","layer":"passenger","locationId":"bede5b84-ce3a-11f0-9469-42010aa400b8","name":"PP005149","address":"Molenpad 22","city":"Jisp","operatorName":"TotalEnergies","maxPowerKw":0,"isMegawatt":false,"status":"AVAILABLE","source":"ndw"}},{"type":"Feature","geometry":{"type":"Point","coordinates":[4.912007,52.508987]},"properties":{"type":"charge","layer":"passenger","locationId":"67a5865c-668d-11ed-b1fa-42010aa4005b","name":"TNLP007741","address":"Tjadenweg 43","city":"Wijdewormer","operatorName":"TotalEnergies","maxPowerKw":17,"isMegawatt":false,"status":"AVAILABLE","source":"ndw"}},{"type":"Feature","geometry":{"type":"Point","coordinates":[4.8152392,52.4921432]},"properties":{"type":"charge","layer":"passenger","locationId":"2348","name":"Shell Recharge NL Kees Jongensstraat 34","address":"Kees Jongensstraat 34","city":"Wormer","operatorName":"Ubitricity","maxPowerKw":22,"isMegawatt":false,"status":"AVAILABLE","source":"ndw"}},{"type":"Feature","geometry":{"type":"Point","coordinates":[4.803733,52.493361]},"properties":{"type":"charge","layer":"passenger","locationId":"7eaba42a-cd79-11f0-b2e6-42010aa400b8","name":"PP005617","address":"Accra 20","city":"Wormer","operatorName":"TotalEnergies","maxPowerKw":0,"isMegawatt":false,"status":"AVAILABLE","source":"ndw"}},{"type":"Feature","geometry":{"type":"Point","coordinates":[4.803212,52.496072]},"properties":{"type":"charge","layer":"passenger","locationId":"477fbd20-d629-11eb-bc03-42010a840003","name":"TNLP006278","address":"Spatterstraat 223","city":"Wormer","operatorName":"TotalEnergies","maxPowerKw":17,"isMegawatt":false,"status":"AVAILABLE","source":"ndw"}},{"type":"Feature","geometry":{"type":"Point","coordinates":[4.812726,52.501337]},"properties":{"type":"charge","layer":"passenger","locationId":"80f6ce80-3eb2-11ec-be6a-42010a840003","name":"TNLP006703","address":"Sternstraat 31","city":"Wormer","operatorName":"TotalEnergies","maxPowerKw":17,"isMegawatt":false,"status":"AVAILABLE","source":"ndw"}},{"type":"Feature","geometry":{"type":"Point","coordinates":[4.810422,52.491071]},"properties":{"type":"charge","layer":"passenger","locationId":"578b65de-4e6a-11ec-804f-42010a840003","name":"TNLP006797","address":"Lijmkoker 13","city":"Wormer","operatorName":"TotalEnergies","maxPowerKw":17,"isMegawatt":false,"status":"AVAILABLE","source":"ndw"}},{"type":"Feature","geometry":{"type":"Point","coordinates":[4.812541,52.497477]},"properties":{"type":"charge","layer":"passenger","locationId":"20137d30-580b-11ec-b8e1-42010a840077","name":"TNLP006827","address":"Zaandammerstraat 29","city":"Wormer","operatorName":"TotalEnergies","maxPowerKw":17,"isMegawatt":false,"status":"AVAILABLE","source":"ndw"}},{"type":"Feature","geometry":{"type":"Point","coordinates":[4.816828,52.499421]},"properties":{"type":"charge","layer":"passenger","locationId":"331ff58a-e3c6-11ea-900b-42010a84000e","name":"PP005450","address":"Beschuitstorenstraat 1","city":"Wormer","operatorName":"TotalEnergies","maxPowerKw":0,"isMegawatt":false,"status":"AVAILABLE","source":"ndw"}},{"type":"Feature","geometry":{"type":"Point","coordinates":[4.805315,52.500807]},"properties":{"type":"charge","layer":"passenger","locationId":"fd982730-d573-11ea-9c2e-42010a84001b","name":"PP005313","address":"Paardenakker 4","city":"Wormer","operatorName":"TotalEnergies","maxPowerKw":0,"isMegawatt":false,"status":"AVAILABLE","source":"ndw"}},{"type":"Feature","geometry":{"type":"Point","coordinates":[4.831361,52.500721]},"properties":{"type":"charge","layer":"passenger","locationId":"21d6094e-ec7b-11ec-bdbc-42010aa4000d","name":"TNLP007383","address":"Willem de Grootstraat 1","city":"Wormer","operatorName":"TotalEnergies","maxPowerKw":17,"isMegawatt":false,"status":"AVAILABLE","source":"ndw"}},{"type":"Feature","geometry":{"type":"Point","coordinates":[4.793208,52.492853]},"properties":{"type":"charge","layer":"passenger","locationId":"6331ae4a9a912e56eb603079","name":"Saenliefde","address":"Veerdijk 62","city":"Wormer","operatorName":"E-Flux by Road","maxPowerKw":11,"isMegawatt":false,"status":"AVAILABLE","source":"ndw"}},{"type":"Feature","geometry":{"type":"Point","coordinates":[4.801021,52.497776]},"properties":{"type":"charge","layer":"passenger","locationId":"6df6e944-d452-4e02-b424-ab8daf4564d2","name":"TNLP006147","address":"Knollendammerstraat 34","city":"Wormer","operatorName":"TotalEnergies","maxPowerKw":17,"isMegawatt":false,"status":"AVAILABLE","source":"ndw"}},{"type":"Feature","geometry":{"type":"Point","coordinates":[4.79514,52.49174]},"properties":{"type":"charge","layer":"passenger","locationId":"f06191f0-3064-4e5f-b2b5-84947a3830f5","name":"PP004055","address":"Kuif 1","city":"Wormer","operatorName":"TotalEnergies","maxPowerKw":0,"isMegawatt":false,"status":"CHARGING","source":"ndw"}},{"type":"Feature","geometry":{"type":"Point","coordinates":[4.847218,52.50832]},"properties":{"type":"charge","layer":"passenger","locationId":"ad12fc15-9afb-45e7-a2a4-ab072f6ab782","name":"PP005149","address":"Molenpad 22","city":"Jisp","operatorName":"TotalEnergies","maxPowerKw":0,"isMegawatt":false,"status":"AVAILABLE","source":"ndw"}},{"type":"Feature","geometry":{"type":"Point","coordinates":[4.803733,52.493361]},"properties":{"type":"charge","layer":"passenger","locationId":"d041d55c-6e33-4de6-baec-771349917003","name":"PP005617","address":"Accra 20","city":"Wormer","operatorName":"TotalEnergies","maxPowerKw":0,"isMegawatt":false,"status":"AVAILABLE","source":"ndw"}},{"type":"Feature","geometry":{"type":"Point","coordinates":[4.807282,52.513701]},"properties":{"type":"charge","layer":"passenger","locationId":"697b101c05575fe2c28d2643","name":"64106 Noord-Holland-Midden-Links","address":"Schaalsmeerdijk 1","city":"Oostknollendam","operatorName":"E-Flux by Road","maxPowerKw":11,"isMegawatt":false,"status":"AVAILABLE","source":"ndw"}},{"type":"Feature","geometry":{"type":"Point","coordinates":[4.80386,52.49964]},"properties":{"type":"charge","layer":"passenger","locationId":"d855350b-f9fd-48ce-9097-c8c40260e9ac","name":"PP005179","address":"Koningsvarenstraat 20","city":"Wormer","operatorName":"TotalEnergies","maxPowerKw":0,"isMegawatt":false,"status":"AVAILABLE","source":"ndw"}},{"type":"Feature","geometry":{"type":"Point","coordinates":[4.812541,52.497477]},"properties":{"type":"charge","layer":"passenger","locationId":"bfeb8eed-39ab-43a9-9e5c-014091c30ea8","name":"TNLP006827","address":"Zaandammerstraat 29","city":"Wormer","operatorName":"TotalEnergies","maxPowerKw":17,"isMegawatt":false,"status":"AVAILABLE","source":"ndw"}},{"type":"Feature","geometry":{"type":"Point","coordinates":[4.791023,52.518406]},"properties":{"type":"charge","layer":"passenger","locationId":"6437dc0147ef9700122efd49","name":"Pim van DilLen 's station","address":"Dorpsstraat 111","city":"Oostknollendam","operatorName":"E-Flux by Road","maxPowerKw":11,"isMegawatt":false,"status":"AVAILABLE","source":"ndw"}},{"type":"Feature","geometry":{"type":"Point","coordinates":[4.84693,52.47305]},"properties":{"type":"charge","layer":"passenger","locationId":"18474EC5-78C4-4D36-91BE-8C7450D50A47","name":"Eneco eMobility AZ Trainingscomplex","address":"Zuiderweg 72A","city":"Wijdewormer","operatorName":"Eneco","maxPowerKw":22,"isMegawatt":false,"status":"UNAVAILABLE","source":"ndw"}},{"type":"Feature","geometry":{"type":"Point","coordinates":[4.92445,52.50944]},"properties":{"type":"charge","layer":"passenger","locationId":"737","name":"Shell Recharge NL Neckerstraat 28","address":"Neckerstraat 28","city":"Wijdewormer","operatorName":"Ubitricity","maxPowerKw":11,"isMegawatt":false,"status":"AVAILABLE","source":"ndw"}},{"type":"Feature","geometry":{"type":"Point","coordinates":[4.79136,52.518135]},"properties":{"type":"charge","layer":"passenger","locationId":"678915c4bb76346dd0655722","name":"Bodo Beheer BV","address":"Dorpsstraat 64","city":"Oostknollendam","operatorName":"E-Flux by Road","maxPowerKw":11,"isMegawatt":false,"status":"CHARGING","source":"ndw"}},{"type":"Feature","geometry":{"type":"Point","coordinates":[4.8022032,52.4994487]},"properties":{"type":"charge","layer":"passenger","locationId":"1889","name":"Shell Recharge NL Koningsvarenstraat 23","address":"Koningsvarenstraat 23","city":"Wormer","operatorName":"Ubitricity","maxPowerKw":22,"isMegawatt":false,"status":"AVAILABLE","source":"ndw"}},{"type":"Feature","geometry":{"type":"Point","coordinates":[4.831361,52.500721]},"properties":{"type":"charge","layer":"passenger","locationId":"d218870c-72fa-40e2-9b7f-88ce9f79790e","name":"TNLP007383","address":"Willem de Grootstraat 1","city":"Wormer","operatorName":"TotalEnergies","maxPowerKw":17,"isMegawatt":false,"status":"AVAILABLE","source":"ndw"}},{"type":"Feature","geometry":{"type":"Point","coordinates":[4.805315,52.500807]},"properties":{"type":"charge","layer":"passenger","locationId":"a9865c53-1cb8-49e1-b5da-1c2a85d9e2a2","name":"PP005313","address":"Paardenakker 4","city":"Wormer","operatorName":"TotalEnergies","maxPowerKw":0,"isMegawatt":false,"status":"AVAILABLE","source":"ndw"}},{"type":"Feature","geometry":{"type":"Point","coordinates":[4.808629,52.497827]},"properties":{"type":"charge","layer":"passenger","locationId":"21f8848fa1b78f9964303689ea4eeeaf","name":"Lepelbladstraat 5","address":"Lepelbladstraat 5","city":"Wormer","operatorName":"Vattenfall InCharge","maxPowerKw":11,"isMegawatt":false,"status":"AVAILABLE","source":"ndw"}},{"type":"Feature","geometry":{"type":"Point","coordinates":[4.918507,52.505482]},"properties":{"type":"charge","layer":"passenger","locationId":"646CBAB5-6A33-42A5-BAB7-8D2627CEE3A9","name":"TNLP008322","address":"Sportlaan 2","city":"Wijdewormer","operatorName":"TotalEnergies","maxPowerKw":14,"isMegawatt":false,"status":"CHARGING","source":"ndw"}},{"type":"Feature","geometry":{"type":"Point","coordinates":[4.806246,52.499066]},"properties":{"type":"charge","layer":"passenger","locationId":"86e929fe-e4ac-4db7-b291-7271a07ffed9","name":"TNLP006918","address":"Watermuntstraat 143","city":"Wormer","operatorName":"TotalEnergies","maxPowerKw":17,"isMegawatt":false,"status":"AVAILABLE","source":"ndw"}},{"type":"Feature","geometry":{"type":"Point","coordinates":[4.804041,52.495036]},"properties":{"type":"charge","layer":"passenger","locationId":"c873fc34fb60eae6d6a208e891e9e032","name":"Spatterstraat 163","address":"Spatterstraat 163","city":"Wormer","operatorName":"Vattenfall InCharge","maxPowerKw":11,"isMegawatt":false,"status":"AVAILABLE","source":"ndw"}},{"type":"Feature","geometry":{"type":"Point","coordinates":[4.806602,52.497893]},"properties":{"type":"charge","layer":"passenger","locationId":"dc255fd3-a1c5-4251-86e7-9693d2576da7","name":"TNLP006991","address":"Watermuntstraat 7","city":"Wormer","operatorName":"TotalEnergies","maxPowerKw":17,"isMegawatt":false,"status":"AVAILABLE","source":"ndw"}},{"type":"Feature","geometry":{"type":"Point","coordinates":[4.807282,52.513701]},"properties":{"type":"charge","layer":"passenger","locationId":"697b0f5fd3eccf3227139542","name":"64106 Noord-Holland-Midden-Rechts","address":"schaalsmeerdijk 1","city":"Oostknollendam","operatorName":"E-Flux by Road","maxPowerKw":11,"isMegawatt":false,"status":"CHARGING","source":"ndw"}},{"type":"Feature","geometry":{"type":"Point","coordinates":[4.803212,52.496072]},"properties":{"type":"charge","layer":"passenger","locationId":"2d148140-6dd1-4079-88a6-a86b3fe5baa4","name":"TNLP006278","address":"Spatterstraat 223","city":"Wormer","operatorName":"TotalEnergies","maxPowerKw":17,"isMegawatt":false,"status":"AVAILABLE","source":"ndw"}},{"type":"Feature","geometry":{"type":"Point","coordinates":[4.812236,52.492407]},"properties":{"type":"charge","layer":"passenger","locationId":"5713052c-6aec-48a0-b222-720d5227996c","name":"TNLP015427","address":"Waterzolder 36","city":"Wormer","operatorName":"TotalEnergies","maxPowerKw":17,"isMegawatt":false,"status":"CHARGING","source":"ndw"}},{"type":"Feature","geometry":{"type":"Point","coordinates":[4.918585,52.505514]},"properties":{"type":"charge","layer":"passenger","locationId":"f229eff9ab3d43ed41cb295eafded023","name":"Sportlaan 2","address":"Sportlaan 2","city":"Wijdewormer","operatorName":"Vattenfall InCharge","maxPowerKw":11,"isMegawatt":false,"status":"AVAILABLE","source":"ndw"}},{"type":"Feature","geometry":{"type":"Point","coordinates":[4.798347,52.49868]},"properties":{"type":"charge","layer":"passenger","locationId":"6d085a99-4185-4da5-9f51-2e9d81a2b832","name":"PP005223","address":"Poortwachter 35","city":"Wormer","operatorName":"TotalEnergies","maxPowerKw":0,"isMegawatt":false,"status":"AVAILABLE","source":"ndw"}},{"type":"Feature","geometry":{"type":"Point","coordinates":[4.810422,52.491071]},"properties":{"type":"charge","layer":"passenger","locationId":"b2a37e87-0fd8-49a8-befe-1c45bf83a50e","name":"TNLP006797","address":"Lijmkoker 13","city":"Wormer","operatorName":"TotalEnergies","maxPowerKw":17,"isMegawatt":false,"status":"AVAILABLE","source":"ndw"}},{"type":"Feature","geometry":{"type":"Point","coordinates":[4.816828,52.499421]},"properties":{"type":"charge","layer":"passenger","locationId":"367b90b7-9108-4f62-a3ce-d1fc4b1373dd","name":"PP005450","address":"Beschuitstorenstraat 1","city":"Wormer","operatorName":"TotalEnergies","maxPowerKw":0,"isMegawatt":false,"status":"AVAILABLE","source":"ndw"}},{"type":"Feature","geometry":{"type":"Point","coordinates":[4.813752,52.49562]},"properties":{"type":"charge","layer":"passenger","locationId":"9D54CCAD-4CE9-45BE-B90B-2E5A78CCAD61","name":"TNLP007842","address":"Arisstraat 72","city":"Wormer","operatorName":"TotalEnergies","maxPowerKw":17,"isMegawatt":false,"status":"AVAILABLE","source":"ndw"}},{"type":"Feature","geometry":{"type":"Point","coordinates":[4.81049,52.49499]},"properties":{"type":"charge","layer":"passenger","locationId":"517","name":"Shell Recharge NL Spatterstraat 21","address":"Spatterstraat 21","city":"Wormer","operatorName":"Ubitricity","maxPowerKw":11,"isMegawatt":false,"status":"AVAILABLE","source":"ndw"}},{"type":"Feature","geometry":{"type":"MultiPolygon","coordinates":[[[[4.834023223703055,52.53887415957448],[4.835342624823993,52.53735096165625],[4.837493934532111,52.530623610197],[4.843297566781692,52.52679038187301],[4.849796484366747,52.525040114774036],[4.859380982460791,52.525034692329214],[4.867719053471298,52.52214537017926],[4.874693664708986,52.52004398365604],[4.893500938489426,52.517607919189835],[4.90194757339827,52.517842610305166],[4.909523468948935,52.51701000419468],[4.9226001528494345,52.5114126971632],[4.928530264209859,52.51080752613502],[4.934351228528519,52.511641083792604],[4.934702911725998,52.51035381739505],[4.929246059665201,52.50740766702645],[4.925116812076903,52.50553049298433],[4.925582426044269,52.50540429898943],[4.9264803769924175,52.50428063439272],[4.9262086912001575,52.500179471357505],[4.923991549860229,52.496882893445466],[4.9237875011459105,52.49316031041604],[4.9206501585399565,52.49043489059258],[4.916126238566777,52.48654561180424],[4.908220201098396,52.48309727559574],[4.906468949908379,52.47982686467045],[4.895630293662027,52.47822790510785],[4.890531788145803,52.478959591958535],[4.882437217279824,52.474802230825546],[4.867225705361222,52.47057741908051],[4.862586084995048,52.46849789474036],[4.852504338424099,52.470367443147246],[4.84647935872881,52.4707247632628],[4.842681378236412,52.471971239609964],[4.842374752856487,52.47212707442148],[4.842129665698544,52.47232621851238],[4.841535572927478,52.47302237987169],[4.837545939594363,52.477094247623974],[4.836924117568647,52.47987642627342],[4.827552961447696,52.480898476161876],[4.816844912023858,52.482561331168725],[4.815154122868377,52.48303798871607],[4.814614369208011,52.48321728851239],[4.814003926815402,52.483528176494914],[4.813868027575131,52.48346626905598],[4.812364248961421,52.48396792269236],[4.811565113521032,52.48574701233367],[4.798842298563064,52.49110565439374],[4.793642881086051,52.490882403655995],[4.792358244274017,52.4911320196167],[4.791588489857698,52.49214495665625],[4.793352750702992,52.49395018501667],[4.795077060144781,52.49621869171215],[4.794623695074228,52.50041403403873],[4.793997073934251,52.50328786216531],[4.793344981502522,52.50700468357168],[4.789750788300524,52.5094266263576],[4.7887555021459915,52.511106169588714],[4.7898602156408545,52.51923636254765],[4.792438940886311,52.519725685480935],[4.798283529325978,52.52436099028574],[4.804705181130186,52.52536070520636],[4.811625769400038,52.530191053288206],[4.820186102956838,52.531232369087085],[4.824406345253428,52.533805043657765],[4.8169921445174015,52.535648784928554],[4.819026591105397,52.538726554621746],[4.820985630376326,52.53824694655228],[4.824384325551529,52.54260054249778],[4.828030827175013,52.541669162752825],[4.8339094935179565,52.53896095760787],[4.834023223703055,52.53887415957448]]]]},"properties":{"type":"boundary","gemeente":"Wormerland","code":"GM0880"}}]}