{"type":"FeatureCollection","metadata":{"gemeente":"Zundert","slug":"zundert","code":"GM0879","generated_at":"2026-06-07T19:22:09.578Z","total_passenger":61,"total_freight":0,"bounds":[4.529895561277176,51.422014645180745,4.743983294048245,51.549798621198626],"operators":["E-Flux by Road","Eneco","Laadnet","OPCHARGE","Pluq","Vattenfall InCharge"]},"features":[{"type":"Feature","geometry":{"type":"Point","coordinates":[4.666458,51.46959]},"properties":{"type":"charge","layer":"passenger","locationId":"6b605a97-ab46-4c1f-a3c3-909af14c0c96","name":"Burgemeester Manderslaan","address":"Burgemeester Manderslaan 56","city":"Zundert","operatorName":"Vattenfall InCharge","maxPowerKw":11,"isMegawatt":false,"status":"AVAILABLE","source":"ndw"}},{"type":"Feature","geometry":{"type":"Point","coordinates":[4.666736,51.473171]},"properties":{"type":"charge","layer":"passenger","locationId":"da5e0199-14ac-41c0-a57b-5fad62754764","name":"Bredaseweg","address":"Bredaseweg 4","city":"Zundert","operatorName":"Vattenfall InCharge","maxPowerKw":11,"isMegawatt":false,"status":"CHARGING","source":"ndw"}},{"type":"Feature","geometry":{"type":"Point","coordinates":[4.65002,51.46508]},"properties":{"type":"charge","layer":"passenger","locationId":"f5b12801348f2e3c466e3ce004560b46","name":"Leeuwerikstraat 54","address":"Leeuwerikstraat 54","city":"Zundert","operatorName":"Vattenfall InCharge","maxPowerKw":11,"isMegawatt":false,"status":"CHARGING","source":"ndw"}},{"type":"Feature","geometry":{"type":"Point","coordinates":[4.656241,51.479259]},"properties":{"type":"charge","layer":"passenger","locationId":"4996cc2c-4890-46aa-94db-47ff632e2eca","name":"Klein Zundertseweg 5","address":"Klein Zundertseweg 5","city":"Zundert","operatorName":"Vattenfall InCharge","maxPowerKw":11,"isMegawatt":false,"status":"AVAILABLE","source":"ndw"}},{"type":"Feature","geometry":{"type":"Point","coordinates":[4.693955,51.523328]},"properties":{"type":"charge","layer":"passenger","locationId":"b5d0b7671d3749aaa5fce48bd55659d2","name":"Rijsbergen- Daemen ICT","address":"De Waterman 5","city":"Rijsbergen","operatorName":"OPCHARGE","maxPowerKw":22,"isMegawatt":false,"status":"AVAILABLE","source":"ndw","priceKwh":0.58}},{"type":"Feature","geometry":{"type":"Point","coordinates":[4.706288,51.517544]},"properties":{"type":"charge","layer":"passenger","locationId":"e7e21eca3c3a15349a6a597a0b0e82d8","name":"Hogestraat 22a4","address":"Hogestraat 22a4","city":"Rijsbergen","operatorName":"Vattenfall InCharge","maxPowerKw":11,"isMegawatt":false,"status":"AVAILABLE","source":"ndw"}},{"type":"Feature","geometry":{"type":"Point","coordinates":[4.63257,51.440378]},"properties":{"type":"charge","layer":"passenger","locationId":"4227401","name":"Laadnet BHV Expo Groep Nederland","address":"Wernhoutseweg 152b","city":"Wernhout","operatorName":"Laadnet","maxPowerKw":22,"isMegawatt":false,"status":"AVAILABLE","source":"ndw"}},{"type":"Feature","geometry":{"type":"Point","coordinates":[4.65198,51.46805]},"properties":{"type":"charge","layer":"passenger","locationId":"aacabdb45366491f2be66569f940acb8","name":"Gele Berk 29","address":"Gele Berk 29","city":"Zundert","operatorName":"Vattenfall InCharge","maxPowerKw":11,"isMegawatt":false,"status":"AVAILABLE","source":"ndw"}},{"type":"Feature","geometry":{"type":"Point","coordinates":[4.641292,51.45763]},"properties":{"type":"charge","layer":"passenger","locationId":"53e93ab1-a429-4831-8417-ef1cec44e87c","name":"Potgieter","address":"Potgieter 28","city":"Wernhout","operatorName":"Vattenfall InCharge","maxPowerKw":11,"isMegawatt":false,"status":"AVAILABLE","source":"ndw"}},{"type":"Feature","geometry":{"type":"Point","coordinates":[4.659715,51.512864]},"properties":{"type":"charge","layer":"passenger","locationId":"2493681","name":"Laadnet Woning (4891TG)","address":"Ettensebaan 21","city":"Rijsbergen","operatorName":"Laadnet","maxPowerKw":11,"isMegawatt":false,"status":"AVAILABLE","source":"ndw"}},{"type":"Feature","geometry":{"type":"Point","coordinates":[4.691963,51.516622]},"properties":{"type":"charge","layer":"passenger","locationId":"c54e134c-163f-4929-a417-e14e95e7b4f8","name":"Dries","address":"Dries 30","city":"Rijsbergen","operatorName":"Vattenfall InCharge","maxPowerKw":11,"isMegawatt":false,"status":"AVAILABLE","source":"ndw"}},{"type":"Feature","geometry":{"type":"Point","coordinates":[4.654187,51.494897]},"properties":{"type":"charge","layer":"passenger","locationId":"68e145f4e11efa96a5d05c83","name":"Ettensebaan 13 L","address":"Ettensebaan 13","city":"Klein-Zundert","operatorName":"E-Flux by Road","maxPowerKw":22,"isMegawatt":false,"status":"AVAILABLE","source":"ndw","priceKwh":0.48}},{"type":"Feature","geometry":{"type":"Point","coordinates":[4.673487,51.474614]},"properties":{"type":"charge","layer":"passenger","locationId":"9B410EB7-2AB3-4072-9627-9502B4F59FC2","name":"Eneco eMobility FashionPower BV","address":"Hofdreef 28","city":"Zundert","operatorName":"Eneco","maxPowerKw":11,"isMegawatt":false,"status":"AVAILABLE","source":"ndw","priceKwh":0.28}},{"type":"Feature","geometry":{"type":"Point","coordinates":[4.674538,51.474255]},"properties":{"type":"charge","layer":"passenger","locationId":"6245932022e30c500199098b","name":"Squeeze & Freeze Public","address":"Hofdreef  32","city":"Zundert","operatorName":"E-Flux by Road","maxPowerKw":22,"isMegawatt":false,"status":"AVAILABLE","source":"ndw","priceKwh":0.38}},{"type":"Feature","geometry":{"type":"Point","coordinates":[4.65163,51.479803]},"properties":{"type":"charge","layer":"passenger","locationId":"ae31d901-294c-4603-9bdd-205d89c0d0d1","name":"Burgemeester Kievitslaan","address":"Burgemeester Kievitslaan 56","city":"Klein Zundert","operatorName":"Vattenfall InCharge","maxPowerKw":11,"isMegawatt":false,"status":"AVAILABLE","source":"ndw"}},{"type":"Feature","geometry":{"type":"Point","coordinates":[4.645138,51.456784]},"properties":{"type":"charge","layer":"passenger","locationId":"f5488dceaeef6f8417e1bbf73e05554e","name":"Van Wely-Hof 1","address":"Van Wely-Hof 1","city":"Wernhout","operatorName":"Vattenfall InCharge","maxPowerKw":11,"isMegawatt":false,"status":"AVAILABLE","source":"ndw"}},{"type":"Feature","geometry":{"type":"Point","coordinates":[4.689485,51.514985]},"properties":{"type":"charge","layer":"passenger","locationId":"9900e08a-e963-41f1-8511-b647b284e277","name":"Bremakker","address":"Bremakker 2","city":"Rijsbergen","operatorName":"Vattenfall InCharge","maxPowerKw":11,"isMegawatt":false,"status":"AVAILABLE","source":"ndw"}},{"type":"Feature","geometry":{"type":"Point","coordinates":[4.701484,51.522087]},"properties":{"type":"charge","layer":"passenger","locationId":"cccc7077-b7ec-4fd8-8475-85c5ec7bde19","name":"Boswachter Neefsstraat","address":"Boswachter Neefsstraat 12","city":"Rijsbergen","operatorName":"Vattenfall InCharge","maxPowerKw":11,"isMegawatt":false,"status":"AVAILABLE","source":"ndw"}},{"type":"Feature","geometry":{"type":"Point","coordinates":[4.583019,51.457066]},"properties":{"type":"charge","layer":"passenger","locationId":"65c1062dd183d7001c438503","name":"station 1","address":"Turfpad  3a3","city":"Achtmaal","operatorName":"E-Flux by Road","maxPowerKw":22,"isMegawatt":false,"status":"AVAILABLE","source":"ndw","priceKwh":0.38}},{"type":"Feature","geometry":{"type":"Point","coordinates":[4.696606,51.51758]},"properties":{"type":"charge","layer":"passenger","locationId":"fd2a046f-63e8-4432-b583-6dffb7bf9ff7","name":"Kon. Emmastraat 2","address":"Kon. Emmastraat 2","city":"Rijsbergen","operatorName":"Vattenfall InCharge","maxPowerKw":11,"isMegawatt":false,"status":"AVAILABLE","source":"ndw"}},{"type":"Feature","geometry":{"type":"Point","coordinates":[4.653365,51.470725]},"properties":{"type":"charge","layer":"passenger","locationId":"6d93cd30-7c22-4742-bed2-bb197ff94bb8","name":"Berkenring","address":"Berkenring 28","city":"Zundert","operatorName":"Vattenfall InCharge","maxPowerKw":11,"isMegawatt":false,"status":"AVAILABLE","source":"ndw"}},{"type":"Feature","geometry":{"type":"Point","coordinates":[4.6412,51.45402]},"properties":{"type":"charge","layer":"passenger","locationId":"1edb499a-7dd6-4671-830b-a46ed87f49f3","name":"Antoon Jurriensplein","address":"Antoon Jurriensplein 15","city":"Wernhout","operatorName":"Vattenfall InCharge","maxPowerKw":11,"isMegawatt":false,"status":"AVAILABLE","source":"ndw"}},{"type":"Feature","geometry":{"type":"Point","coordinates":[4.654187,51.494897]},"properties":{"type":"charge","layer":"passenger","locationId":"68e145b09ef5449b3893cf92","name":"Ettensebaan 13 R","address":"Ettensebaan 13","city":"Klein-Zundert","operatorName":"E-Flux by Road","maxPowerKw":22,"isMegawatt":false,"status":"AVAILABLE","source":"ndw","priceKwh":0.48}},{"type":"Feature","geometry":{"type":"Point","coordinates":[4.683492,51.494428]},"properties":{"type":"charge","layer":"passenger","locationId":"68dd450e153689c36b1415f2","name":"Special Friend Dierbenodigdheden","address":"Bakkebrugstraat 4","city":"Klein Zundert","operatorName":"E-Flux by Road","maxPowerKw":11,"isMegawatt":false,"status":"AVAILABLE","source":"ndw","priceKwh":0.38}},{"type":"Feature","geometry":{"type":"Point","coordinates":[4.652282,51.463684]},"properties":{"type":"charge","layer":"passenger","locationId":"63c50995d4785d001225607c","name":"Vezalux","address":"Wernhoutseweg 38A","city":"WERNHOUT","operatorName":"E-Flux by Road","maxPowerKw":22,"isMegawatt":false,"status":"AVAILABLE","source":"ndw","priceKwh":0.37}},{"type":"Feature","geometry":{"type":"Point","coordinates":[4.654006,51.473294]},"properties":{"type":"charge","layer":"passenger","locationId":"11cba8a2-bd2a-4791-98f7-0bbe05f1f25a","name":"Boomgaard","address":"Boomgaard 13","city":"Zundert","operatorName":"Vattenfall InCharge","maxPowerKw":11,"isMegawatt":false,"status":"CHARGING","source":"ndw"}},{"type":"Feature","geometry":{"type":"Point","coordinates":[4.582842,51.457079]},"properties":{"type":"charge","layer":"passenger","locationId":"65c106fb0f9fb2001ccd38e6","name":"Station 2","address":"Turfpad 3a3","city":"Achtmaal","operatorName":"E-Flux by Road","maxPowerKw":22,"isMegawatt":false,"status":"AVAILABLE","source":"ndw","priceKwh":0.38}},{"type":"Feature","geometry":{"type":"Point","coordinates":[4.65626,51.47316]},"properties":{"type":"charge","layer":"passenger","locationId":"64f25669-81de-418a-a068-1b20f244bc25","name":"Spitter 26","address":"Spitter 26","city":"Zundert","operatorName":"Vattenfall InCharge","maxPowerKw":11,"isMegawatt":false,"status":"AVAILABLE","source":"ndw"}},{"type":"Feature","geometry":{"type":"Point","coordinates":[4.674538,51.474255]},"properties":{"type":"charge","layer":"passenger","locationId":"624592997d6a6e25a90213c7","name":"Squeeze & Freeze Public","address":"Hofdreef  32","city":"Zundert","operatorName":"E-Flux by Road","maxPowerKw":22,"isMegawatt":false,"status":"UNAVAILABLE","source":"ndw","priceKwh":0.38}},{"type":"Feature","geometry":{"type":"Point","coordinates":[4.647878,51.470429]},"properties":{"type":"charge","layer":"passenger","locationId":"02c24b77bb2981dda1395fa378673d25","name":"Berkenring 51","address":"Berkenring 51","city":"Zundert","operatorName":"Vattenfall InCharge","maxPowerKw":11,"isMegawatt":false,"status":"AVAILABLE","source":"ndw"}},{"type":"Feature","geometry":{"type":"Point","coordinates":[4.57512,51.467993]},"properties":{"type":"charge","layer":"passenger","locationId":"67ea53a4fdd85923d6002f50","name":"66101 West-Brabant - Buisse Hoeve","address":"Roosendaalsebaan 21","city":"Achtmaal","operatorName":"E-Flux by Road","maxPowerKw":11,"isMegawatt":false,"status":"AVAILABLE","source":"ndw","priceKwh":0.43}},{"type":"Feature","geometry":{"type":"Point","coordinates":[4.662527,51.473756]},"properties":{"type":"charge","layer":"passenger","locationId":"b74659e9-f0ee-4ef3-8ba9-f5def4d013f8","name":"Katerstraat","address":"Katerstraat 29","city":"Zundert","operatorName":"Vattenfall InCharge","maxPowerKw":11,"isMegawatt":false,"status":"AVAILABLE","source":"ndw"}},{"type":"Feature","geometry":{"type":"Point","coordinates":[4.696951,51.522766]},"properties":{"type":"charge","layer":"passenger","locationId":"2444df15-6aa8-4272-87bc-e6bfb80817c3","name":"Lange Reep","address":"Lange Reep 66","city":"Rijsbergen","operatorName":"Vattenfall InCharge","maxPowerKw":11,"isMegawatt":false,"status":"AVAILABLE","source":"ndw"}},{"type":"Feature","geometry":{"type":"Point","coordinates":[4.674319,51.473501]},"properties":{"type":"charge","layer":"passenger","locationId":"670f7ea5ed0444001ccbb0d1","name":"BusinessConnect (achterzijde)","address":"Hofdreef 42","city":"ZUNDERT","operatorName":"E-Flux by Road","maxPowerKw":22,"isMegawatt":false,"status":"AVAILABLE","source":"ndw","priceKwh":0.28}},{"type":"Feature","geometry":{"type":"Point","coordinates":[4.66032,51.47732]},"properties":{"type":"charge","layer":"passenger","locationId":"c3aecb8fc7de99f17a584b55f3825ecf","name":"Kapelakker 36","address":"Kapelakker 36","city":"Zundert","operatorName":"Vattenfall InCharge","maxPowerKw":11,"isMegawatt":false,"status":"AVAILABLE","source":"ndw"}},{"type":"Feature","geometry":{"type":"Point","coordinates":[4.617414,51.48112]},"properties":{"type":"charge","layer":"passenger","locationId":"66e446f6817e01001ce535c9","name":"Patricia van Tienen","address":"Rucphenseweg 30","city":"Zundert","operatorName":"Pluq","maxPowerKw":22,"isMegawatt":false,"status":"AVAILABLE","source":"ndw","priceKwh":0.4}},{"type":"Feature","geometry":{"type":"Point","coordinates":[4.732664,51.485721]},"properties":{"type":"charge","layer":"passenger","locationId":"4241036","name":"Laadnet BCT Treehub BV","address":"Treeport 1","city":"Rijsbergen","operatorName":"Laadnet","maxPowerKw":22,"isMegawatt":false,"status":"AVAILABLE","source":"ndw"}},{"type":"Feature","geometry":{"type":"Point","coordinates":[4.648996,51.469957]},"properties":{"type":"charge","layer":"passenger","locationId":"1e304b43-f8a1-4f93-b458-1a03375fba94","name":"Jasmijnring","address":"Jasmijnring 21","city":"Zundert","operatorName":"Vattenfall InCharge","maxPowerKw":11,"isMegawatt":false,"status":"AVAILABLE","source":"ndw"}},{"type":"Feature","geometry":{"type":"Point","coordinates":[4.675086,51.473468]},"properties":{"type":"charge","layer":"passenger","locationId":"670f7bae361634001c1e0d39","name":"BusinessConnect","address":"Hofdreef 42","city":"ZUNDERT","operatorName":"E-Flux by Road","maxPowerKw":22,"isMegawatt":false,"status":"AVAILABLE","source":"ndw","priceKwh":0.28}},{"type":"Feature","geometry":{"type":"Point","coordinates":[4.645347,51.464695]},"properties":{"type":"charge","layer":"passenger","locationId":"62188122f400c2547a322322","name":"Laadstation Maas-Jacobs","address":"De Ambachten 33","city":"Zundert","operatorName":"E-Flux by Road","maxPowerKw":22,"isMegawatt":false,"status":"AVAILABLE","source":"ndw","priceKwh":0.53}},{"type":"Feature","geometry":{"type":"Point","coordinates":[4.699801,51.519806]},"properties":{"type":"charge","layer":"passenger","locationId":"49f0a6b9-47d7-4fa1-b051-32d9e7917757","name":"Beatrixstraat","address":"Beatrixstraat 21","city":"Rijsbergen","operatorName":"Vattenfall InCharge","maxPowerKw":11,"isMegawatt":false,"status":"AVAILABLE","source":"ndw"}},{"type":"Feature","geometry":{"type":"Point","coordinates":[4.690508,51.51705]},"properties":{"type":"charge","layer":"passenger","locationId":"517a03f0-0935-433e-8b1c-2a138b161578","name":"Dries","address":"Dries 2","city":"Rijsbergen","operatorName":"Vattenfall InCharge","maxPowerKw":11,"isMegawatt":false,"status":"AVAILABLE","source":"ndw"}},{"type":"Feature","geometry":{"type":"Point","coordinates":[4.703505,51.516052]},"properties":{"type":"charge","layer":"passenger","locationId":"a2a2af88-7b8d-4b84-b5f4-a9aa299fbb66","name":"Lagestraat","address":"Lagestraat 14","city":"Rijsbergen","operatorName":"Vattenfall InCharge","maxPowerKw":11,"isMegawatt":false,"status":"AVAILABLE","source":"ndw"}},{"type":"Feature","geometry":{"type":"Point","coordinates":[4.69905,51.51811]},"properties":{"type":"charge","layer":"passenger","locationId":"e890d4b4-0339-415e-a551-a143b0048536","name":"Rijserf 24","address":"Rijserf 24","city":"Rijsbergen","operatorName":"Vattenfall InCharge","maxPowerKw":11,"isMegawatt":false,"status":"AVAILABLE","source":"ndw"}},{"type":"Feature","geometry":{"type":"Point","coordinates":[4.659396,51.481849]},"properties":{"type":"charge","layer":"passenger","locationId":"f608a40ebe4a180cfc0a925836857051","name":"Stuivezandseweg 29","address":"Stuivezandseweg 29","city":"Zundert","operatorName":"Vattenfall InCharge","maxPowerKw":11,"isMegawatt":false,"status":"AVAILABLE","source":"ndw"}},{"type":"Feature","geometry":{"type":"Point","coordinates":[4.666842,51.474429]},"properties":{"type":"charge","layer":"passenger","locationId":"d397c04b-f82e-4749-9fae-6595c9c159ac","name":"De Welborg","address":"De Welborg 1","city":"Zundert","operatorName":"Vattenfall InCharge","maxPowerKw":11,"isMegawatt":false,"status":"CHARGING","source":"ndw"}},{"type":"Feature","geometry":{"type":"Point","coordinates":[4.69999,51.52257]},"properties":{"type":"charge","layer":"passenger","locationId":"76696d2f-1d01-4591-8984-1832ffa80c04","name":"Boswachter Neefsstraat","address":"Boswachter Neefsstraat 2","city":"Rijsbergen","operatorName":"Vattenfall InCharge","maxPowerKw":11,"isMegawatt":false,"status":"CHARGING","source":"ndw"}},{"type":"Feature","geometry":{"type":"Point","coordinates":[4.69311,51.51682]},"properties":{"type":"charge","layer":"passenger","locationId":"fe08befcdef15192cccaeb955005b947","name":"Schouwland 1","address":"Schouwland 1","city":"Rijsbergen","operatorName":"Vattenfall InCharge","maxPowerKw":11,"isMegawatt":false,"status":"AVAILABLE","source":"ndw"}},{"type":"Feature","geometry":{"type":"Point","coordinates":[4.69815,51.52206]},"properties":{"type":"charge","layer":"passenger","locationId":"88182fae15890976e6c19cffd75622a4","name":"Lange Reep 26","address":"Lange Reep 26","city":"Rijsbergen","operatorName":"Vattenfall InCharge","maxPowerKw":11,"isMegawatt":false,"status":"AVAILABLE","source":"ndw"}},{"type":"Feature","geometry":{"type":"Point","coordinates":[4.67031,51.47265]},"properties":{"type":"charge","layer":"passenger","locationId":"3a25eb8b8ed800624cfd2a594a74ad0b","name":"Meirseweg 9","address":"Meirseweg 9","city":"Zundert","operatorName":"Vattenfall InCharge","maxPowerKw":11,"isMegawatt":false,"status":"AVAILABLE","source":"ndw"}},{"type":"Feature","geometry":{"type":"Point","coordinates":[4.649116,51.466289]},"properties":{"type":"charge","layer":"passenger","locationId":"e4bbede1-c25b-48dc-8d1f-6b22d17a5976","name":"Zwaluwenhof","address":"Zwaluwenhof 10","city":"Zundert","operatorName":"Vattenfall InCharge","maxPowerKw":11,"isMegawatt":false,"status":"CHARGING","source":"ndw"}},{"type":"Feature","geometry":{"type":"Point","coordinates":[4.6526,51.469228]},"properties":{"type":"charge","layer":"passenger","locationId":"8067b4bd-e27a-4454-b392-8dad9c278759","name":"Papierberk","address":"Papierberk 29","city":"Zundert","operatorName":"Vattenfall InCharge","maxPowerKw":11,"isMegawatt":false,"status":"AVAILABLE","source":"ndw"}},{"type":"Feature","geometry":{"type":"Point","coordinates":[4.655813,51.470824]},"properties":{"type":"charge","layer":"passenger","locationId":"f4f77d7fd554bcb49e03c044ec4dd78c","name":"Nachtegaalstraat 83","address":"Nachtegaalstraat 83","city":"Zundert","operatorName":"Vattenfall InCharge","maxPowerKw":11,"isMegawatt":false,"status":"AVAILABLE","source":"ndw"}},{"type":"Feature","geometry":{"type":"Point","coordinates":[4.65641,51.46864]},"properties":{"type":"charge","layer":"passenger","locationId":"a8766262-410e-4fc1-b004-c4037b73788e","name":"Poteindplein","address":"Poteindplein 7","city":"Zundert","operatorName":"Vattenfall InCharge","maxPowerKw":11,"isMegawatt":false,"status":"AVAILABLE","source":"ndw"}},{"type":"Feature","geometry":{"type":"Point","coordinates":[4.653952,51.481654]},"properties":{"type":"charge","layer":"passenger","locationId":"385268f5-80e4-419a-8b56-3ee8e43ac3d5","name":"Klein Zundertseweg","address":"Klein Zundertseweg 60","city":"Zundert","operatorName":"Vattenfall InCharge","maxPowerKw":11,"isMegawatt":false,"status":"AVAILABLE","source":"ndw"}},{"type":"Feature","geometry":{"type":"Point","coordinates":[4.655335,51.466217]},"properties":{"type":"charge","layer":"passenger","locationId":"da74ab6f-5c71-40f2-be9d-e0bb16d7d09c","name":"Wernhoutseweg","address":"Wernhoutseweg 1","city":"Zundert","operatorName":"Vattenfall InCharge","maxPowerKw":11,"isMegawatt":false,"status":"AVAILABLE","source":"ndw"}},{"type":"Feature","geometry":{"type":"Point","coordinates":[4.66256,51.47238]},"properties":{"type":"charge","layer":"passenger","locationId":"61af6a1c-0896-4fab-a279-fc524c398baf","name":"Beukenlaan","address":"Beukenlaan 39","city":"Zundert","operatorName":"Vattenfall InCharge","maxPowerKw":11,"isMegawatt":false,"status":"AVAILABLE","source":"ndw"}},{"type":"Feature","geometry":{"type":"Point","coordinates":[4.662363,51.470285]},"properties":{"type":"charge","layer":"passenger","locationId":"90030c3e-684f-4703-96c7-ba533352a228","name":"Heerdhof","address":"Heerdhof 16","city":"Zundert","operatorName":"Vattenfall InCharge","maxPowerKw":11,"isMegawatt":false,"status":"AVAILABLE","source":"ndw"}},{"type":"Feature","geometry":{"type":"Point","coordinates":[4.585268,51.453528]},"properties":{"type":"charge","layer":"passenger","locationId":"c4eeb781-412f-4020-a68f-d45b8e6effdc","name":"Pastoor de Bakkerstraat","address":"Pastoor de Bakkerstraat 23","city":"Achtmaal","operatorName":"Vattenfall InCharge","maxPowerKw":11,"isMegawatt":false,"status":"UNAVAILABLE","source":"ndw"}},{"type":"Feature","geometry":{"type":"Point","coordinates":[4.696219,51.514119]},"properties":{"type":"charge","layer":"passenger","locationId":"cad84f6e-708e-499b-ad88-892eb88aae3a","name":"Prins Bernhardstraat 1","address":"Prins Bernhardstraat 1","city":"Rijsbergen","operatorName":"Vattenfall InCharge","maxPowerKw":11,"isMegawatt":false,"status":"AVAILABLE","source":"ndw"}},{"type":"Feature","geometry":{"type":"Point","coordinates":[4.581852,51.453484]},"properties":{"type":"charge","layer":"passenger","locationId":"5ed3d201-aa76-4a70-99b9-0cebf399f65f","name":"Achtmaalseweg","address":"Achtmaalseweg 193D","city":"Achtmaal","operatorName":"Vattenfall InCharge","maxPowerKw":11,"isMegawatt":false,"status":"AVAILABLE","source":"ndw"}},{"type":"Feature","geometry":{"type":"MultiPolygon","coordinates":[[[[4.722489678701494,51.53515822064254],[4.725078335766973,51.532919098319084],[4.725500665569309,51.53310071822465],[4.7281746454687985,51.53366106124308],[4.7288641770124125,51.534841808427444],[4.730013003100158,51.53519345710218],[4.730198954283688,51.53641704434858],[4.732031185644704,51.53634120891887],[4.735618239737962,51.53369373500474],[4.738798434854479,51.53226703827651],[4.739732249834142,51.53210981426502],[4.741463608260419,51.53285804700735],[4.741801271594947,51.531096403124224],[4.740118385520544,51.527858218656675],[4.741133504768936,51.52631460290246],[4.743234451453677,51.52539388397134],[4.743983294048245,51.518761370193054],[4.743483336450469,51.51090975366375],[4.742157206373477,51.50563143522693],[4.735651427735579,51.491747782382525],[4.733996015900662,51.485548272144754],[4.729151268970928,51.48390726428518],[4.724745335578515,51.47877872265795],[4.720602671877846,51.473455025258545],[4.715989042241927,51.47106606259213],[4.716897496608445,51.46886475148539],[4.703248175210614,51.466968465783125],[4.702750252214699,51.46608321505367],[4.704055523556142,51.46546548413977],[4.699345091279758,51.46086110589138],[4.699313717358459,51.459972457143834],[4.6930962934627765,51.451730135563366],[4.686439957015938,51.45127102564124],[4.666615733880738,51.44423769945167],[4.669689050171901,51.42636285190358],[4.664471756988112,51.426158861766694],[4.6564180362456264,51.42499368278049],[4.651715986440406,51.42688558163475],[4.646649401876093,51.423395386560884],[4.641289792923944,51.422014645180745],[4.637473170396239,51.42301530148687],[4.633935540581179,51.42507516470096],[4.6300938548681305,51.42591709291591],[4.597054199484213,51.4301205096323],[4.588247514327579,51.431357658068485],[4.582487257379693,51.43137756160455],[4.5822184137333055,51.431933712074205],[4.574727445410564,51.432848473060254],[4.535408023944652,51.42302946147299],[4.529895561277176,51.44952030705809],[4.548159821727381,51.473312449680414],[4.556099804281663,51.485634212863815],[4.572298282320806,51.4826747997348],[4.5758071179183855,51.48813949769577],[4.573975345718311,51.488468495328945],[4.576176745303064,51.4925393751511],[4.579179002714558,51.49340615194023],[4.583709044498042,51.495764029048324],[4.589730331743402,51.496737403339885],[4.579572663659155,51.510712699094086],[4.610783819103087,51.5083385931881],[4.615019337863686,51.508946895035955],[4.616378762021396,51.508087298088036],[4.617086194894317,51.50970684436379],[4.618196968350239,51.50961524944764],[4.618201069472534,51.510672245123494],[4.620538429983328,51.51073618918115],[4.619404737523739,51.516172008774106],[4.621617565995478,51.51626193386109],[4.621506762339062,51.51744385116739],[4.626401166603102,51.51892067620686],[4.624986047701069,51.521090143044766],[4.627659012543564,51.52246776482609],[4.631059243386646,51.52331139772968],[4.638715571391407,51.52441268415784],[4.638157250994649,51.51720526578938],[4.643061005738596,51.51814742423015],[4.650926074574652,51.521287331004494],[4.652384075838095,51.52192665434032],[4.654216602773184,51.524145176495615],[4.660423406990154,51.526392184644415],[4.681079234511881,51.540695427942275],[4.687076568250037,51.54260309442701],[4.694186635912615,51.54484852028184],[4.7039967271139025,51.549798621198626],[4.728416981089036,51.53687760691594],[4.722489678701494,51.53515822064254]]]]},"properties":{"type":"boundary","gemeente":"Zundert","code":"GM0879"}}]}