{"type":"FeatureCollection","metadata":{"gemeente":"Zwolle","slug":"zwolle","code":"GM0193","generated_at":"2026-06-02T13:19:22.438Z","total_passenger":1010,"total_freight":3,"bounds":[6.003620290379913,52.440531107944736,6.210810834573754,52.587809257608825],"operators":["Allego","Blink Charging","DAEN Mobility","E-Flux by Road","EQUANS","Eneco","Fastned","Laadnet","Lanova Laadpalen","Milence","NXT Charging Solutions","Opcharge","PowerGo","PureCharged","Q-Park Netherlands","Shell Recharge","Tesla","Valk Energy","Vattenfall InCharge","bp pulse"]},"features":[{"type":"Feature","geometry":{"type":"Point","coordinates":[6.123945,52.50835]},"properties":{"type":"charge","layer":"passenger","locationId":"12929686-E256-4827-9B56-8569EF61534E","name":"Eneco eMobility Nedec - Zwolle","address":"Dokter van Deenweg 120","city":"Zwolle","operatorName":"Eneco","maxPowerKw":11,"isMegawatt":false,"status":"AVAILABLE","source":"ndw"}},{"type":"Feature","geometry":{"type":"Point","coordinates":[6.145681,52.523215]},"properties":{"type":"charge","layer":"passenger","locationId":"d8729a60-87a8-4e73-bdb4-406b8279761e","name":"Lorentzlaan","address":"Lorentzlaan 44","city":"Zwolle","operatorName":"Vattenfall InCharge","maxPowerKw":11,"isMegawatt":false,"status":"AVAILABLE","source":"ndw"}},{"type":"Feature","geometry":{"type":"Point","coordinates":[6.072821,52.513269]},"properties":{"type":"charge","layer":"passenger","locationId":"NLLOC012635","name":"NL, Grote Voort 7, 8041AM Zwolle (2)","address":"Grote Voort 7","city":"Zwolle","operatorName":"Allego","maxPowerKw":0,"isMegawatt":false,"status":"AVAILABLE","source":"ndw"}},{"type":"Feature","geometry":{"type":"Point","coordinates":[6.099169,52.53668]},"properties":{"type":"charge","layer":"passenger","locationId":"bb97803d-69dd-4454-9bf6-b3dc907ac7f4","name":"Rolderdiep","address":"Rolderdiep 10","city":"Zwolle","operatorName":"Vattenfall InCharge","maxPowerKw":11,"isMegawatt":false,"status":"AVAILABLE","source":"ndw"}},{"type":"Feature","geometry":{"type":"Point","coordinates":[6.090132,52.525463]},"properties":{"type":"charge","layer":"passenger","locationId":"f2718abb-468a-4ff3-8d29-6cd500f4181a","name":"Lassuslaan 25","address":"Lassuslaan 25","city":"Zwolle","operatorName":"Vattenfall InCharge","maxPowerKw":11,"isMegawatt":false,"status":"AVAILABLE","source":"ndw"}},{"type":"Feature","geometry":{"type":"Point","coordinates":[6.135124,52.488152]},"properties":{"type":"charge","layer":"passenger","locationId":"c1fe0160-7820-11ee-b657-42010aa40fc0","name":"Conradstraat 4c (PowerGo)","address":"Conradstraat 4c","city":"Zwolle","operatorName":"PowerGo","maxPowerKw":0,"isMegawatt":false,"status":"AVAILABLE","source":"ndw"}},{"type":"Feature","geometry":{"type":"Point","coordinates":[6.097661,52.514028]},"properties":{"type":"charge","layer":"passenger","locationId":"e5875968-82ca-11f0-b803-42010aa400b8","name":"Q-Park Zwolle Centrum","address":"Pletterstraat 41","city":"Zwolle","operatorName":"Q-Park Netherlands","maxPowerKw":11,"isMegawatt":false,"status":"AVAILABLE","source":"ndw"}},{"type":"Feature","geometry":{"type":"Point","coordinates":[6.077735,52.526989]},"properties":{"type":"charge","layer":"passenger","locationId":"34bb7d15-0a14-408b-a531-6f1605409420","name":"Porporastraat","address":"Porporastraat 15","city":"Zwolle","operatorName":"Vattenfall InCharge","maxPowerKw":11,"isMegawatt":false,"status":"AVAILABLE","source":"ndw"}},{"type":"Feature","geometry":{"type":"Point","coordinates":[6.062894,52.525347]},"properties":{"type":"charge","layer":"passenger","locationId":"4257e757-21fa-4043-b527-8a5d591c5217","name":"Bronstraat  1","address":"Bronstraat  1","city":"Zwolle","operatorName":"Vattenfall InCharge","maxPowerKw":11,"isMegawatt":false,"status":"AVAILABLE","source":"ndw"}},{"type":"Feature","geometry":{"type":"Point","coordinates":[6.093335,52.535054]},"properties":{"type":"charge","layer":"passenger","locationId":"NLLOC014865","name":"NL, Wijmerts 2, 8032MB, Zwolle","address":"Wijmerts 2","city":"Zwolle","operatorName":"Allego","maxPowerKw":0,"isMegawatt":false,"status":"AVAILABLE","source":"ndw"}},{"type":"Feature","geometry":{"type":"Point","coordinates":[6.040755,52.536449]},"properties":{"type":"charge","layer":"passenger","locationId":"94369c29-03f3-4bcb-a5b6-da0c2b2a5772","name":"Oldruitenborghstraat","address":"Oldruitenborghstraat 1","city":"Zwolle","operatorName":"Vattenfall InCharge","maxPowerKw":11,"isMegawatt":false,"status":"AVAILABLE","source":"ndw"}},{"type":"Feature","geometry":{"type":"Point","coordinates":[6.104297,52.499639]},"properties":{"type":"charge","layer":"passenger","locationId":"d20d1408-0a2b-11f0-8d85-42010aa400b8","name":"bp pulse IJsselallee","address":"IJsselallee 1","city":"Zwolle","operatorName":"bp pulse","maxPowerKw":300,"isMegawatt":false,"status":"AVAILABLE","source":"ndw"}},{"type":"Feature","geometry":{"type":"Point","coordinates":[6.087225,52.5325127]},"properties":{"type":"charge","layer":"passenger","locationId":"58830","name":"Basic-Fit 1149 Zwolle (PowerGo)","address":"Middelweg 401","city":"Zwolle","operatorName":"PowerGo","maxPowerKw":0,"isMegawatt":false,"status":"AVAILABLE","source":"ndw"}},{"type":"Feature","geometry":{"type":"Point","coordinates":[6.096479,52.509943]},"properties":{"type":"charge","layer":"passenger","locationId":"df2e1cbb52ec7a5c1b259cef0304a581","name":"Van Nahuysplein 17","address":"Van Nahuysplein 17","city":"Zwolle","operatorName":"Vattenfall InCharge","maxPowerKw":11,"isMegawatt":false,"status":"AVAILABLE","source":"ndw"}},{"type":"Feature","geometry":{"type":"Point","coordinates":[6.134964,52.488689]},"properties":{"type":"charge","layer":"passenger","locationId":"c1c41e5a-7820-11ee-bfab-42010aa40fc0","name":"Conradstraat 4 (PowerGo)","address":"Conradstraat 4","city":"Zwolle","operatorName":"PowerGo","maxPowerKw":0,"isMegawatt":false,"status":"AVAILABLE","source":"ndw"}},{"type":"Feature","geometry":{"type":"Point","coordinates":[6.088003,52.512114]},"properties":{"type":"charge","layer":"passenger","locationId":"8b488666-d54a-11f0-b841-42010aa400b8","name":"Q-Park Zwolle Maagjesbolwerk","address":"Maagjesbolwerk 54","city":"Zwolle","operatorName":"Q-Park Netherlands","maxPowerKw":11,"isMegawatt":false,"status":"AVAILABLE","source":"ndw"}},{"type":"Feature","geometry":{"type":"Point","coordinates":[6.117485,52.478427]},"properties":{"type":"charge","layer":"passenger","locationId":"a787e706-f6d2-4ff4-a15f-689bf25c4b73","name":"Donker Curtiusware","address":"Donker Curtiusware 9","city":"Zwolle","operatorName":"Vattenfall InCharge","maxPowerKw":11,"isMegawatt":false,"status":"AVAILABLE","source":"ndw"}},{"type":"Feature","geometry":{"type":"Point","coordinates":[6.047288,52.544912]},"properties":{"type":"charge","layer":"passenger","locationId":"f3d3adf14356c3724cb0b891b02a48eb","name":"Boormolen 25","address":"Boormolen 25","city":"Zwolle","operatorName":"Vattenfall InCharge","maxPowerKw":11,"isMegawatt":false,"status":"AVAILABLE","source":"ndw"}},{"type":"Feature","geometry":{"type":"Point","coordinates":[6.135124,52.488152]},"properties":{"type":"charge","layer":"passenger","locationId":"c1fe0160-7820-11ee-b657-42010aa40fc0","name":"Conradstraat 4c (PowerGo)","address":"Conradstraat 4c","city":"Zwolle","operatorName":"PowerGo","maxPowerKw":0,"isMegawatt":false,"status":"AVAILABLE","source":"ndw"}},{"type":"Feature","geometry":{"type":"Point","coordinates":[6.066276,52.535471]},"properties":{"type":"charge","layer":"passenger","locationId":"ddc9f80efe2eec6d3933aa3dbd8fde6d","name":"Herautstraat 2","address":"Herautstraat 2","city":"Zwolle","operatorName":"Vattenfall InCharge","maxPowerKw":11,"isMegawatt":false,"status":"AVAILABLE","source":"ndw"}},{"type":"Feature","geometry":{"type":"Point","coordinates":[6.052319,52.531993]},"properties":{"type":"charge","layer":"passenger","locationId":"NLLOC019836","name":"NL, Arendshorstlaan 19, 8043VE Zwolle","address":"Arendshorstlaan 19","city":"Zwolle","operatorName":"Allego","maxPowerKw":0,"isMegawatt":false,"status":"AVAILABLE","source":"ndw"}},{"type":"Feature","geometry":{"type":"Point","coordinates":[6.098898,52.512653]},"properties":{"type":"charge","layer":"passenger","locationId":"cfeae7400c2200057317c100ebf316d8","name":"Kerkstraat 10","address":"Kerkstraat 10","city":"Zwolle","operatorName":"Vattenfall InCharge","maxPowerKw":11,"isMegawatt":false,"status":"AVAILABLE","source":"ndw"}},{"type":"Feature","geometry":{"type":"Point","coordinates":[6.088757,52.530137]},"properties":{"type":"charge","layer":"passenger","locationId":"NLLOC006370","name":"NL, Palestrinalaan 202 T 1, 8031 VS, Zwolle","address":"Palestrinalaan 202 T 1","city":"Zwolle","operatorName":"Allego","maxPowerKw":0,"isMegawatt":false,"status":"AVAILABLE","source":"ndw"}},{"type":"Feature","geometry":{"type":"Point","coordinates":[6.099163,52.519476]},"properties":{"type":"charge","layer":"passenger","locationId":"NLLOC006089","name":"NL, Kastanjestraat 48, 8021 XT, Zwolle","address":"Kastanjestraat 48","city":"Zwolle","operatorName":"Allego","maxPowerKw":0,"isMegawatt":false,"status":"AVAILABLE","source":"ndw"}},{"type":"Feature","geometry":{"type":"Point","coordinates":[6.12045,52.49455]},"properties":{"type":"charge","layer":"passenger","locationId":"F43DF8C3-5C5C-4926-B9E8-79B8B5EF1597","name":"Eneco eMobility Broekhuis Hyundai Zwolle","address":"Nikolaus Ottostraat 1","city":"Zwolle","operatorName":"Eneco","maxPowerKw":22,"isMegawatt":false,"status":"AVAILABLE","source":"ndw"}},{"type":"Feature","geometry":{"type":"Point","coordinates":[6.062595,52.532527]},"properties":{"type":"charge","layer":"passenger","locationId":"6e10c1ca-310e-4b3a-b4e9-69740f2c7730","name":"Uurwerkerstraat 3","address":"Uurwerkerstraat 3","city":"Zwolle","operatorName":"Vattenfall InCharge","maxPowerKw":11,"isMegawatt":false,"status":"CHARGING","source":"ndw"}},{"type":"Feature","geometry":{"type":"Point","coordinates":[6.052019,52.546855]},"properties":{"type":"charge","layer":"passenger","locationId":"NLLOC022427","name":"NL, Breezichtlaan 61, 8044VA Zwolle","address":"Breezichtlaan 61","city":"Zwolle","operatorName":"Allego","maxPowerKw":0,"isMegawatt":false,"status":"AVAILABLE","source":"ndw"}},{"type":"Feature","geometry":{"type":"Point","coordinates":[6.06701,52.50879]},"properties":{"type":"charge","layer":"passenger","locationId":"e88a9dd8-9c3c-11eb-81fe-42010a840064","name":"Eneco eMobility NN Group, Grote Voort 247, Zwolle","address":"Grote Voort 247","city":"Zwolle","operatorName":"Eneco","maxPowerKw":0,"isMegawatt":false,"status":"AVAILABLE","source":"ndw"}},{"type":"Feature","geometry":{"type":"Point","coordinates":[6.042352,52.537845]},"properties":{"type":"charge","layer":"passenger","locationId":"07d6e932-cf19-4647-b57f-882c80fd555a","name":"Schuilenburgstraat","address":"Schuilenburgstraat 37e","city":"Zwolle","operatorName":"Vattenfall InCharge","maxPowerKw":11,"isMegawatt":false,"status":"AVAILABLE","source":"ndw"}},{"type":"Feature","geometry":{"type":"Point","coordinates":[6.086821,52.517494]},"properties":{"type":"charge","layer":"passenger","locationId":"05b3914a-fec3-11e8-8f1d-42010a840002","name":"Eneco eMobility Roelenkwartier Zwolle BV - Burgemeester Roelenweg 38","address":"Burgemeester Roelenweg 38","city":"Zwolle","operatorName":"Eneco","maxPowerKw":22,"isMegawatt":false,"status":"AVAILABLE","source":"ndw"}},{"type":"Feature","geometry":{"type":"Point","coordinates":[6.078726,52.517395]},"properties":{"type":"charge","layer":"passenger","locationId":"75","name":"Shell Recharge NL1600 - Shell Blaloweg","address":"Blaloweg 2a","city":"Zwolle","operatorName":"Shell Recharge","maxPowerKw":175,"isMegawatt":false,"status":"AVAILABLE","source":"ndw"}},{"type":"Feature","geometry":{"type":"Point","coordinates":[6.114008,52.499618]},"properties":{"type":"charge","layer":"passenger","locationId":"91bd09f526a4ceaeaa5d268fb4f565ce","name":"Fresiastraat 23","address":"Fresiastraat 23","city":"Zwolle","operatorName":"Vattenfall InCharge","maxPowerKw":11,"isMegawatt":false,"status":"AVAILABLE","source":"ndw"}},{"type":"Feature","geometry":{"type":"Point","coordinates":[6.052642,52.534857]},"properties":{"type":"charge","layer":"passenger","locationId":"ae8238a6ce2b3a4f5603c2308541e3f6","name":"Veldbeemdgras 62","address":"Veldbeemdgras 62","city":"Zwolle","operatorName":"Vattenfall InCharge","maxPowerKw":11,"isMegawatt":false,"status":"CHARGING","source":"ndw"}},{"type":"Feature","geometry":{"type":"Point","coordinates":[6.048807,52.517097]},"properties":{"type":"charge","layer":"passenger","locationId":"NLLOC022304","name":"NL, Weidesteenlaan 2, 8042 NA Zwolle","address":"Weidesteenlaan 2","city":"Zwolle","operatorName":"Allego","maxPowerKw":0,"isMegawatt":false,"status":"AVAILABLE","source":"ndw"}},{"type":"Feature","geometry":{"type":"Point","coordinates":[6.12362,52.495]},"properties":{"type":"charge","layer":"passenger","locationId":"6d519ed4-5499-11ed-8fdb-42010aa40024","name":"Eneco eMobility Broekhuis Multimerk Zwolle","address":"Nikolaus Ottostraat 11","city":"Zwolle","operatorName":"Eneco","maxPowerKw":50,"isMegawatt":false,"status":"AVAILABLE","source":"ndw"}},{"type":"Feature","geometry":{"type":"Point","coordinates":[6.12221,52.49379]},"properties":{"type":"charge","layer":"passenger","locationId":"7120feb2-fc36-11ec-b383-42010aa4001d","name":"Eneco eMobility Kaak Silos & Dosing B.V. - Zwolle","address":"Rudolf Dieselstraat 7","city":"Zwolle","operatorName":"Eneco","maxPowerKw":22,"isMegawatt":false,"status":"AVAILABLE","source":"ndw"}},{"type":"Feature","geometry":{"type":"Point","coordinates":[6.088792,52.516772]},"properties":{"type":"charge","layer":"passenger","locationId":"52165593-E25B-49AD-AAD0-87EA6CE3FBF2","name":"Eneco eMobility Res Mancipi II BV - Zwolle","address":"Govert Flinckstraat 1","city":"Zwolle","operatorName":"Eneco","maxPowerKw":22,"isMegawatt":false,"status":"AVAILABLE","source":"ndw"}},{"type":"Feature","geometry":{"type":"Point","coordinates":[6.149035,52.496696]},"properties":{"type":"charge","layer":"passenger","locationId":"91b346fc-f8c2-4741-a0c4-33ec869d8d95","name":"Zalnéweg 119t","address":"Zalnéweg 119t","city":"Zwolle","operatorName":"Vattenfall InCharge","maxPowerKw":11,"isMegawatt":false,"status":"AVAILABLE","source":"ndw"}},{"type":"Feature","geometry":{"type":"Point","coordinates":[6.076605,52.517965]},"properties":{"type":"charge","layer":"passenger","locationId":"NLLOC027943","name":"Allego - Hornbach Zwolle A28","address":"Katwolderweg 6","city":"Zwolle","operatorName":"Allego","maxPowerKw":0,"isMegawatt":false,"status":"AVAILABLE","source":"ndw"}},{"type":"Feature","geometry":{"type":"Point","coordinates":[6.12532,52.510528]},"properties":{"type":"charge","layer":"passenger","locationId":"f5b2c9df-1edd-4e50-a88d-c69917a1b326","name":"Dokter Spanjaardweg 2","address":"Dokter Spanjaardweg 2","city":"Zwolle","operatorName":"Vattenfall InCharge","maxPowerKw":22,"isMegawatt":false,"status":"AVAILABLE","source":"ndw"}},{"type":"Feature","geometry":{"type":"Point","coordinates":[6.082501,52.512732]},"properties":{"type":"charge","layer":"passenger","locationId":"ac79bbc9-5ff4-4ebd-9f20-454fb1a1cd9f","name":"Kleine Baan","address":"Kleine Baan 21","city":"Zwolle","operatorName":"Vattenfall InCharge","maxPowerKw":11,"isMegawatt":false,"status":"AVAILABLE","source":"ndw"}},{"type":"Feature","geometry":{"type":"Point","coordinates":[6.044822,52.54656]},"properties":{"type":"charge","layer":"passenger","locationId":"2da50fff-7cd0-4dd0-9827-865cf4438400","name":"Monniksmolen","address":"Monniksmolen 4","city":"Zwolle","operatorName":"Vattenfall InCharge","maxPowerKw":11,"isMegawatt":false,"status":"AVAILABLE","source":"ndw"}},{"type":"Feature","geometry":{"type":"Point","coordinates":[6.089086,52.506632]},"properties":{"type":"charge","layer":"passenger","locationId":"6b522a42-e060-4644-8023-5f18c48632c7","name":"Westerlaan","address":"Westerlaan 2","city":"Zwolle","operatorName":"Vattenfall InCharge","maxPowerKw":11,"isMegawatt":false,"status":"AVAILABLE","source":"ndw"}},{"type":"Feature","geometry":{"type":"Point","coordinates":[6.10893,52.523583]},"properties":{"type":"charge","layer":"passenger","locationId":"13ac202ea88d88519abd20b052a81099","name":"Geert Grootestraat 180","address":"Geert Grootestraat 180","city":"Zwolle","operatorName":"Vattenfall InCharge","maxPowerKw":11,"isMegawatt":false,"status":"AVAILABLE","source":"ndw"}},{"type":"Feature","geometry":{"type":"Point","coordinates":[6.111564,52.491515]},"properties":{"type":"charge","layer":"passenger","locationId":"28694ee4-a238-11eb-bfd0-42010a840003","name":"NL, Knoppertkamp 28, 8014CD, Zwolle","address":"Knoppertkamp 28","city":"Zwolle","operatorName":"Allego","maxPowerKw":0,"isMegawatt":false,"status":"AVAILABLE","source":"ndw"}},{"type":"Feature","geometry":{"type":"Point","coordinates":[6.091096,52.516334]},"properties":{"type":"charge","layer":"passenger","locationId":"43d7c2fcfc6340348eec","name":"Campanile Zwolle","address":"Schuttevaerkade 40","city":"Zwolle","operatorName":"Opcharge","maxPowerKw":11,"isMegawatt":false,"status":"AVAILABLE","source":"ndw"}},{"type":"Feature","geometry":{"type":"Point","coordinates":[6.113059,52.501352]},"properties":{"type":"charge","layer":"passenger","locationId":"3269dae2-507d-11eb-b54c-42010a840003","name":"NL, Violierenstraat, 4A, 8013 TT Zwolle","address":"Violierenstraat 4A","city":"Zwolle","operatorName":"Allego","maxPowerKw":0,"isMegawatt":false,"status":"CHARGING","source":"ndw"}},{"type":"Feature","geometry":{"type":"Point","coordinates":[6.091735,52.515913]},"properties":{"type":"charge","layer":"passenger","locationId":"49b2b7ac-a068-11ea-aa09-42010a840003","name":"NL, Schuttevaerkade 40, Zwolle","address":"Schuttevaerkade 40","city":"Zwolle","operatorName":"Allego","maxPowerKw":0,"isMegawatt":false,"status":"CHARGING","source":"ndw"}},{"type":"Feature","geometry":{"type":"Point","coordinates":[6.097045,52.506923]},"properties":{"type":"charge","layer":"passenger","locationId":"7a4ccf9e-4f3c-11e8-a930-42010a840002","name":"NL, Van der Laenstraat 71, 8012 TA Zwolle","address":"Van der Laenstraat 71","city":"Zwolle","operatorName":"Allego","maxPowerKw":0,"isMegawatt":false,"status":"AVAILABLE","source":"ndw"}},{"type":"Feature","geometry":{"type":"Point","coordinates":[6.070534,52.525583]},"properties":{"type":"charge","layer":"passenger","locationId":"de595dae-4f3c-11e8-b249-42010a840002","name":"NLD, Zwolle, Rosariumstraat 25, 8043 PX","address":"Rosariumstraat 25","city":"Zwolle","operatorName":"Allego","maxPowerKw":0,"isMegawatt":false,"status":"AVAILABLE","source":"ndw"}},{"type":"Feature","geometry":{"type":"Point","coordinates":[6.107061,52.523287]},"properties":{"type":"charge","layer":"passenger","locationId":"e8d69498-3fa7-11e9-8b6a-42010a840003","name":"NLD, Zwolle, Geert Grootestraat 96","address":"Geert Grootestraat 96","city":"Zwolle","operatorName":"Allego","maxPowerKw":0,"isMegawatt":false,"status":"CHARGING","source":"ndw"}},{"type":"Feature","geometry":{"type":"Point","coordinates":[6.121667,52.476403]},"properties":{"type":"charge","layer":"passenger","locationId":"fe886dcc-74d5-11ed-b73e-42010aa40fc0","name":"NL, Kortenhorststraat 1, 8015 BW Zwolle","address":"Kortenhorststraat 1","city":"Zwolle","operatorName":"Allego","maxPowerKw":0,"isMegawatt":false,"status":"AVAILABLE","source":"ndw"}},{"type":"Feature","geometry":{"type":"Point","coordinates":[6.057456,52.527241]},"properties":{"type":"charge","layer":"passenger","locationId":"dfaed2ba-2d3d-46f6-a1fe-598bcd7507e3","name":"Wagenschuurstraat ","address":"Wagenschuurstraat  17","city":"Zwolle","operatorName":"Vattenfall InCharge","maxPowerKw":11,"isMegawatt":false,"status":"AVAILABLE","source":"ndw"}},{"type":"Feature","geometry":{"type":"Point","coordinates":[6.077252,52.509789]},"properties":{"type":"charge","layer":"passenger","locationId":"10fdc000-d613-11eb-80fc-42010a840003","name":"NL, Koningin Wilhelminastraat 73, 8019 AL Zwolle","address":"Koningin Wilhelminastraat 73","city":"Zwolle","operatorName":"Allego","maxPowerKw":0,"isMegawatt":false,"status":"AVAILABLE","source":"ndw"}},{"type":"Feature","geometry":{"type":"Point","coordinates":[6.05544,52.538533]},"properties":{"type":"charge","layer":"passenger","locationId":"05d373e26767f72c89758868133d001e","name":"Fioringras 39","address":"Fioringras 39","city":"Zwolle","operatorName":"Vattenfall InCharge","maxPowerKw":11,"isMegawatt":false,"status":"AVAILABLE","source":"ndw"}},{"type":"Feature","geometry":{"type":"Point","coordinates":[6.12373,52.49619]},"properties":{"type":"charge","layer":"passenger","locationId":"88A69FBC-885D-4290-B934-ED51D10F4E84","name":"Eneco eMobility Broekhuis Opel Bedrijfswagens Zwolle","address":"Marsweg 43","city":"Zwolle","operatorName":"Eneco","maxPowerKw":22,"isMegawatt":false,"status":"AVAILABLE","source":"ndw"}},{"type":"Feature","geometry":{"type":"Point","coordinates":[6.111125,52.504684]},"properties":{"type":"charge","layer":"passenger","locationId":"NLLOC015026","name":"NL, Assendorperdijk 55, 8012 EG Zwolle","address":"Assendorperdijk 55","city":"Zwolle","operatorName":"Allego","maxPowerKw":0,"isMegawatt":false,"status":"AVAILABLE","source":"ndw"}},{"type":"Feature","geometry":{"type":"Point","coordinates":[6.09337,52.51681]},"properties":{"type":"charge","layer":"passenger","locationId":"d8037b46-cff7-4285-8066-4372931d68e6","name":"Rembrandtlaan 7","address":"Rembrandtlaan 7","city":"Zwolle","operatorName":"Vattenfall InCharge","maxPowerKw":11,"isMegawatt":false,"status":"AVAILABLE","source":"ndw"}},{"type":"Feature","geometry":{"type":"Point","coordinates":[6.039818,52.544103]},"properties":{"type":"charge","layer":"passenger","locationId":"NLLOC011461","name":"NL, Jac P Thijsselaan 118, 8044RB, Zwolle","address":"Jac P Thijsselaan 118","city":"Zwolle","operatorName":"Allego","maxPowerKw":0,"isMegawatt":false,"status":"AVAILABLE","source":"ndw"}},{"type":"Feature","geometry":{"type":"Point","coordinates":[6.080527,52.499841]},"properties":{"type":"charge","layer":"passenger","locationId":"91270640","name":"EQUANS Hogeschool Windesheim","address":"Campus 2","city":"Zwolle","operatorName":"EQUANS","maxPowerKw":0,"isMegawatt":false,"status":"AVAILABLE","source":"ndw"}},{"type":"Feature","geometry":{"type":"Point","coordinates":[6.05968,52.525111]},"properties":{"type":"charge","layer":"passenger","locationId":"35d46bd8-572e-11e9-bab2-42010a840003","name":"NLD, Zwolle, Akkerbergstraat 84","address":"Akkerbergstraat 84","city":"Zwolle","operatorName":"Allego","maxPowerKw":0,"isMegawatt":false,"status":"AVAILABLE","source":"ndw"}},{"type":"Feature","geometry":{"type":"Point","coordinates":[6.100484,52.525569]},"properties":{"type":"charge","layer":"passenger","locationId":"6c91a1de-48d7-11ec-b1fc-42010a840003","name":"NL, Kromme Mijdrecht 1, 8032AN Zwolle","address":"Kromme Mijdrecht 1","city":"Zwolle","operatorName":"Allego","maxPowerKw":0,"isMegawatt":false,"status":"AVAILABLE","source":"ndw"}},{"type":"Feature","geometry":{"type":"Point","coordinates":[6.117649,52.48396]},"properties":{"type":"charge","layer":"passenger","locationId":"d1877f7c-3c0e-11eb-b87f-42010a840003","name":"NL, Westenbergmate 15, 8014 ME Zwolle","address":"Westenbergmate 15","city":"Zwolle","operatorName":"Allego","maxPowerKw":0,"isMegawatt":false,"status":"AVAILABLE","source":"ndw"}},{"type":"Feature","geometry":{"type":"Point","coordinates":[6.108902,52.528476]},"properties":{"type":"charge","layer":"passenger","locationId":"f5ee7b8a-9ce8-11ed-bd5e-42010aa40fc0","name":"NL, Botlek 69, 8032 CD Zwolle","address":"Botlek 69","city":"Zwolle","operatorName":"Allego","maxPowerKw":0,"isMegawatt":false,"status":"AVAILABLE","source":"ndw"}},{"type":"Feature","geometry":{"type":"Point","coordinates":[6.108539,52.536162]},"properties":{"type":"charge","layer":"passenger","locationId":"f8030ae2-14b6-11eb-967e-42010a840033","name":"NL, Beulakerwiede 14, 8033 CS Zwolle","address":"Beulakerwiede 14","city":"Zwolle","operatorName":"Allego","maxPowerKw":0,"isMegawatt":false,"status":"AVAILABLE","source":"ndw"}},{"type":"Feature","geometry":{"type":"Point","coordinates":[6.04645,52.517831]},"properties":{"type":"charge","layer":"passenger","locationId":"0785671c-418f-11eb-98ae-42010a840003","name":"NL, Pepermuntweg, 65, 8042nm, Zwolle","address":"Pepermuntweg 65","city":"Zwolle","operatorName":"Allego","maxPowerKw":0,"isMegawatt":false,"status":"AVAILABLE","source":"ndw"}},{"type":"Feature","geometry":{"type":"Point","coordinates":[6.087075,52.533925]},"properties":{"type":"charge","layer":"passenger","locationId":"08584c02-7d86-11ec-b8d8-42010a840003","name":"NL, Luttekeweg 15, 8031 LG Zwolle","address":"Luttekeweg 15","city":"Zwolle","operatorName":"Allego","maxPowerKw":0,"isMegawatt":false,"status":"AVAILABLE","source":"ndw"}},{"type":"Feature","geometry":{"type":"Point","coordinates":[6.081057,52.521537]},"properties":{"type":"charge","layer":"passenger","locationId":"1b9249be-9db3-11ed-b7b5-42010aa40fc0","name":"NL, Schumannlaan 171, 8031 EZ Zwolle","address":"Schumannlaan 171","city":"Zwolle","operatorName":"Allego","maxPowerKw":0,"isMegawatt":false,"status":"CHARGING","source":"ndw"}},{"type":"Feature","geometry":{"type":"Point","coordinates":[6.096088,52.499038]},"properties":{"type":"charge","layer":"passenger","locationId":"253decc4-3571-11e9-96d0-42010a840003","name":"NLD, Zwolle, Schellerweg 33","address":"Schellerweg 33","city":"Zwolle","operatorName":"Allego","maxPowerKw":0,"isMegawatt":false,"status":"CHARGING","source":"ndw"}},{"type":"Feature","geometry":{"type":"Point","coordinates":[6.035722,52.542779]},"properties":{"type":"charge","layer":"passenger","locationId":"383e1068-4b58-11ee-b498-42010aa40fc0","name":"NL, Martinetstraat 15, 8044 RE, Zwolle","address":"Martinetstraat 15","city":"Zwolle","operatorName":"Allego","maxPowerKw":0,"isMegawatt":false,"status":"AVAILABLE","source":"ndw"}},{"type":"Feature","geometry":{"type":"Point","coordinates":[6.10491,52.512167]},"properties":{"type":"charge","layer":"passenger","locationId":"3d1757be-ba58-11ea-9d9a-42010a840003","name":"NL, Menistenstraat 1, 8023 SB, Zwolle","address":"Menistenstraat 1","city":"Zwolle","operatorName":"Allego","maxPowerKw":0,"isMegawatt":false,"status":"AVAILABLE","source":"ndw"}},{"type":"Feature","geometry":{"type":"Point","coordinates":[6.055851,52.526895]},"properties":{"type":"charge","layer":"passenger","locationId":"3fa05e0c-1d6a-11eb-8427-42010a840003","name":"NL, Tiendschuurstraat 85, 8043XV, Zwolle","address":"Tiendschuurstraat 85","city":"Zwolle","operatorName":"Allego","maxPowerKw":0,"isMegawatt":false,"status":"AVAILABLE","source":"ndw"}},{"type":"Feature","geometry":{"type":"Point","coordinates":[6.095938,52.534865]},"properties":{"type":"charge","layer":"passenger","locationId":"4ea89d52-96fa-11ea-ac36-42010a840003","name":"NLD, Luts 26 8032ZJ Zwolle","address":"Luts 26","city":"Zwolle","operatorName":"Allego","maxPowerKw":0,"isMegawatt":false,"status":"AVAILABLE","source":"ndw"}},{"type":"Feature","geometry":{"type":"Point","coordinates":[6.109802,52.500796]},"properties":{"type":"charge","layer":"passenger","locationId":"5b95977a-4f3c-11e8-a50a-42010a840002","name":"NLD, Zwolle, Zonnebloemstraat 35","address":"Zonnebloemstraat 35","city":"Zwolle","operatorName":"Allego","maxPowerKw":0,"isMegawatt":false,"status":"AVAILABLE","source":"ndw"}},{"type":"Feature","geometry":{"type":"Point","coordinates":[6.090789,52.537665]},"properties":{"type":"charge","layer":"passenger","locationId":"6b3056ba-82b1-11f0-9c10-42010aa400b8","name":"NL, Tjariet 3, 8032 LL, Zwolle","address":"Tjariet 3","city":"Zwolle","operatorName":"Allego","maxPowerKw":0,"isMegawatt":false,"status":"AVAILABLE","source":"ndw"}},{"type":"Feature","geometry":{"type":"Point","coordinates":[6.115286,52.522628]},"properties":{"type":"charge","layer":"passenger","locationId":"7bbfc3fa-0d85-11ea-8ce1-42010a840003","name":"NLD, Zwolle, Meppelerstraatweg 121","address":"Meppelerstraatweg 121","city":"Zwolle","operatorName":"Allego","maxPowerKw":0,"isMegawatt":false,"status":"AVAILABLE","source":"ndw"}},{"type":"Feature","geometry":{"type":"Point","coordinates":[6.099371,52.532196]},"properties":{"type":"charge","layer":"passenger","locationId":"7e3aac00-d1eb-11ea-b844-42010a840003","name":"NL, Amer, 144, 8032GS, Zwolle","address":"Amer 144","city":"Zwolle","operatorName":"Allego","maxPowerKw":0,"isMegawatt":false,"status":"CHARGING","source":"ndw"}},{"type":"Feature","geometry":{"type":"Point","coordinates":[6.088757,52.530137]},"properties":{"type":"charge","layer":"passenger","locationId":"c59c990c-785c-11ea-9e65-42010a840003","name":"NL, Palestrinalaan 202 T 1, 8031 VS, Zwolle","address":"Palestrinalaan 202 T 1","city":"Zwolle","operatorName":"Allego","maxPowerKw":0,"isMegawatt":false,"status":"AVAILABLE","source":"ndw"}},{"type":"Feature","geometry":{"type":"Point","coordinates":[6.134229,52.521806]},"properties":{"type":"charge","layer":"passenger","locationId":"31603e3bbea4fa5505df6e90b47ac3c6","name":"Hazelaarlaan  11","address":"Hazelaarlaan  11","city":"Zwolle","operatorName":"Vattenfall InCharge","maxPowerKw":11,"isMegawatt":false,"status":"AVAILABLE","source":"ndw"}},{"type":"Feature","geometry":{"type":"Point","coordinates":[6.088759,52.510854]},"properties":{"type":"charge","layer":"passenger","locationId":"3966668","name":"Laadnet JoSaNo Holding","address":"Eekwal 3","city":"Zwolle","operatorName":"Laadnet","maxPowerKw":22,"isMegawatt":false,"status":"AVAILABLE","source":"ndw"}},{"type":"Feature","geometry":{"type":"Point","coordinates":[6.085915,52.49951]},"properties":{"type":"charge","layer":"passenger","locationId":"347e8c4e-283c-4a21-a415-af7c817c3c93","name":"Pilotenlaan","address":"Pilotenlaan 9","city":"Zwolle","operatorName":"Vattenfall InCharge","maxPowerKw":11,"isMegawatt":false,"status":"AVAILABLE","source":"ndw"}},{"type":"Feature","geometry":{"type":"Point","coordinates":[6.048715,52.538725]},"properties":{"type":"charge","layer":"passenger","locationId":"4920340","name":"Yusuf Kartal Thuis","address":"Oude Wetering 48","city":"Zwolle","operatorName":"Laadnet","maxPowerKw":22,"isMegawatt":false,"status":"AVAILABLE","source":"ndw"}},{"type":"Feature","geometry":{"type":"Point","coordinates":[6.12221,52.49379]},"properties":{"type":"charge","layer":"passenger","locationId":"6EABCD32-93B3-4EFD-BAAA-C69570E092B6","name":"Eneco eMobility Kaak Silos & Dosing B.V. - Zwolle","address":"Rudolf Dieselstraat 7","city":"Zwolle","operatorName":"Eneco","maxPowerKw":22,"isMegawatt":false,"status":"AVAILABLE","source":"ndw"}},{"type":"Feature","geometry":{"type":"Point","coordinates":[6.124134,52.496514]},"properties":{"type":"charge","layer":"passenger","locationId":"1273496e6fec42078719","name":"DMG - Marsweg 37, Van Triest - Zwolle","address":"Marsweg 37","city":"Zwolle","operatorName":"Opcharge","maxPowerKw":22,"isMegawatt":false,"status":"AVAILABLE","source":"ndw"}},{"type":"Feature","geometry":{"type":"Point","coordinates":[6.103095,52.476741]},"properties":{"type":"charge","layer":"passenger","locationId":"07bef108b6d1a4de837c8bc63c9b0424","name":"De Goeijenmarke  73","address":"De Goeijenmarke  73","city":"Zwolle","operatorName":"Vattenfall InCharge","maxPowerKw":11,"isMegawatt":false,"status":"AVAILABLE","source":"ndw"}},{"type":"Feature","geometry":{"type":"Point","coordinates":[6.097932,52.494276]},"properties":{"type":"charge","layer":"passenger","locationId":"dff96232e26488a64636210f94c9558f","name":"Forelkolk 2","address":"Forelkolk 2","city":"Zwolle","operatorName":"Vattenfall InCharge","maxPowerKw":11,"isMegawatt":false,"status":"AVAILABLE","source":"ndw"}},{"type":"Feature","geometry":{"type":"Point","coordinates":[6.17556,52.52913]},"properties":{"type":"charge","layer":"passenger","locationId":"e4f8e90a-ea1b-11ef-8b95-42010aa400b8","name":"Eneco eMobility BMW Financial Services- Zwolle","address":"Holsteinstraat 22","city":"Zwolle","operatorName":"Eneco","maxPowerKw":22,"isMegawatt":false,"status":"AVAILABLE","source":"ndw"}},{"type":"Feature","geometry":{"type":"Point","coordinates":[6.092522,52.498282]},"properties":{"type":"charge","layer":"passenger","locationId":"2c3c3f2d4de8a824673accb276ebf2e9","name":"Flora Bilderbeekstraat 109","address":"Flora Bilderbeekstraat 109","city":"Zwolle","operatorName":"Vattenfall InCharge","maxPowerKw":11,"isMegawatt":false,"status":"AVAILABLE","source":"ndw"}},{"type":"Feature","geometry":{"type":"Point","coordinates":[6.1351242,52.4881515]},"properties":{"type":"charge","layer":"passenger","locationId":"19905","name":"Conradstraat 4c (PowerGo)","address":"Conradstraat 4c","city":"Zwolle","operatorName":"PowerGo","maxPowerKw":0,"isMegawatt":false,"status":"UNAVAILABLE","source":"ndw"}},{"type":"Feature","geometry":{"type":"Point","coordinates":[6.116802,52.522436]},"properties":{"type":"charge","layer":"passenger","locationId":"40cac137-cc3a-48c7-8434-e209f73ed218","name":"Floresstraat 60","address":"Floresstraat 60","city":"Zwolle","operatorName":"Vattenfall InCharge","maxPowerKw":50,"isMegawatt":false,"status":"AVAILABLE","source":"ndw"}},{"type":"Feature","geometry":{"type":"Point","coordinates":[6.1914,52.583778]},"properties":{"type":"charge","layer":"passenger","locationId":"4827c87a-5805-11ee-bf5b-42010aa40fc0","name":"Hotel & Restaurant Infinity (PowerGo)","address":"Lichtmisweg 51","city":"Zwolle","operatorName":"PowerGo","maxPowerKw":0,"isMegawatt":false,"status":"AVAILABLE","source":"ndw"}},{"type":"Feature","geometry":{"type":"Point","coordinates":[6.134964,52.488689]},"properties":{"type":"charge","layer":"passenger","locationId":"c1c41e5a-7820-11ee-bfab-42010aa40fc0","name":"Conradstraat 4 (PowerGo)","address":"Conradstraat 4","city":"Zwolle","operatorName":"PowerGo","maxPowerKw":0,"isMegawatt":false,"status":"AVAILABLE","source":"ndw"}},{"type":"Feature","geometry":{"type":"Point","coordinates":[6.167771,52.545909]},"properties":{"type":"charge","layer":"passenger","locationId":"62078bb4-54fe-11ed-b7dd-42010aa40004","name":"Shell Recharge Rijksweg A28 Wz","address":"Rijksweg A28 Wz","city":"Zwolle","operatorName":"Shell Recharge","maxPowerKw":175,"isMegawatt":false,"status":"AVAILABLE","source":"ndw"}},{"type":"Feature","geometry":{"type":"Point","coordinates":[6.11793,52.514397]},"properties":{"type":"charge","layer":"passenger","locationId":"NLLOC005052","name":"NL, Bosboom Toussaintstraat 30, 8023 CV Zwolle","address":"Bosboom Toussaintstraat 30","city":"Zwolle","operatorName":"Allego","maxPowerKw":0,"isMegawatt":false,"status":"AVAILABLE","source":"ndw"}},{"type":"Feature","geometry":{"type":"Point","coordinates":[6.12266,52.52515]},"properties":{"type":"charge","layer":"passenger","locationId":"6d50dda8-f8ff-11ee-86f1-42010aa400b8","name":"Eneco eMobility Dusseldorp BMW - Zwolle","address":"Molenland 4","city":"Zwolle","operatorName":"Eneco","maxPowerKw":200,"isMegawatt":false,"status":"AVAILABLE","source":"ndw"}},{"type":"Feature","geometry":{"type":"Point","coordinates":[6.12045,52.49455]},"properties":{"type":"charge","layer":"passenger","locationId":"78fe3d54-b694-11f0-bca3-42010aa400b8","name":"Eneco eMobility Broekhuis Hyundai Zwolle","address":"Nikolaus Ottostraat 1","city":"Zwolle","operatorName":"Eneco","maxPowerKw":22,"isMegawatt":false,"status":"AVAILABLE","source":"ndw"}},{"type":"Feature","geometry":{"type":"Point","coordinates":[6.041323,52.543822]},"properties":{"type":"charge","layer":"passenger","locationId":"2526c033d34b1a6d989841cc10ca7814","name":"Gorterstraat 80","address":"Gorterstraat 80","city":"Zwolle","operatorName":"Vattenfall InCharge","maxPowerKw":11,"isMegawatt":false,"status":"AVAILABLE","source":"ndw"}},{"type":"Feature","geometry":{"type":"Point","coordinates":[6.050255,52.537043]},"properties":{"type":"charge","layer":"passenger","locationId":"4920050","name":"Dogan Kartal Thuis","address":"Oude Wetering 36","city":"Zwolle","operatorName":"Laadnet","maxPowerKw":22,"isMegawatt":false,"status":"AVAILABLE","source":"ndw"}},{"type":"Feature","geometry":{"type":"Point","coordinates":[6.104627,52.499603]},"properties":{"type":"charge","layer":"passenger","locationId":"60520a42-78c7-4be5-af1f-31ed528b6fe8","name":"bp pulse IJsselallee","address":"IJsselallee 1","city":"Zwolle","operatorName":"bp pulse","maxPowerKw":300,"isMegawatt":false,"status":"AVAILABLE","source":"ndw"}},{"type":"Feature","geometry":{"type":"Point","coordinates":[6.107396,52.477002]},"properties":{"type":"charge","layer":"passenger","locationId":"b8a92cbc-24be-4d26-807e-71e1291559f6","name":"De Vroomemarke 4","address":"De Vroomemarke 4","city":"Zwolle","operatorName":"Vattenfall InCharge","maxPowerKw":11,"isMegawatt":false,"status":"AVAILABLE","source":"ndw"}},{"type":"Feature","geometry":{"type":"Point","coordinates":[6.093391,52.51667]},"properties":{"type":"charge","layer":"passenger","locationId":"NLLOC006318","name":"NL, Burgemeester Drijbersingel 7, 8021 DA, Zwolle","address":"Burgemeester Drijbersingel 7","city":"Zwolle","operatorName":"Allego","maxPowerKw":0,"isMegawatt":false,"status":"AVAILABLE","source":"ndw"}},{"type":"Feature","geometry":{"type":"Point","coordinates":[6.06932,52.50933]},"properties":{"type":"charge","layer":"passenger","locationId":"e9077d7e-4e71-11e8-be39-42010a840002","name":"Eneco eMobility Grote Voort 201 Zwolle","address":"Grote Voort 201","city":"Zwolle","operatorName":"Eneco","maxPowerKw":22,"isMegawatt":false,"status":"AVAILABLE","source":"ndw"}},{"type":"Feature","geometry":{"type":"Point","coordinates":[6.12373,52.49619]},"properties":{"type":"charge","layer":"passenger","locationId":"3e09a392-f24d-11f0-9345-42010aa400b8","name":"Eneco eMobility Broekhuis Opel Bedrijfswagens Zwolle","address":"Marsweg 43","city":"Zwolle","operatorName":"Eneco","maxPowerKw":22,"isMegawatt":false,"status":"AVAILABLE","source":"ndw"}},{"type":"Feature","geometry":{"type":"Point","coordinates":[6.0926,52.51534]},"properties":{"type":"charge","layer":"passenger","locationId":"c5c7e03c-5499-11ed-a884-42010aa40024","name":"Eneco eMobility ING Bank NV - Friesewal 1","address":"Friesewal 1","city":"Zwolle","operatorName":"Eneco","maxPowerKw":22,"isMegawatt":false,"status":"AVAILABLE","source":"ndw"}},{"type":"Feature","geometry":{"type":"Point","coordinates":[6.134738,52.49592]},"properties":{"type":"charge","layer":"passenger","locationId":"E571A67C-821E-46F7-942C-C30870D23622","name":"Eneco eMobility AH DC Oost","address":"Galvaniweg 1","city":"Zwolle","operatorName":"Eneco","maxPowerKw":11,"isMegawatt":false,"status":"AVAILABLE","source":"ndw"}},{"type":"Feature","geometry":{"type":"Point","coordinates":[6.052576,52.513825]},"properties":{"type":"charge","layer":"passenger","locationId":"60a4c8c259cad2b6dc1b7e6b","name":"Hoekerweg, 14, 8042 PH Zwolle, NL (3 x binnen en 2 x buiten)","address":"Hoekerweg 14","city":"Zwolle","operatorName":"E-Flux by Road","maxPowerKw":22,"isMegawatt":false,"status":"AVAILABLE","source":"ndw"}},{"type":"Feature","geometry":{"type":"Point","coordinates":[6.128473,52.510703]},"properties":{"type":"charge","layer":"passenger","locationId":"ecbbc8fd58c2520a404268f7714ebe18","name":"Dokter Hengeveldweg 7","address":"Dokter Hengeveldweg 7","city":"Zwolle","operatorName":"Vattenfall InCharge","maxPowerKw":11,"isMegawatt":false,"status":"AVAILABLE","source":"ndw"}},{"type":"Feature","geometry":{"type":"Point","coordinates":[6.052679,52.523159]},"properties":{"type":"charge","layer":"passenger","locationId":"0a3e240ffa3720a95ce3c6844e74d355","name":"Anjerweg 2","address":"Anjerweg 2","city":"Zwolle","operatorName":"Vattenfall InCharge","maxPowerKw":11,"isMegawatt":false,"status":"AVAILABLE","source":"ndw"}},{"type":"Feature","geometry":{"type":"Point","coordinates":[6.086177,52.509443]},"properties":{"type":"charge","layer":"passenger","locationId":"NLLOC006129","name":"NL, Emmawijk 11, 8011 CM, Zwolle","address":"Emmawijk 11","city":"Zwolle","operatorName":"Allego","maxPowerKw":0,"isMegawatt":false,"status":"CHARGING","source":"ndw"}},{"type":"Feature","geometry":{"type":"Point","coordinates":[6.053617,52.539242]},"properties":{"type":"charge","layer":"passenger","locationId":"3d0d34ff-dbd1-426a-b627-b9a05683dced","name":"Greppelmos 41","address":"Greppelmos 41","city":"Zwolle","operatorName":"Vattenfall InCharge","maxPowerKw":11,"isMegawatt":false,"status":"AVAILABLE","source":"ndw"}},{"type":"Feature","geometry":{"type":"Point","coordinates":[6.042839,52.531459]},"properties":{"type":"charge","layer":"passenger","locationId":"b057de00-2b7a-4407-b300-061173ffb892","name":"Engelradinkstraat 139","address":"Engelradinkstraat 139","city":"Zwolle","operatorName":"Vattenfall InCharge","maxPowerKw":11,"isMegawatt":false,"status":"AVAILABLE","source":"ndw"}},{"type":"Feature","geometry":{"type":"Point","coordinates":[6.051154,52.536969]},"properties":{"type":"charge","layer":"passenger","locationId":"2d20abde-6747-11eb-921e-42010a840003","name":"NL, Mannagras 5, 8043 KC, Zwolle","address":"Mannagras 5","city":"Zwolle","operatorName":"Allego","maxPowerKw":0,"isMegawatt":false,"status":"CHARGING","source":"ndw"}},{"type":"Feature","geometry":{"type":"Point","coordinates":[6.043536,52.520173]},"properties":{"type":"charge","layer":"passenger","locationId":"NLLOC002362","name":"NLD, Zwolle, Malvaweg 22","address":"Malvaweg 22","city":"Zwolle","operatorName":"Allego","maxPowerKw":0,"isMegawatt":false,"status":"AVAILABLE","source":"ndw"}},{"type":"Feature","geometry":{"type":"Point","coordinates":[6.100183,52.511889]},"properties":{"type":"charge","layer":"passenger","locationId":"2ee4a8f8-8ef9-11e9-866a-42010a840003","name":"NLD, Groot Wezenland Schuurmanstraat 1, Zwolle","address":"Groot Wezenland Schuurmanstraat 1","city":"Zwolle","operatorName":"Allego","maxPowerKw":0,"isMegawatt":false,"status":"AVAILABLE","source":"ndw"}},{"type":"Feature","geometry":{"type":"Point","coordinates":[6.039263,52.54315]},"properties":{"type":"charge","layer":"passenger","locationId":"77797ffa-9e4a-11eb-865c-42010a840003","name":"NL, Gorterstraat, 13, 8044RC, Zwolle","address":"Gorterstraat 13","city":"Zwolle","operatorName":"Allego","maxPowerKw":0,"isMegawatt":false,"status":"CHARGING","source":"ndw"}},{"type":"Feature","geometry":{"type":"Point","coordinates":[6.10799,52.50335]},"properties":{"type":"charge","layer":"passenger","locationId":"7a450a2a-4f3c-11e8-822b-42010a840002","name":"NLD, Zwolle, Leliestraat 80","address":"Leliestraat 80","city":"Zwolle","operatorName":"Allego","maxPowerKw":0,"isMegawatt":false,"status":"AVAILABLE","source":"ndw"}},{"type":"Feature","geometry":{"type":"Point","coordinates":[6.053847,52.51911]},"properties":{"type":"charge","layer":"passenger","locationId":"7b28d9ba-1d9e-11ec-b137-42010a840003","name":"NL, Stinsweg 15, 8042AZ, Zwolle","address":"Stinsweg 15","city":"Zwolle","operatorName":"Allego","maxPowerKw":0,"isMegawatt":false,"status":"AVAILABLE","source":"ndw"}},{"type":"Feature","geometry":{"type":"Point","coordinates":[6.110193,52.526099]},"properties":{"type":"charge","layer":"passenger","locationId":"879405ba-1a45-11eb-a7eb-42010a840003","name":"NL, Gantel 24, 8032 BR Zwolle","address":"Gantel 24","city":"Zwolle","operatorName":"Allego","maxPowerKw":0,"isMegawatt":false,"status":"AVAILABLE","source":"ndw"}},{"type":"Feature","geometry":{"type":"Point","coordinates":[6.116361,52.523452]},"properties":{"type":"charge","layer":"passenger","locationId":"b5fbdc08-9832-11ed-8cf0-42010aa40fc0","name":"NL, Anthonie Heinsiusstraat 1, 8022 SR Zwolle","address":"Anthonie Heinsiusstraat 1","city":"Zwolle","operatorName":"Allego","maxPowerKw":0,"isMegawatt":false,"status":"AVAILABLE","source":"ndw"}},{"type":"Feature","geometry":{"type":"Point","coordinates":[6.040352,52.544887]},"properties":{"type":"charge","layer":"passenger","locationId":"d1bc9714-65b4-11eb-872d-42010a840003","name":"NL, Weeversstraat 2, 8044 RS Zwolle","address":"Weeversstraat 2","city":"Zwolle","operatorName":"Allego","maxPowerKw":0,"isMegawatt":false,"status":"AVAILABLE","source":"ndw"}},{"type":"Feature","geometry":{"type":"Point","coordinates":[6.112229,52.52394]},"properties":{"type":"charge","layer":"passenger","locationId":"d701b9d0-21f3-11ea-a383-42010a840003","name":"NLD, Zwolle, Pieter Steynstraat 191","address":"Pieter Steynstraat 191","city":"Zwolle","operatorName":"Allego","maxPowerKw":0,"isMegawatt":false,"status":"AVAILABLE","source":"ndw"}},{"type":"Feature","geometry":{"type":"Point","coordinates":[6.102871,52.477574]},"properties":{"type":"charge","layer":"passenger","locationId":"d8f21cd4-f935-11ea-9c9f-42010a840003","name":"NL, Van der Graaffmarke 27, 8016LN, Zwolle","address":"Van der Graaffmarke 27","city":"Zwolle","operatorName":"Allego","maxPowerKw":0,"isMegawatt":false,"status":"AVAILABLE","source":"ndw"}},{"type":"Feature","geometry":{"type":"Point","coordinates":[6.09623,52.501788]},"properties":{"type":"charge","layer":"passenger","locationId":"e67e1ba2-88ca-11ec-a3c6-42010a840003","name":"NL, Hanzelaan 310, 8017JK, Zwolle","address":"Hanzelaan 310","city":"Zwolle","operatorName":"Allego","maxPowerKw":0,"isMegawatt":false,"status":"CHARGING","source":"ndw"}},{"type":"Feature","geometry":{"type":"Point","coordinates":[6.054747,52.540798]},"properties":{"type":"charge","layer":"passenger","locationId":"b227e3b2-730a-4846-9a1b-08ce81754c75","name":"Bultkroos 6","address":"Bultkroos 6","city":"Zwolle","operatorName":"Vattenfall InCharge","maxPowerKw":11,"isMegawatt":false,"status":"AVAILABLE","source":"ndw"}},{"type":"Feature","geometry":{"type":"Point","coordinates":[6.144286,52.521992]},"properties":{"type":"charge","layer":"passenger","locationId":"NLLOC014409","name":"NL, Pieter Zeemanlaan 49, 8024 CH Zwolle","address":"Pieter Zeemanlaan 49","city":"Zwolle","operatorName":"Allego","maxPowerKw":0,"isMegawatt":false,"status":"AVAILABLE","source":"ndw"}},{"type":"Feature","geometry":{"type":"Point","coordinates":[6.104029,52.496748]},"properties":{"type":"charge","layer":"passenger","locationId":"b557851545d3f02505704eb83771199d","name":"Nel Banninkstraat 2","address":"Nel Banninkstraat 2","city":"Zwolle","operatorName":"Vattenfall InCharge","maxPowerKw":11,"isMegawatt":false,"status":"AVAILABLE","source":"ndw"}},{"type":"Feature","geometry":{"type":"Point","coordinates":[6.040426,52.537012]},"properties":{"type":"charge","layer":"passenger","locationId":"NLLOC002217","name":"NLD, Bonkenhavestraat 174, Zwolle","address":"Bonkenhavestraat 174","city":"Zwolle","operatorName":"Allego","maxPowerKw":0,"isMegawatt":false,"status":"AVAILABLE","source":"ndw"}},{"type":"Feature","geometry":{"type":"Point","coordinates":[6.121695,52.523366]},"properties":{"type":"charge","layer":"passenger","locationId":"d0c48d5a-caeb-4881-8290-3e87b4bcedf0","name":"Ossenkamp","address":"Ossenkamp 4","city":"Zwolle","operatorName":"Vattenfall InCharge","maxPowerKw":11,"isMegawatt":false,"status":"AVAILABLE","source":"ndw"}},{"type":"Feature","geometry":{"type":"Point","coordinates":[6.094721,52.540342]},"properties":{"type":"charge","layer":"passenger","locationId":"NLLOC003465","name":"NLD, Zwolle, Anlosediep 32","address":"Anlosediep 32","city":"Zwolle","operatorName":"Allego","maxPowerKw":0,"isMegawatt":false,"status":"AVAILABLE","source":"ndw"}},{"type":"Feature","geometry":{"type":"Point","coordinates":[6.045483,52.536195]},"properties":{"type":"charge","layer":"passenger","locationId":"f45cdd20-9c64-4efe-ae60-bc7f1206d59e","name":"Nijenhuislaan","address":"Nijenhuislaan 26","city":"Zwolle","operatorName":"Vattenfall InCharge","maxPowerKw":11,"isMegawatt":false,"status":"AVAILABLE","source":"ndw"}},{"type":"Feature","geometry":{"type":"Point","coordinates":[6.111564,52.491515]},"properties":{"type":"charge","layer":"passenger","locationId":"NLLOC006299","name":"NL, Knoppertkamp 28, 8014CD, Zwolle","address":"Knoppertkamp 28","city":"Zwolle","operatorName":"Allego","maxPowerKw":0,"isMegawatt":false,"status":"AVAILABLE","source":"ndw"}},{"type":"Feature","geometry":{"type":"Point","coordinates":[6.116064,52.482958]},"properties":{"type":"charge","layer":"passenger","locationId":"53ad6ccd1fa14870a1f976a6193c70a4","name":"Regentenstraat 60","address":"Regentenstraat 60","city":"Zwolle","operatorName":"Vattenfall InCharge","maxPowerKw":11,"isMegawatt":false,"status":"AVAILABLE","source":"ndw"}},{"type":"Feature","geometry":{"type":"Point","coordinates":[6.110933,52.520246]},"properties":{"type":"charge","layer":"passenger","locationId":"6e6ef508da2086068d851873294ef826","name":"Vornkenstraat 1","address":"Vornkenstraat 1","city":"Zwolle","operatorName":"Vattenfall InCharge","maxPowerKw":11,"isMegawatt":false,"status":"AVAILABLE","source":"ndw"}},{"type":"Feature","geometry":{"type":"Point","coordinates":[6.108902,52.528476]},"properties":{"type":"charge","layer":"passenger","locationId":"NLLOC024831","name":"NL, Botlek 69, 8032 CD Zwolle","address":"Botlek 69","city":"Zwolle","operatorName":"Allego","maxPowerKw":0,"isMegawatt":false,"status":"AVAILABLE","source":"ndw"}},{"type":"Feature","geometry":{"type":"Point","coordinates":[6.11358,52.50359]},"properties":{"type":"charge","layer":"passenger","locationId":"18dd444868242b4698fa210caf54ea3c","name":"Fuchsiastraat 30","address":"Fuchsiastraat 30","city":"Zwolle","operatorName":"Vattenfall InCharge","maxPowerKw":11,"isMegawatt":false,"status":"AVAILABLE","source":"ndw"}},{"type":"Feature","geometry":{"type":"Point","coordinates":[6.042454,52.533677]},"properties":{"type":"charge","layer":"passenger","locationId":"NLLOC014370","name":"NL, Bonkenhavestraat, 3, 8043TB, Zwolle","address":"Bonkenhavestraat 3","city":"Zwolle","operatorName":"Allego","maxPowerKw":0,"isMegawatt":false,"status":"AVAILABLE","source":"ndw"}},{"type":"Feature","geometry":{"type":"Point","coordinates":[6.100912,52.503782]},"properties":{"type":"charge","layer":"passenger","locationId":"NLLOC023824","name":"NL, Groeneweg 69, 8012 AK Zwolle","address":"Groeneweg 69","city":"Zwolle","operatorName":"Allego","maxPowerKw":0,"isMegawatt":false,"status":"AVAILABLE","source":"ndw"}},{"type":"Feature","geometry":{"type":"Point","coordinates":[6.102412,52.532402]},"properties":{"type":"charge","layer":"passenger","locationId":"47ea7dfa7a777fc0a3d3b42e5859695b","name":"Grotekreek 6","address":"Grotekreek 6","city":"Zwolle","operatorName":"Vattenfall InCharge","maxPowerKw":11,"isMegawatt":false,"status":"AVAILABLE","source":"ndw"}},{"type":"Feature","geometry":{"type":"Point","coordinates":[6.11666,52.496316]},"properties":{"type":"charge","layer":"passenger","locationId":"b70e3cbbca31561aefac61845eee02ca","name":"Huub van Doornestraat 8","address":"Huub van Doornestraat 8","city":"Zwolle","operatorName":"Vattenfall InCharge","maxPowerKw":50,"isMegawatt":false,"status":"AVAILABLE","source":"ndw"}},{"type":"Feature","geometry":{"type":"Point","coordinates":[6.08851,52.50532]},"properties":{"type":"charge","layer":"passenger","locationId":"bf9ed92c-fc33-11ec-a474-42010aa40024","name":"Eneco eMobility NS Hanzelaan 101 Zwolle","address":"Hanzelaan 101","city":"Zwolle","operatorName":"Eneco","maxPowerKw":0,"isMegawatt":false,"status":"AVAILABLE","source":"ndw"}},{"type":"Feature","geometry":{"type":"Point","coordinates":[6.050571,52.542796]},"properties":{"type":"charge","layer":"passenger","locationId":"e69ae68f247650c6aa25a203edb69e07","name":"Moutmolen 12","address":"Moutmolen 12","city":"Zwolle","operatorName":"Vattenfall InCharge","maxPowerKw":11,"isMegawatt":false,"status":"AVAILABLE","source":"ndw"}},{"type":"Feature","geometry":{"type":"Point","coordinates":[6.12266,52.52515]},"properties":{"type":"charge","layer":"passenger","locationId":"C384BC51-08AD-4BDB-95BD-CAC83FDDB19D","name":"Eneco eMobility Dusseldorp BMW - Zwolle","address":"Molenland 4","city":"Zwolle","operatorName":"Eneco","maxPowerKw":200,"isMegawatt":false,"status":"AVAILABLE","source":"ndw"}},{"type":"Feature","geometry":{"type":"Point","coordinates":[6.101011,52.537418]},"properties":{"type":"charge","layer":"passenger","locationId":"NLLOC025372","name":"NL, Punterdiep 56, 8032 TW Zwolle","address":"Punterdiep 56","city":"Zwolle","operatorName":"Allego","maxPowerKw":0,"isMegawatt":false,"status":"AVAILABLE","source":"ndw"}},{"type":"Feature","geometry":{"type":"Point","coordinates":[6.087269,52.517244]},"properties":{"type":"charge","layer":"passenger","locationId":"15F35AD6-E21B-4BBD-B4EA-62166D44860B","name":"Eneco eMobility Roelenkwartier Zwolle BV","address":"Burgemeester Roelenweg 18","city":"Zwolle","operatorName":"Eneco","maxPowerKw":22,"isMegawatt":false,"status":"AVAILABLE","source":"ndw"}},{"type":"Feature","geometry":{"type":"Point","coordinates":[6.095873,52.501214]},"properties":{"type":"charge","layer":"passenger","locationId":"C66585A1-AFB5-45D3-BB65-E49D7028E805","name":"Eneco eMobility DRDS Int. BV. - Zwolle","address":"Hanzelaan 320","city":"Zwolle","operatorName":"Eneco","maxPowerKw":11,"isMegawatt":false,"status":"UNAVAILABLE","source":"ndw"}},{"type":"Feature","geometry":{"type":"Point","coordinates":[6.062661,52.53677]},"properties":{"type":"charge","layer":"passenger","locationId":"NLLOC016431","name":"NL, Karveelschipperstraat 159, 8043EH, Zwolle","address":"Karveelschipperstraat 159","city":"Zwolle","operatorName":"Allego","maxPowerKw":0,"isMegawatt":false,"status":"AVAILABLE","source":"ndw"}},{"type":"Feature","geometry":{"type":"Point","coordinates":[6.084572,52.513356]},"properties":{"type":"charge","layer":"passenger","locationId":"NLLOC005078","name":"NLD, Zwolle, Nachtegaalstraat 20","address":"Nachtegaalstraat 20","city":"Zwolle","operatorName":"Allego","maxPowerKw":0,"isMegawatt":false,"status":"AVAILABLE","source":"ndw"}},{"type":"Feature","geometry":{"type":"Point","coordinates":[6.100291,52.499472]},"properties":{"type":"charge","layer":"passenger","locationId":"NLLOC010267","name":"NL, Vrouwenlaan 5 8017 HB Zwolle","address":"Vrouwenlaan 5","city":"Zwolle","operatorName":"Allego","maxPowerKw":0,"isMegawatt":false,"status":"UNAVAILABLE","source":"ndw"}},{"type":"Feature","geometry":{"type":"Point","coordinates":[6.104297,52.499639]},"properties":{"type":"charge","layer":"passenger","locationId":"d20d1408-0a2b-11f0-8d85-42010aa400b8","name":"bp pulse IJsselallee","address":"IJsselallee 1","city":"Zwolle","operatorName":"bp pulse","maxPowerKw":300,"isMegawatt":false,"status":"AVAILABLE","source":"ndw"}},{"type":"Feature","geometry":{"type":"Point","coordinates":[6.04703,52.521106]},"properties":{"type":"charge","layer":"passenger","locationId":"d4e5a85b-553f-43a7-b432-6e5b1093c206","name":"Anijskruidweg 2","address":"Anijskruidweg 2","city":"Zwolle","operatorName":"Vattenfall InCharge","maxPowerKw":11,"isMegawatt":false,"status":"AVAILABLE","source":"ndw"}},{"type":"Feature","geometry":{"type":"Point","coordinates":[6.098662,52.487042]},"properties":{"type":"charge","layer":"passenger","locationId":"1144e35e686e70a97ec09b4e0632a1f1","name":"Van Langelomarke 12","address":"Van Langelomarke 12","city":"Zwolle","operatorName":"Vattenfall InCharge","maxPowerKw":11,"isMegawatt":false,"status":"AVAILABLE","source":"ndw"}},{"type":"Feature","geometry":{"type":"Point","coordinates":[6.1914,52.583778]},"properties":{"type":"charge","layer":"passenger","locationId":"4827c87a-5805-11ee-bf5b-42010aa40fc0","name":"Hotel & Restaurant Infinity (PowerGo)","address":"Lichtmisweg 51","city":"Zwolle","operatorName":"PowerGo","maxPowerKw":0,"isMegawatt":false,"status":"AVAILABLE","source":"ndw"}},{"type":"Feature","geometry":{"type":"Point","coordinates":[6.11954,52.498542]},"properties":{"type":"charge","layer":"passenger","locationId":"cb1bbe95-1e11-454c-9e92-b360e9d94afd","name":"Marsweg 18","address":"Marsweg 18","city":"Zwolle","operatorName":"Vattenfall InCharge","maxPowerKw":11,"isMegawatt":false,"status":"AVAILABLE","source":"ndw"}},{"type":"Feature","geometry":{"type":"Point","coordinates":[6.106571,52.50186]},"properties":{"type":"charge","layer":"passenger","locationId":"38f6d21e75b7470b242d9f7fb363b3da","name":"Dahliastraat 1","address":"Dahliastraat 1","city":"Zwolle","operatorName":"Vattenfall InCharge","maxPowerKw":11,"isMegawatt":false,"status":"AVAILABLE","source":"ndw"}},{"type":"Feature","geometry":{"type":"Point","coordinates":[6.085099,52.523495]},"properties":{"type":"charge","layer":"passenger","locationId":"3f8f5432-dfcd-4a03-a35b-db17f90b5cd6","name":"Wanningstraat","address":"Wanningstraat 125","city":"Zwolle","operatorName":"Vattenfall InCharge","maxPowerKw":11,"isMegawatt":false,"status":"AVAILABLE","source":"ndw"}},{"type":"Feature","geometry":{"type":"Point","coordinates":[6.09287,52.533746]},"properties":{"type":"charge","layer":"passenger","locationId":"438c7f1512ec1ebeb415417d73fd881a","name":"Hunzelaan 9","address":"Hunzelaan 9","city":"Zwolle","operatorName":"Vattenfall InCharge","maxPowerKw":11,"isMegawatt":false,"status":"AVAILABLE","source":"ndw"}},{"type":"Feature","geometry":{"type":"Point","coordinates":[6.074662,52.508442]},"properties":{"type":"charge","layer":"passenger","locationId":"22b61828-b580-4051-8053-ba6501980e20","name":"Prins Alexanderstraat","address":"Prins Alexanderstraat 34","city":"Zwolle","operatorName":"Vattenfall InCharge","maxPowerKw":11,"isMegawatt":false,"status":"AVAILABLE","source":"ndw"}},{"type":"Feature","geometry":{"type":"Point","coordinates":[6.12373,52.49619]},"properties":{"type":"charge","layer":"passenger","locationId":"14b7a584-5499-11ed-8ed9-42010aa40024","name":"Eneco eMobility Broekhuis Opel Bedrijfswagens Zwolle","address":"Marsweg 43","city":"Zwolle","operatorName":"Eneco","maxPowerKw":22,"isMegawatt":false,"status":"AVAILABLE","source":"ndw"}},{"type":"Feature","geometry":{"type":"Point","coordinates":[6.093046,52.507554]},"properties":{"type":"charge","layer":"passenger","locationId":"NLLOC001294","name":"NL, Zeven Alleetjes 10, 8011 CV Zwolle","address":"Zeven Alleetjes 10","city":"Zwolle","operatorName":"Allego","maxPowerKw":0,"isMegawatt":false,"status":"AVAILABLE","source":"ndw"}},{"type":"Feature","geometry":{"type":"Point","coordinates":[6.095429,52.5299]},"properties":{"type":"charge","layer":"passenger","locationId":"NLLOC012010","name":"NL, Wielingen 1, 8032 EK Zwolle","address":"Wielingen 1","city":"Zwolle","operatorName":"Allego","maxPowerKw":0,"isMegawatt":false,"status":"AVAILABLE","source":"ndw"}},{"type":"Feature","geometry":{"type":"Point","coordinates":[6.075277,52.517566]},"properties":{"type":"charge","layer":"passenger","locationId":"d3347c18-0a67-4362-8d0c-30acce6bf84d","name":"PRO - Profile Kalvenhaar - Zwolle","address":"Gasthuisdijk 2","city":"Zwolle","operatorName":"Blink Charging","maxPowerKw":0,"isMegawatt":false,"status":"CHARGING","source":"ndw"}},{"type":"Feature","geometry":{"type":"Point","coordinates":[6.107061,52.523287]},"properties":{"type":"charge","layer":"passenger","locationId":"NLLOC003523","name":"NLD, Zwolle, Geert Grootestraat 96","address":"Geert Grootestraat 96","city":"Zwolle","operatorName":"Allego","maxPowerKw":0,"isMegawatt":false,"status":"AVAILABLE","source":"ndw"}},{"type":"Feature","geometry":{"type":"Point","coordinates":[6.037318,52.53081]},"properties":{"type":"charge","layer":"passenger","locationId":"6006fc00646a19391ed9e8ef583bdad9","name":"Holtinkstraat 80","address":"Holtinkstraat 80","city":"Zwolle","operatorName":"Vattenfall InCharge","maxPowerKw":11,"isMegawatt":false,"status":"AVAILABLE","source":"ndw"}},{"type":"Feature","geometry":{"type":"Point","coordinates":[6.100108,52.513084]},"properties":{"type":"charge","layer":"passenger","locationId":"08bb6906-51e4-11ea-bb06-42010a840003","name":"NL, Ter Pelkwijkpark 26, 8011 SH, Zwolle","address":"Ter Pelkwijkpark 26","city":"Zwolle","operatorName":"Allego","maxPowerKw":0,"isMegawatt":false,"status":"AVAILABLE","source":"ndw"}},{"type":"Feature","geometry":{"type":"Point","coordinates":[6.112498,52.488426]},"properties":{"type":"charge","layer":"passenger","locationId":"NLLOC006693","name":"NL, Gruitmeesterslaan 96, 8014 CK Zwolle","address":"Gruitmeesterslaan 96","city":"Zwolle","operatorName":"Allego","maxPowerKw":0,"isMegawatt":false,"status":"AVAILABLE","source":"ndw"}},{"type":"Feature","geometry":{"type":"Point","coordinates":[6.040426,52.537012]},"properties":{"type":"charge","layer":"passenger","locationId":"56c0206c-4f3c-11e8-898e-42010a840002","name":"NLD, Bonkenhavestraat 174, Zwolle","address":"Bonkenhavestraat 174","city":"Zwolle","operatorName":"Allego","maxPowerKw":0,"isMegawatt":false,"status":"AVAILABLE","source":"ndw"}},{"type":"Feature","geometry":{"type":"Point","coordinates":[6.115031,52.515983]},"properties":{"type":"charge","layer":"passenger","locationId":"6827520c-76fe-11eb-bd66-42010a840033","name":"NL, Tesselschadestraat 35, 8023BJ, Zwolle","address":"Tesselschadestraat 35","city":"Zwolle","operatorName":"Allego","maxPowerKw":0,"isMegawatt":false,"status":"AVAILABLE","source":"ndw"}},{"type":"Feature","geometry":{"type":"Point","coordinates":[6.086177,52.509443]},"properties":{"type":"charge","layer":"passenger","locationId":"70c2badc-6589-11ea-8729-42010a840003","name":"NL, Emmawijk 11, 8011 CM, Zwolle","address":"Emmawijk 11","city":"Zwolle","operatorName":"Allego","maxPowerKw":0,"isMegawatt":false,"status":"CHARGING","source":"ndw"}},{"type":"Feature","geometry":{"type":"Point","coordinates":[6.110958,52.530957]},"properties":{"type":"charge","layer":"passenger","locationId":"9365a1b0-04ff-11eb-8ac3-42010a840033","name":"NL, Glanerbeek, 139, 8033GB, Zwolle","address":"Glanerbeek 139","city":"Zwolle","operatorName":"Allego","maxPowerKw":0,"isMegawatt":false,"status":"AVAILABLE","source":"ndw"}},{"type":"Feature","geometry":{"type":"Point","coordinates":[6.099532,52.504473]},"properties":{"type":"charge","layer":"passenger","locationId":"b25ff668-c013-11eb-b710-42010a840003","name":"NL, Blokstraat 38, 8012VN, Zwolle","address":"Blokstraat 38","city":"Zwolle","operatorName":"Allego","maxPowerKw":0,"isMegawatt":false,"status":"AVAILABLE","source":"ndw"}},{"type":"Feature","geometry":{"type":"Point","coordinates":[6.109597,52.514454]},"properties":{"type":"charge","layer":"passenger","locationId":"b440aea8-1fc5-11eb-9914-42010a840003","name":"NL,Wipstrikkerallee 5, 8023 DR Zwolle","address":"Wipstrikkerallee 5","city":"Zwolle","operatorName":"Allego","maxPowerKw":0,"isMegawatt":false,"status":"AVAILABLE","source":"ndw"}},{"type":"Feature","geometry":{"type":"Point","coordinates":[6.086982,52.527636]},"properties":{"type":"charge","layer":"passenger","locationId":"c06dbe28-110a-11ec-8a29-42010a840003","name":"NL, Morleystraat 11, 8031 KW, Zwolle","address":"Morleystraat 11","city":"Zwolle","operatorName":"Allego","maxPowerKw":0,"isMegawatt":false,"status":"AVAILABLE","source":"ndw"}},{"type":"Feature","geometry":{"type":"Point","coordinates":[6.097964,52.511515]},"properties":{"type":"charge","layer":"passenger","locationId":"e7bfe4f8-4b58-11ee-bdcf-42010aa40fc0","name":"NL, Ter Pelkwijkpark 18, 8011 SH Zwolle","address":"Ter Pelkwijkpark 18","city":"Zwolle","operatorName":"Allego","maxPowerKw":0,"isMegawatt":false,"status":"AVAILABLE","source":"ndw"}},{"type":"Feature","geometry":{"type":"Point","coordinates":[6.103599,52.521316]},"properties":{"type":"charge","layer":"passenger","locationId":"e9e3e974-0b8a-11ec-a53a-42010a840003","name":"NL, Jan Buschstraat 21, 9022 DX Zwolle","address":"Jan Buschstraat 21","city":"Zwolle","operatorName":"Allego","maxPowerKw":0,"isMegawatt":false,"status":"AVAILABLE","source":"ndw"}},{"type":"Feature","geometry":{"type":"Point","coordinates":[6.117691,52.476855]},"properties":{"type":"charge","layer":"passenger","locationId":"ee70d6a8-34a7-11e9-8ce6-42010a840003","name":"NLD, Zwolle, Dreessingel 21","address":"Dreessingel 21","city":"Zwolle","operatorName":"Allego","maxPowerKw":0,"isMegawatt":false,"status":"AVAILABLE","source":"ndw"}},{"type":"Feature","geometry":{"type":"Point","coordinates":[6.109357,52.512658]},"properties":{"type":"charge","layer":"passenger","locationId":"fd6a0166-b879-11e8-9db9-42010a840002","name":"NLD, Gemeente Zwolle, De Ruyterstraat 24 8023TT Zwolle","address":"De Ruyterstraat 24","city":"Zwolle","operatorName":"Allego","maxPowerKw":0,"isMegawatt":false,"status":"AVAILABLE","source":"ndw"}},{"type":"Feature","geometry":{"type":"Point","coordinates":[6.09139,52.50652]},"properties":{"type":"charge","layer":"passenger","locationId":"5d9ee469e4e94e6da71c4179687d4d40","name":"Zwolle - Pillows Hotel","address":"Stationsweg 9","city":"Zwolle","operatorName":"Opcharge","maxPowerKw":22,"isMegawatt":false,"status":"AVAILABLE","source":"ndw"}},{"type":"Feature","geometry":{"type":"Point","coordinates":[6.052278,52.539682]},"properties":{"type":"charge","layer":"passenger","locationId":"163c3b4857044f5333f300db7d6baaca","name":"Kleimos 32","address":"Kleimos 32","city":"Zwolle","operatorName":"Vattenfall InCharge","maxPowerKw":11,"isMegawatt":false,"status":"AVAILABLE","source":"ndw"}},{"type":"Feature","geometry":{"type":"Point","coordinates":[6.052482,52.545379]},"properties":{"type":"charge","layer":"passenger","locationId":"c0bc0614-b8f7-4ce7-b410-86bb368f84d6","name":"Breezichtlaan","address":"Breezichtlaan 23","city":"Zwolle","operatorName":"Vattenfall InCharge","maxPowerKw":11,"isMegawatt":false,"status":"AVAILABLE","source":"ndw"}},{"type":"Feature","geometry":{"type":"Point","coordinates":[6.057472,52.527224]},"properties":{"type":"charge","layer":"passenger","locationId":"NLLOC018303","name":"NL, Tiendschuurstraat 86, 8043 XZ Zwolle","address":"Tiendschuurstraat 86","city":"Zwolle","operatorName":"Allego","maxPowerKw":0,"isMegawatt":false,"status":"AVAILABLE","source":"ndw"}},{"type":"Feature","geometry":{"type":"Point","coordinates":[6.103897,52.486351]},"properties":{"type":"charge","layer":"passenger","locationId":"041b33e0-a15b-11ec-879b-42010a840003","name":"NL, Van Coevordenmarke 11, 8016 EA Zwolle","address":"Van Coevordenmarke 11","city":"Zwolle","operatorName":"Allego","maxPowerKw":0,"isMegawatt":false,"status":"AVAILABLE","source":"ndw"}},{"type":"Feature","geometry":{"type":"Point","coordinates":[6.10302,52.506588]},"properties":{"type":"charge","layer":"passenger","locationId":"54acac1e-4d93-11e8-a83d-42010a840002","name":"NL, Assendorperdijk 42, 8012 EH Zwolle","address":"Assendorperdijk 42","city":"Zwolle","operatorName":"Allego","maxPowerKw":0,"isMegawatt":false,"status":"AVAILABLE","source":"ndw"}},{"type":"Feature","geometry":{"type":"Point","coordinates":[6.111488,52.477829]},"properties":{"type":"charge","layer":"passenger","locationId":"7975b33e-e69b-11eb-a0f0-42010a840003","name":"NL, Mackayware 116, 8014 RZ Zwolle","address":"Mackayware 116","city":"Zwolle","operatorName":"Allego","maxPowerKw":0,"isMegawatt":false,"status":"AVAILABLE","source":"ndw"}},{"type":"Feature","geometry":{"type":"Point","coordinates":[6.105209,52.532147]},"properties":{"type":"charge","layer":"passenger","locationId":"7a3d3d18-4f3c-11e8-8f79-42010a840002","name":"NLD, Zwolle, Molenkreek 1","address":"Molenkreek 1","city":"Zwolle","operatorName":"Allego","maxPowerKw":0,"isMegawatt":false,"status":"AVAILABLE","source":"ndw"}},{"type":"Feature","geometry":{"type":"Point","coordinates":[6.144286,52.521992]},"properties":{"type":"charge","layer":"passenger","locationId":"8f677854-ac70-11eb-ad74-42010a840003","name":"NL, Pieter Zeemanlaan 49, 8024 CH Zwolle","address":"Pieter Zeemanlaan 49","city":"Zwolle","operatorName":"Allego","maxPowerKw":0,"isMegawatt":false,"status":"AVAILABLE","source":"ndw"}},{"type":"Feature","geometry":{"type":"Point","coordinates":[6.05541,52.538608]},"properties":{"type":"charge","layer":"passenger","locationId":"dee5eca6-9567-11ea-92e6-42010a840003","name":"NL, Fioringras 41, 8043KA, Zwolle","address":"Fioringras 41","city":"Zwolle","operatorName":"Allego","maxPowerKw":0,"isMegawatt":false,"status":"AVAILABLE","source":"ndw"}},{"type":"Feature","geometry":{"type":"Point","coordinates":[6.100486,52.499973]},"properties":{"type":"charge","layer":"passenger","locationId":"fd7b1494-8e07-11ec-97b5-42010a840003","name":"NL, Vrouwenlaan 5, 8017 HB Zwolle","address":"Vrouwenlaan 5","city":"Zwolle","operatorName":"Allego","maxPowerKw":0,"isMegawatt":false,"status":"AVAILABLE","source":"ndw"}},{"type":"Feature","geometry":{"type":"Point","coordinates":[6.10816,52.504822]},"properties":{"type":"charge","layer":"passenger","locationId":"03b15f2e-5f40-11ea-bb4c-42010a840003","name":"NL, Assendorperdijk 172, 8012 EK, Zwolle","address":"Assendorperdijk 172","city":"Zwolle","operatorName":"Allego","maxPowerKw":0,"isMegawatt":false,"status":"AVAILABLE","source":"ndw"}},{"type":"Feature","geometry":{"type":"Point","coordinates":[6.101462,52.515447]},"properties":{"type":"charge","layer":"passenger","locationId":"0a2f57ea-f36f-11e8-a77d-42010a840002","name":"NLD, Zwolle, 't Streekien 31","address":"'t Streekien 31","city":"Zwolle","operatorName":"Allego","maxPowerKw":0,"isMegawatt":false,"status":"AVAILABLE","source":"ndw"}},{"type":"Feature","geometry":{"type":"Point","coordinates":[6.10923,52.499971]},"properties":{"type":"charge","layer":"passenger","locationId":"22a43404-aa14-11eb-9a33-42010a840003","name":"NL,Mimosastraat 3 P, 8013SB Zwolle","address":"Mimosastraat 3 P","city":"Zwolle","operatorName":"Allego","maxPowerKw":0,"isMegawatt":false,"status":"CHARGING","source":"ndw"}},{"type":"Feature","geometry":{"type":"Point","coordinates":[6.119876,52.474111]},"properties":{"type":"charge","layer":"passenger","locationId":"3e457baa-1d6a-11eb-b58e-42010a840003","name":"NL, Kamerledenlaan 78, 8015 CN Zwolle","address":"Kamerledenlaan 78","city":"Zwolle","operatorName":"Allego","maxPowerKw":0,"isMegawatt":false,"status":"AVAILABLE","source":"ndw"}},{"type":"Feature","geometry":{"type":"Point","coordinates":[6.107324,52.481702]},"properties":{"type":"charge","layer":"passenger","locationId":"c4cdf092-060a-11ec-98a0-42010a840003","name":"NL, Gouverneurlaan 18, 8016 BK Zwolle","address":"Gouverneurlaan 18","city":"Zwolle","operatorName":"Allego","maxPowerKw":0,"isMegawatt":false,"status":"AVAILABLE","source":"ndw"}},{"type":"Feature","geometry":{"type":"Point","coordinates":[6.107897,52.502145]},"properties":{"type":"charge","layer":"passenger","locationId":"NLLOC015794","name":"NL, Begoniastraat 48, 8012DC, Zwolle","address":"Begoniastraat 48","city":"Zwolle","operatorName":"Allego","maxPowerKw":0,"isMegawatt":false,"status":"AVAILABLE","source":"ndw"}},{"type":"Feature","geometry":{"type":"Point","coordinates":[6.066616,52.534569]},"properties":{"type":"charge","layer":"passenger","locationId":"03c33b7c-5f40-11ea-b4c9-42010a840003","name":"NL, Drapenierlaan, 28, 8043AA, Zwolle","address":"Drapenierlaan 28","city":"Zwolle","operatorName":"Allego","maxPowerKw":0,"isMegawatt":false,"status":"AVAILABLE","source":"ndw"}},{"type":"Feature","geometry":{"type":"Point","coordinates":[6.115235,52.486314]},"properties":{"type":"charge","layer":"passenger","locationId":"NLLOC024402","name":"NL, Snavel van Emekamp 25, 8014CW, Zwolle","address":"Snavel van Emekamp 25","city":"Zwolle","operatorName":"Allego","maxPowerKw":0,"isMegawatt":false,"status":"AVAILABLE","source":"ndw"}},{"type":"Feature","geometry":{"type":"Point","coordinates":[6.08391,52.502857]},"properties":{"type":"charge","layer":"passenger","locationId":"09725e84-951d-11e8-8fbe-42010a840002","name":"NLD, Zwolle, Hanzeplein 11","address":"Hanzeplein 11","city":"Zwolle","operatorName":"Allego","maxPowerKw":0,"isMegawatt":false,"status":"CHARGING","source":"ndw"}},{"type":"Feature","geometry":{"type":"Point","coordinates":[6.090371,52.51432]},"properties":{"type":"charge","layer":"passenger","locationId":"221a136e-8bae-11e8-9f71-42010a840002","name":"NLD, Zwolle, Buitenkant 8","address":"Buitenkant 8-A","city":"Zwolle","operatorName":"Allego","maxPowerKw":0,"isMegawatt":false,"status":"AVAILABLE","source":"ndw"}},{"type":"Feature","geometry":{"type":"Point","coordinates":[6.101011,52.537418]},"properties":{"type":"charge","layer":"passenger","locationId":"b8f9069c-9832-11ed-bd83-42010aa40fc0","name":"NL, Punterdiep 56, 8032 TW Zwolle","address":"Punterdiep 56","city":"Zwolle","operatorName":"Allego","maxPowerKw":0,"isMegawatt":false,"status":"AVAILABLE","source":"ndw"}},{"type":"Feature","geometry":{"type":"Point","coordinates":[6.054219,52.53093]},"properties":{"type":"charge","layer":"passenger","locationId":"c693e5a6-ab68-11ea-a582-42010a840003","name":"NL, Winterdijkstraat 42, 8043 VS, Zwolle","address":"Winterdijkstraat 42","city":"Zwolle","operatorName":"Allego","maxPowerKw":0,"isMegawatt":false,"status":"AVAILABLE","source":"ndw"}},{"type":"Feature","geometry":{"type":"Point","coordinates":[6.100291,52.499472]},"properties":{"type":"charge","layer":"passenger","locationId":"f47d8c88-208e-11eb-95d6-42010a840003","name":"NL, Vrouwenlaan 5 8017 HB Zwolle","address":"Vrouwenlaan 5","city":"Zwolle","operatorName":"Allego","maxPowerKw":0,"isMegawatt":false,"status":"AVAILABLE","source":"ndw"}},{"type":"Feature","geometry":{"type":"Point","coordinates":[6.147263,52.523153]},"properties":{"type":"charge","layer":"passenger","locationId":"c66686b1b147757ff19ddf58d67c9d3a","name":"Tinbergenlaan 51","address":"Tinbergenlaan 51","city":"Zwolle","operatorName":"Vattenfall InCharge","maxPowerKw":11,"isMegawatt":false,"status":"AVAILABLE","source":"ndw"}},{"type":"Feature","geometry":{"type":"Point","coordinates":[6.065574,52.52654]},"properties":{"type":"charge","layer":"passenger","locationId":"NLLOC006353","name":"NL, Rollepaalstraat 3, 8043 GD, Zwolle","address":"Rollepaalstraat 3","city":"Zwolle","operatorName":"Allego","maxPowerKw":0,"isMegawatt":false,"status":"AVAILABLE","source":"ndw"}},{"type":"Feature","geometry":{"type":"Point","coordinates":[6.109115,52.536889]},"properties":{"type":"charge","layer":"passenger","locationId":"887901ed265f3ad27331ed91114505ce","name":"Bredebeek 12","address":"Bredebeek 12","city":"Zwolle","operatorName":"Vattenfall InCharge","maxPowerKw":11,"isMegawatt":false,"status":"AVAILABLE","source":"ndw"}},{"type":"Feature","geometry":{"type":"Point","coordinates":[6.039091,52.531041]},"properties":{"type":"charge","layer":"passenger","locationId":"39194cfdf4b8c3ee7c49c0d1982cd176","name":"Holtinkstraat 14","address":"Holtinkstraat 14","city":"Zwolle","operatorName":"Vattenfall InCharge","maxPowerKw":11,"isMegawatt":false,"status":"AVAILABLE","source":"ndw"}},{"type":"Feature","geometry":{"type":"Point","coordinates":[6.09024,52.50762]},"properties":{"type":"charge","layer":"passenger","locationId":"329ca0b70a64485c965abaea458dd5ff","name":"Zwolle Nieuwe Buitensocieteit ","address":"Stationsplein 1","city":"Zwolle","operatorName":"Opcharge","maxPowerKw":22,"isMegawatt":false,"status":"AVAILABLE","source":"ndw"}},{"type":"Feature","geometry":{"type":"Point","coordinates":[6.138027,52.521854]},"properties":{"type":"charge","layer":"passenger","locationId":"253194f9-73b8-4c7e-8624-9eae4592f053","name":"Erasmuslaan","address":"Erasmuslaan 31","city":"Zwolle","operatorName":"Vattenfall InCharge","maxPowerKw":11,"isMegawatt":false,"status":"AVAILABLE","source":"ndw"}},{"type":"Feature","geometry":{"type":"Point","coordinates":[6.167694,52.54645]},"properties":{"type":"charge","layer":"passenger","locationId":"50802","name":"Fastned Haerst","address":"Haerst","city":"Zwolle","operatorName":"Fastned","maxPowerKw":300,"isMegawatt":false,"status":"AVAILABLE","source":"ndw"}},{"type":"Feature","geometry":{"type":"Point","coordinates":[6.121664,52.52947]},"properties":{"type":"charge","layer":"passenger","locationId":"16480588-0c82-11ed-8d2e-42010aa40fc0","name":"NL, Brinkhoekweg 200, 8034PC Zwolle","address":"Brinkhoekweg 200","city":"Zwolle","operatorName":"Allego","maxPowerKw":0,"isMegawatt":false,"status":"AVAILABLE","source":"ndw"}},{"type":"Feature","geometry":{"type":"Point","coordinates":[6.119593,52.47575]},"properties":{"type":"charge","layer":"passenger","locationId":"6652fb4d4d8942f3d15d0eb763b465d6","name":"Gerbrandystraat 1","address":"Gerbrandystraat 1","city":"Zwolle","operatorName":"Vattenfall InCharge","maxPowerKw":11,"isMegawatt":false,"status":"AVAILABLE","source":"ndw"}},{"type":"Feature","geometry":{"type":"Point","coordinates":[6.04529,52.544915]},"properties":{"type":"charge","layer":"passenger","locationId":"1956fdcc-7c7f-11eb-b757-42010a840003","name":"NL, Beukmolen, 32, 8044TA, Zwolle","address":"Beukmolen 24","city":"Zwolle","operatorName":"Allego","maxPowerKw":0,"isMegawatt":false,"status":"AVAILABLE","source":"ndw"}},{"type":"Feature","geometry":{"type":"Point","coordinates":[6.12775,52.490743]},"properties":{"type":"charge","layer":"passenger","locationId":"3781200","name":"Rexel Nederland B.V. Rexel Zwolle","address":"Marsweg 53","city":"Zwolle","operatorName":"Laadnet","maxPowerKw":22,"isMegawatt":false,"status":"AVAILABLE","source":"ndw"}},{"type":"Feature","geometry":{"type":"Point","coordinates":[6.119876,52.474111]},"properties":{"type":"charge","layer":"passenger","locationId":"NLLOC012111","name":"NL, Kamerledenlaan 78, 8015 CN Zwolle","address":"Kamerledenlaan 78","city":"Zwolle","operatorName":"Allego","maxPowerKw":0,"isMegawatt":false,"status":"AVAILABLE","source":"ndw"}},{"type":"Feature","geometry":{"type":"Point","coordinates":[6.121664,52.52947]},"properties":{"type":"charge","layer":"passenger","locationId":"NLLOC020539","name":"NL, Brinkhoekweg 200, 8034PC Zwolle","address":"Brinkhoekweg 200","city":"Zwolle","operatorName":"Allego","maxPowerKw":0,"isMegawatt":false,"status":"AVAILABLE","source":"ndw"}},{"type":"Feature","geometry":{"type":"Point","coordinates":[6.094098,52.52294]},"properties":{"type":"charge","layer":"passenger","locationId":"65fc06192330fc001c8a0cd9","name":"Zwartewaterallee","address":"zwartewaterallee 56","city":"Zwolle","operatorName":"E-Flux by Road","maxPowerKw":22,"isMegawatt":false,"status":"UNAVAILABLE","source":"ndw"}},{"type":"Feature","geometry":{"type":"Point","coordinates":[6.052472,52.541403]},"properties":{"type":"charge","layer":"passenger","locationId":"3f95f516-1d6a-11eb-bb71-42010a840003","name":"NL, Veenmos 73, 8043 MB Zwolle","address":"Veenmos 73","city":"Zwolle","operatorName":"Allego","maxPowerKw":0,"isMegawatt":false,"status":"AVAILABLE","source":"ndw"}},{"type":"Feature","geometry":{"type":"Point","coordinates":[6.048807,52.517097]},"properties":{"type":"charge","layer":"passenger","locationId":"696097fc-dc90-11ec-ad90-42010aa40fc0","name":"NL, Weidesteenlaan 2, 8042 NA Zwolle","address":"Weidesteenlaan 2","city":"Zwolle","operatorName":"Allego","maxPowerKw":0,"isMegawatt":false,"status":"AVAILABLE","source":"ndw"}},{"type":"Feature","geometry":{"type":"Point","coordinates":[6.124134,52.509221]},"properties":{"type":"charge","layer":"passenger","locationId":"79f9e2f2-4f3c-11e8-aeab-42010a840002","name":"NLD, Zwolle, Dokter van Deenweg 84","address":"Dokter van Deenweg 84","city":"Zwolle","operatorName":"Allego","maxPowerKw":0,"isMegawatt":false,"status":"CHARGING","source":"ndw"}},{"type":"Feature","geometry":{"type":"Point","coordinates":[6.102865,52.517481]},"properties":{"type":"charge","layer":"passenger","locationId":"883930e2-9e4a-11eb-b2d9-42010a840003","name":"NL, Hofstraatstraat, 6, 8021CE, Zwolle","address":"Hofstraat 6","city":"Zwolle","operatorName":"Allego","maxPowerKw":0,"isMegawatt":false,"status":"AVAILABLE","source":"ndw"}},{"type":"Feature","geometry":{"type":"Point","coordinates":[6.08033,52.523948]},"properties":{"type":"charge","layer":"passenger","locationId":"98df7862-307a-11ec-bad9-42010a840003","name":"NL, Schumannlaan 30, 8031PA Zwolle","address":"Schumannlaan 30","city":"Zwolle","operatorName":"Allego","maxPowerKw":0,"isMegawatt":false,"status":"AVAILABLE","source":"ndw"}},{"type":"Feature","geometry":{"type":"Point","coordinates":[6.087373,52.523558]},"properties":{"type":"charge","layer":"passenger","locationId":"b253cca8-c013-11eb-8f66-42010a840003","name":"NL, Gombertstraat 248, 8031 MH Zwolle","address":"Gombertstraat 248","city":"Zwolle","operatorName":"Allego","maxPowerKw":0,"isMegawatt":false,"status":"AVAILABLE","source":"ndw"}},{"type":"Feature","geometry":{"type":"Point","coordinates":[6.060969,52.542526]},"properties":{"type":"charge","layer":"passenger","locationId":"ec890ed8-bdbb-11eb-903a-42010a840003","name":"NL, Waterviolier 51, 8043JX, Zwolle","address":"Waterviolier 51","city":"Zwolle","operatorName":"Allego","maxPowerKw":0,"isMegawatt":false,"status":"AVAILABLE","source":"ndw"}},{"type":"Feature","geometry":{"type":"Point","coordinates":[6.04856,52.52786]},"properties":{"type":"charge","layer":"passenger","locationId":"e86b915091f42dc1434552e79415dbd7","name":"Belvederelaan 493","address":"Belvederelaan 493","city":"Zwolle","operatorName":"Vattenfall InCharge","maxPowerKw":11,"isMegawatt":false,"status":"AVAILABLE","source":"ndw"}},{"type":"Feature","geometry":{"type":"Point","coordinates":[6.075277,52.517566]},"properties":{"type":"charge","layer":"passenger","locationId":"8df8bdae-4b57-11f0-8dbe-42010aa40043","name":"PRO - Profile Kalvenhaar - Zwolle","address":"Gasthuisdijk 2","city":"Zwolle","operatorName":"Blink Charging","maxPowerKw":0,"isMegawatt":false,"status":"AVAILABLE","source":"ndw"}},{"type":"Feature","geometry":{"type":"Point","coordinates":[6.134964,52.4886894]},"properties":{"type":"charge","layer":"passenger","locationId":"19902","name":"Conradstraat 4 (PowerGo)","address":"Conradstraat 4","city":"Zwolle","operatorName":"PowerGo","maxPowerKw":0,"isMegawatt":false,"status":"AVAILABLE","source":"ndw"}},{"type":"Feature","geometry":{"type":"Point","coordinates":[6.052327,52.537776]},"properties":{"type":"charge","layer":"passenger","locationId":"NLLOC014321","name":"NL, Fioringras 79, 8043 KB Zwolle","address":"Fioringras 79","city":"Zwolle","operatorName":"Allego","maxPowerKw":0,"isMegawatt":false,"status":"AVAILABLE","source":"ndw"}},{"type":"Feature","geometry":{"type":"Point","coordinates":[6.057476,52.534526]},"properties":{"type":"charge","layer":"passenger","locationId":"NLLOC008930","name":"NL, Werkerlaan 229, 8043 LV Zwolle","address":"Werkerlaan 229","city":"Zwolle","operatorName":"Allego","maxPowerKw":0,"isMegawatt":false,"status":"AVAILABLE","source":"ndw"}},{"type":"Feature","geometry":{"type":"Point","coordinates":[6.150365,52.497383]},"properties":{"type":"charge","layer":"passenger","locationId":"c2f01b47b449925ff866094b2010136e","name":"Zalnéweg 110","address":"Zalnéweg 110","city":"Zwolle","operatorName":"Vattenfall InCharge","maxPowerKw":11,"isMegawatt":false,"status":"AVAILABLE","source":"ndw"}},{"type":"Feature","geometry":{"type":"Point","coordinates":[6.167771,52.545909]},"properties":{"type":"charge","layer":"passenger","locationId":"274","name":"Shell Recharge NL0078 - Shell Haerst","address":"Rijksweg A28 Wz","city":"Zwolle","operatorName":"Shell Recharge","maxPowerKw":175,"isMegawatt":false,"status":"AVAILABLE","source":"ndw"}},{"type":"Feature","geometry":{"type":"Point","coordinates":[6.100091,52.489628]},"properties":{"type":"charge","layer":"passenger","locationId":"f227cf8ac06ee86658495a1ff941e014","name":"Van Hornmarke 2","address":"Van Hornmarke 2","city":"Zwolle","operatorName":"Vattenfall InCharge","maxPowerKw":11,"isMegawatt":false,"status":"AVAILABLE","source":"ndw"}},{"type":"Feature","geometry":{"type":"Point","coordinates":[6.170431,52.513575]},"properties":{"type":"charge","layer":"passenger","locationId":"670e58dfa6d815001cbef9aa","name":"Laadpaal Poppe","address":"Hooiweg  15","city":"Zwolle","operatorName":"E-Flux by Road","maxPowerKw":22,"isMegawatt":false,"status":"AVAILABLE","source":"ndw"}},{"type":"Feature","geometry":{"type":"Point","coordinates":[6.035005,52.53913]},"properties":{"type":"charge","layer":"passenger","locationId":"822b6334abd89db0322684618933b71b","name":"Slotenhagenstraat 69","address":"Slotenhagenstraat 69","city":"Zwolle","operatorName":"Vattenfall InCharge","maxPowerKw":11,"isMegawatt":false,"status":"AVAILABLE","source":"ndw"}},{"type":"Feature","geometry":{"type":"Point","coordinates":[6.110179,52.530793]},"properties":{"type":"charge","layer":"passenger","locationId":"649808ef-e486-4f22-b5fe-f9c688dc72af","name":"Glanerbeek","address":"Glanerbeek 125","city":"Zwolle","operatorName":"Vattenfall InCharge","maxPowerKw":11,"isMegawatt":false,"status":"AVAILABLE","source":"ndw"}},{"type":"Feature","geometry":{"type":"Point","coordinates":[6.113464,52.513968]},"properties":{"type":"charge","layer":"passenger","locationId":"9bca385b-d2f2-4dbf-b2fa-dd658b4932c8","name":"Herfterweg 2","address":"Herfterweg 2","city":"Zwolle","operatorName":"Vattenfall InCharge","maxPowerKw":11,"isMegawatt":false,"status":"AVAILABLE","source":"ndw"}},{"type":"Feature","geometry":{"type":"Point","coordinates":[6.104099,52.483045]},"properties":{"type":"charge","layer":"passenger","locationId":"4b6b2de414d65d7b471e1e45fb30fc06","name":"Heerkensmarke  1","address":"Heerkensmarke  1","city":"Zwolle","operatorName":"Vattenfall InCharge","maxPowerKw":11,"isMegawatt":false,"status":"AVAILABLE","source":"ndw"}},{"type":"Feature","geometry":{"type":"Point","coordinates":[6.11805,52.52255]},"properties":{"type":"charge","layer":"passenger","locationId":"1719174","name":"Hidde Lammertink Zwolle Ceintuurbaan 32","address":"Ceintuurbaan 32","city":"Zwolle","operatorName":"Laadnet","maxPowerKw":22,"isMegawatt":false,"status":"AVAILABLE","source":"ndw"}},{"type":"Feature","geometry":{"type":"Point","coordinates":[6.1186,52.5234]},"properties":{"type":"charge","layer":"passenger","locationId":"7f03e5b8-f8ff-11ee-8603-42010aa400b8","name":"Eneco eMobility Dusseldorp MINI - Ceintuurbaan - Zwolle","address":"Ceintuurbaan 48","city":"Zwolle","operatorName":"Eneco","maxPowerKw":22,"isMegawatt":false,"status":"CHARGING","source":"ndw"}},{"type":"Feature","geometry":{"type":"Point","coordinates":[6.064148,52.527018]},"properties":{"type":"charge","layer":"passenger","locationId":"61998c51-a6c8-43dd-b8e7-f3c98b317f43","name":"Karreveldstraat","address":"Karreveldstraat 12","city":"Zwolle","operatorName":"Vattenfall InCharge","maxPowerKw":11,"isMegawatt":false,"status":"AVAILABLE","source":"ndw"}},{"type":"Feature","geometry":{"type":"Point","coordinates":[6.087269,52.517244]},"properties":{"type":"charge","layer":"passenger","locationId":"19d462fc-e287-11ec-a4fc-42010aa4006c","name":"Eneco eMobility Roelenkwartier Zwolle BV","address":"Burgemeester Roelenweg 18","city":"Zwolle","operatorName":"Eneco","maxPowerKw":22,"isMegawatt":false,"status":"AVAILABLE","source":"ndw"}},{"type":"Feature","geometry":{"type":"Point","coordinates":[6.051066,52.516202]},"properties":{"type":"charge","layer":"passenger","locationId":"4199634","name":"Laadnet Aqualysis Waterlaboratorium","address":"Loggerweg 6A","city":"Zwolle","operatorName":"Laadnet","maxPowerKw":22,"isMegawatt":false,"status":"AVAILABLE","source":"ndw"}},{"type":"Feature","geometry":{"type":"Point","coordinates":[6.102871,52.477574]},"properties":{"type":"charge","layer":"passenger","locationId":"NLLOC010263","name":"NL, Van der Graaffmarke 27, 8016LN, Zwolle","address":"Van der Graaffmarke 27","city":"Zwolle","operatorName":"Allego","maxPowerKw":0,"isMegawatt":false,"status":"AVAILABLE","source":"ndw"}},{"type":"Feature","geometry":{"type":"Point","coordinates":[6.046283,52.543774]},"properties":{"type":"charge","layer":"passenger","locationId":"NLLOC024231","name":"NL, Oude Wetering 82, 8044 PA Zwolle","address":"Oude Wetering 82","city":"Zwolle","operatorName":"Allego","maxPowerKw":0,"isMegawatt":false,"status":"AVAILABLE","source":"ndw"}},{"type":"Feature","geometry":{"type":"Point","coordinates":[6.168706,52.546812]},"properties":{"type":"charge","layer":"passenger","locationId":"d2a990be-6cbf-11ed-bb74-42010aa4002a","name":"Fastned Haerst","address":"Haerst A28","city":"Zwolle","operatorName":"Fastned","maxPowerKw":300,"isMegawatt":false,"status":"AVAILABLE","source":"ndw"}},{"type":"Feature","geometry":{"type":"Point","coordinates":[6.078726,52.517395]},"properties":{"type":"charge","layer":"passenger","locationId":"94c5b630-2d32-11ef-bc06-42010aa40fcc","name":"Shell Recharge Blaloweg 2a","address":"Blaloweg 2a","city":"Zwolle","operatorName":"Shell Recharge","maxPowerKw":175,"isMegawatt":false,"status":"UNAVAILABLE","source":"ndw"}},{"type":"Feature","geometry":{"type":"Point","coordinates":[6.095028,52.502432]},"properties":{"type":"charge","layer":"passenger","locationId":"60c871a7b4a4ba05a6dc6dd6","name":"Parkeerterrein Hanzelaan 300","address":"Hanzelaan 300","city":"Zwolle","operatorName":"E-Flux by Road","maxPowerKw":11,"isMegawatt":false,"status":"CHARGING","source":"ndw"}},{"type":"Feature","geometry":{"type":"Point","coordinates":[6.109357,52.512658]},"properties":{"type":"charge","layer":"passenger","locationId":"NLLOC002715","name":"NLD, Gemeente Zwolle, De Ruyterstraat 24 8023TT Zwolle","address":"De Ruyterstraat 24","city":"Zwolle","operatorName":"Allego","maxPowerKw":0,"isMegawatt":false,"status":"AVAILABLE","source":"ndw"}},{"type":"Feature","geometry":{"type":"Point","coordinates":[6.082018,52.524527]},"properties":{"type":"charge","layer":"passenger","locationId":"NLLOC020964","name":"NL, Mozartlaan 22, 8031 AB Zwolle","address":"Mozartlaan 22","city":"Zwolle","operatorName":"Allego","maxPowerKw":0,"isMegawatt":false,"status":"AVAILABLE","source":"ndw"}},{"type":"Feature","geometry":{"type":"Point","coordinates":[6.066616,52.534569]},"properties":{"type":"charge","layer":"passenger","locationId":"NLLOC010485","name":"NL, Drapenierlaan, 28, 8043AA, Zwolle","address":"Drapenierlaan 28","city":"Zwolle","operatorName":"Allego","maxPowerKw":0,"isMegawatt":false,"status":"AVAILABLE","source":"ndw"}},{"type":"Feature","geometry":{"type":"Point","coordinates":[6.110376,52.48674]},"properties":{"type":"charge","layer":"passenger","locationId":"8d4eb732-d716-4c1a-8fa4-fd6272a9d8e8","name":"De Savornin Lohmanlaan","address":"De Savornin Lohmanlaan 15","city":"Zwolle","operatorName":"Vattenfall InCharge","maxPowerKw":11,"isMegawatt":false,"status":"AVAILABLE","source":"ndw"}},{"type":"Feature","geometry":{"type":"Point","coordinates":[6.095198,52.505082]},"properties":{"type":"charge","layer":"passenger","locationId":"3288cf76-22ea-11eb-a7cf-42010a840003","name":"NL, Hertenstraat 1, 8011 GR Zwolle","address":"Hertenstraat 1","city":"Zwolle","operatorName":"Allego","maxPowerKw":0,"isMegawatt":false,"status":"AVAILABLE","source":"ndw"}},{"type":"Feature","geometry":{"type":"Point","coordinates":[6.06246,52.531595]},"properties":{"type":"charge","layer":"passenger","locationId":"fc51e2c7-b03c-415b-a8db-d0717147d874","name":"Turfdragerstraat","address":"Turfdragerstraat 50","city":"Zwolle","operatorName":"Vattenfall InCharge","maxPowerKw":11,"isMegawatt":false,"status":"AVAILABLE","source":"ndw"}},{"type":"Feature","geometry":{"type":"Point","coordinates":[6.052327,52.537776]},"properties":{"type":"charge","layer":"passenger","locationId":"3b5e5334-934a-11eb-b932-42010a840003","name":"NL, Fioringras 79, 8043 KB Zwolle","address":"Fioringras 79","city":"Zwolle","operatorName":"Allego","maxPowerKw":0,"isMegawatt":false,"status":"AVAILABLE","source":"ndw"}},{"type":"Feature","geometry":{"type":"Point","coordinates":[6.097031,52.538252]},"properties":{"type":"charge","layer":"passenger","locationId":"50306ade-9bee-11eb-bcbd-42010a840003","name":"NL, Rijnlaan 205, 8032 MX Zwolle","address":"Rijnlaan 205","city":"Zwolle","operatorName":"Allego","maxPowerKw":0,"isMegawatt":false,"status":"AVAILABLE","source":"ndw"}},{"type":"Feature","geometry":{"type":"Point","coordinates":[6.05342,52.528057]},"properties":{"type":"charge","layer":"passenger","locationId":"7eefb2a8-702c-11e8-ac34-42010a840002","name":"NLD, Zwolle, Wildwalstraat 13, 8043 VL","address":"Wildwalstraat 13","city":"Zwolle","operatorName":"Allego","maxPowerKw":0,"isMegawatt":false,"status":"AVAILABLE","source":"ndw"}},{"type":"Feature","geometry":{"type":"Point","coordinates":[6.108448,52.519953]},"properties":{"type":"charge","layer":"passenger","locationId":"808b459a-3f33-11eb-a5ea-42010a840003","name":"NL, Mombaerstraat, 2G-14, 8022RM, Zwolle","address":"Mombaerstraat 2G-14","city":"Zwolle","operatorName":"Allego","maxPowerKw":0,"isMegawatt":false,"status":"AVAILABLE","source":"ndw"}},{"type":"Feature","geometry":{"type":"Point","coordinates":[6.045222,52.540225]},"properties":{"type":"charge","layer":"passenger","locationId":"96292052-5953-11ed-a449-42010aa40fc0","name":"NL, Oude Wetering 43, 8043MV, Zwolle","address":"Oude Wetering 43","city":"Zwolle","operatorName":"Allego","maxPowerKw":0,"isMegawatt":false,"status":"AVAILABLE","source":"ndw"}},{"type":"Feature","geometry":{"type":"Point","coordinates":[6.088286,52.511045]},"properties":{"type":"charge","layer":"passenger","locationId":"a4b0b916-6264-11ea-9257-42010a840003","name":"NL, Eekwal 39, 8011LB, Zwolle","address":"Eekwal 39","city":"Zwolle","operatorName":"Allego","maxPowerKw":0,"isMegawatt":false,"status":"CHARGING","source":"ndw"}},{"type":"Feature","geometry":{"type":"Point","coordinates":[6.107017,52.476834]},"properties":{"type":"charge","layer":"passenger","locationId":"a560133e-82b1-11f0-a83b-42010aa400b8","name":"NL, De Vroomemarke 66, 8016 MR Zwolle","address":"De Vroomemarke 66","city":"Zwolle","operatorName":"Allego","maxPowerKw":0,"isMegawatt":false,"status":"AVAILABLE","source":"ndw"}},{"type":"Feature","geometry":{"type":"Point","coordinates":[6.100912,52.503782]},"properties":{"type":"charge","layer":"passenger","locationId":"c3de1dcc-a157-11ec-93d5-42010a840003","name":"NL, Groeneweg 69, 8012 AK Zwolle","address":"Groeneweg 69","city":"Zwolle","operatorName":"Allego","maxPowerKw":0,"isMegawatt":false,"status":"AVAILABLE","source":"ndw"}},{"type":"Feature","geometry":{"type":"Point","coordinates":[6.11793,52.514397]},"properties":{"type":"charge","layer":"passenger","locationId":"cc6652d4-cf02-11eb-92d3-42010a840003","name":"NL, Bosboom Toussaintstraat 30, 8023 CV Zwolle","address":"Bosboom Toussaintstraat 30","city":"Zwolle","operatorName":"Allego","maxPowerKw":0,"isMegawatt":false,"status":"AVAILABLE","source":"ndw"}},{"type":"Feature","geometry":{"type":"Point","coordinates":[6.109755,52.51185]},"properties":{"type":"charge","layer":"passenger","locationId":"1d754df6-7d86-11ec-a17b-42010a840003","name":"NL, Piet Heinstraat 37, 8023VC Zwolle","address":"Piet Heinstraat 37","city":"Zwolle","operatorName":"Allego","maxPowerKw":0,"isMegawatt":false,"status":"AVAILABLE","source":"ndw"}},{"type":"Feature","geometry":{"type":"Point","coordinates":[6.119471,52.482848]},"properties":{"type":"charge","layer":"passenger","locationId":"020c55a8-0b2a-11ea-b6a0-42010a840003","name":"NLD, Zwolle, Haeckmate 47","address":"Haeckmate 47","city":"Zwolle","operatorName":"Allego","maxPowerKw":0,"isMegawatt":false,"status":"AVAILABLE","source":"ndw"}},{"type":"Feature","geometry":{"type":"Point","coordinates":[6.098505,52.524838]},"properties":{"type":"charge","layer":"passenger","locationId":"38dedb20-6dd1-11e8-aaf8-42010a840002","name":"NLD, Zwolle Kromme Rijn 10 8032 AC Zwolle","address":"Kromme Rijn 10","city":"Zwolle","operatorName":"Allego","maxPowerKw":0,"isMegawatt":false,"status":"AVAILABLE","source":"ndw"}},{"type":"Feature","geometry":{"type":"Point","coordinates":[6.046823,52.545186]},"properties":{"type":"charge","layer":"passenger","locationId":"42cc5f3e-d0d0-11ec-be9e-42010a840003","name":"NL, Boormolen 44, 8044 TC Zwolle","address":"Boormolen 44","city":"Zwolle","operatorName":"Allego","maxPowerKw":0,"isMegawatt":false,"status":"AVAILABLE","source":"ndw"}},{"type":"Feature","geometry":{"type":"Point","coordinates":[6.09802,52.484894]},"properties":{"type":"charge","layer":"passenger","locationId":"4ec23ab4-96fa-11ea-96a7-42010a840003","name":"NL, Van Welveldenmarke 1, 8016 DZ, Zwolle","address":"Van Welveldenmarke 1","city":"Zwolle","operatorName":"Allego","maxPowerKw":0,"isMegawatt":false,"status":"AVAILABLE","source":"ndw"}},{"type":"Feature","geometry":{"type":"Point","coordinates":[6.111408,52.535268]},"properties":{"type":"charge","layer":"passenger","locationId":"5bf3ccf0-4f3c-11e8-87ee-42010a840002","name":"NLD, Zwolle, Reggelaan 98","address":"Reggelaan 98","city":"Zwolle","operatorName":"Allego","maxPowerKw":0,"isMegawatt":false,"status":"AVAILABLE","source":"ndw"}},{"type":"Feature","geometry":{"type":"Point","coordinates":[6.037254,52.541406]},"properties":{"type":"charge","layer":"passenger","locationId":"7a1eb51e-4f3c-11e8-a4d3-42010a840002","name":"NLD, Zwolle, Cleyndertstraat 20","address":"Cleyndertstraat 20","city":"Zwolle","operatorName":"Allego","maxPowerKw":0,"isMegawatt":false,"status":"CHARGING","source":"ndw"}},{"type":"Feature","geometry":{"type":"Point","coordinates":[6.058059,52.525667]},"properties":{"type":"charge","layer":"passenger","locationId":"7ba5fd96-1d9e-11ec-b41a-42010a840003","name":"NL, Akkerbergplein 6, 8043XM, Zwolle","address":"Akkerbergplein 6","city":"Zwolle","operatorName":"Allego","maxPowerKw":0,"isMegawatt":false,"status":"AVAILABLE","source":"ndw"}},{"type":"Feature","geometry":{"type":"Point","coordinates":[6.056324,52.526139]},"properties":{"type":"charge","layer":"passenger","locationId":"af1f654e-e6fb-11e9-a74d-42010a840003","name":"NLD, Zwolle, Tiendschuurstraat 35","address":"Tiendschuurstraat 35","city":"Zwolle","operatorName":"Allego","maxPowerKw":0,"isMegawatt":false,"status":"AVAILABLE","source":"ndw"}},{"type":"Feature","geometry":{"type":"Point","coordinates":[6.038482,52.535927]},"properties":{"type":"charge","layer":"passenger","locationId":"c20409a8-a157-11ec-b08b-42010a840003","name":"NL, Oldruitenborghstraat 47, 8043TP, Zwolle","address":"Oldruitenborghstraat 47","city":"Zwolle","operatorName":"Allego","maxPowerKw":0,"isMegawatt":false,"status":"AVAILABLE","source":"ndw"}},{"type":"Feature","geometry":{"type":"Point","coordinates":[6.167289,52.487604]},"properties":{"type":"charge","layer":"passenger","locationId":"efe22f64-a15a-11ec-b8b8-42010a840003","name":"NL, Ploegweg 10, 8026 PX Zwolle","address":"Ploegweg 10","city":"Zwolle","operatorName":"Allego","maxPowerKw":0,"isMegawatt":false,"status":"AVAILABLE","source":"ndw"}},{"type":"Feature","geometry":{"type":"Point","coordinates":[6.049246,52.543723]},"properties":{"type":"charge","layer":"passenger","locationId":"07015fb4-88cc-11ec-b429-42010a840003","name":"NL, Loodwitmolen 21, 8044TL, Zwolle","address":"Loodwitmolen 21","city":"Zwolle","operatorName":"Allego","maxPowerKw":0,"isMegawatt":false,"status":"AVAILABLE","source":"ndw"}},{"type":"Feature","geometry":{"type":"Point","coordinates":[6.106323,52.495942]},"properties":{"type":"charge","layer":"passenger","locationId":"NLLOC006109","name":"NL, Energieweg 9, 8017 BE Zwolle","address":"Energieweg 9","city":"Zwolle","operatorName":"Allego","maxPowerKw":0,"isMegawatt":false,"status":"AVAILABLE","source":"ndw"}},{"type":"Feature","geometry":{"type":"Point","coordinates":[6.095198,52.505082]},"properties":{"type":"charge","layer":"passenger","locationId":"NLLOC006333","name":"NL, Hertenstraat 1, 8011 GR Zwolle","address":"Hertenstraat 1","city":"Zwolle","operatorName":"Allego","maxPowerKw":0,"isMegawatt":false,"status":"AVAILABLE","source":"ndw"}},{"type":"Feature","geometry":{"type":"Point","coordinates":[6.103925,52.502334]},"properties":{"type":"charge","layer":"passenger","locationId":"NLLOC021698","name":"NL, Leliestraat 2, 8012 BR Zwolle","address":"Leliestraat 2","city":"Zwolle","operatorName":"Allego","maxPowerKw":0,"isMegawatt":false,"status":"AVAILABLE","source":"ndw"}},{"type":"Feature","geometry":{"type":"Point","coordinates":[6.167289,52.487604]},"properties":{"type":"charge","layer":"passenger","locationId":"NLLOC021345","name":"NL, Ploegweg 10, 8026 PX Zwolle","address":"Ploegweg 10","city":"Zwolle","operatorName":"Allego","maxPowerKw":0,"isMegawatt":false,"status":"AVAILABLE","source":"ndw"}},{"type":"Feature","geometry":{"type":"Point","coordinates":[6.066308,52.530346]},